    UTC Time	Roll	Pitch	Yaw	X Velocity	Y Velocity	Z Velocity	Accelerometer X	Accelerometer Z	Accelerometer Y	Gyroscope X	Gyroscope Y	Gyroscope Z	Latitude	Longitude	Lati	Long
(HH:MM:SS.SS	(°)	(°)	(°)	(m.s^-1)	(m.s^-1)	(m.s^-1)	(m.s^-2)	(m.s^-2)	(m.s^-2)	(°.s^-1)	(°.s^-1)	(°.s^-1)	(°)	(°)	 (°)	 (°)
11:42:13.000	-1.736616	0.329864	-146.851376	0.010	-0.007	-0.001	0.166	-9.936	0.352	-0.144857	0.079436	0.017982	59.462008	18.135493	59.4	18.1
11:42:13.014	-1.734876	0.328485	-146.852264	0.010	-0.006	0.004	-0.023	-9.670	0.369	0.200340	-0.060661	-0.067792	59.462008	18.135493	59.4	18.1
11:42:13.028	-1.734920	0.328625	-146.851772	0.010	-0.006	0.004	-0.037	-9.925	0.307	0.160997	-0.056556	0.032281	59.462008	18.135493	59.4	18.1
11:42:13.042	-1.734761	0.328792	-146.851622	0.010	-0.006	0.004	-0.037	-9.931	0.306	0.154007	-0.056515	0.032318	59.462008	18.135493	59.4	18.1
11:42:13.056	-1.734603	0.328959	-146.851458	0.010	-0.006	0.004	-0.036	-9.937	0.305	0.147017	-0.056475	0.032354	59.462008	18.135493	59.4	18.1
11:42:13.070	-1.734444	0.329126	-146.851307	0.010	-0.006	0.004	-0.036	-9.942	0.304	0.140027	-0.056435	0.032391	59.462008	18.135493	59.4	18.1
11:42:13.084	-1.734286	0.329294	-146.851157	0.010	-0.006	0.004	-0.036	-9.948	0.302	0.133037	-0.056395	0.032427	59.462008	18.135493	59.4	18.1
11:42:13.098	-1.734127	0.329461	-146.851007	0.010	-0.006	0.003	-0.036	-9.954	0.301	0.126047	-0.056354	0.032464	59.462008	18.135493	59.4	18.1
11:42:13.112	-1.733969	0.329628	-146.850857	0.010	-0.006	0.003	-0.035	-9.960	0.300	0.119057	-0.056314	0.032500	59.462008	18.135493	59.4	18.1
11:42:13.126	-1.733810	0.329795	-146.850706	0.010	-0.006	0.003	-0.035	-9.966	0.298	0.112067	-0.056274	0.032537	59.462008	18.135493	59.4	18.1
11:42:13.140	-1.733652	0.329963	-146.850556	0.009	-0.006	0.003	-0.035	-9.971	0.297	0.105077	-0.056233	0.032573	59.462008	18.135493	59.4	18.1
11:42:13.154	-1.733493	0.330130	-146.850406	0.009	-0.006	0.003	-0.034	-9.977	0.296	0.098088	-0.056193	0.032610	59.462008	18.135493	59.4	18.1
11:42:13.168	-1.733334	0.330297	-146.850256	0.009	-0.006	0.003	-0.034	-9.983	0.295	0.091098	-0.056153	0.032647	59.462008	18.135493	59.4	18.1
11:42:13.182	-1.733176	0.330465	-146.850105	0.009	-0.006	0.003	-0.034	-9.989	0.293	0.084108	-0.056113	0.032683	59.462008	18.135493	59.4	18.1
11:42:13.196	-1.733018	0.330632	-146.849941	0.009	-0.006	0.002	-0.034	-9.995	0.292	0.077118	-0.056072	0.032720	59.462008	18.135493	59.4	18.1
11:42:13.210	-1.732859	0.330799	-146.849805	0.009	-0.006	0.002	-0.033	-10.000	0.291	0.070128	-0.056032	0.032756	59.462008	18.135493	59.4	18.1
11:42:13.224	-1.732700	0.330966	-146.849641	0.009	-0.006	0.002	-0.033	-10.006	0.289	0.063138	-0.055992	0.032793	59.462008	18.135493	59.4	18.1
11:42:13.238	-1.732542	0.331134	-146.849491	0.009	-0.006	0.002	-0.033	-10.012	0.288	0.056148	-0.055951	0.032829	59.462008	18.135493	59.4	18.1
11:42:13.252	-1.732383	0.331301	-146.849340	0.009	-0.006	0.002	-0.032	-10.018	0.287	0.049158	-0.055911	0.032866	59.462008	18.135493	59.4	18.1
11:42:13.266	-1.732225	0.331468	-146.849190	0.008	-0.007	0.002	-0.032	-10.024	0.286	0.042168	-0.055871	0.032902	59.462008	18.135493	59.4	18.1
11:42:13.280	-1.732066	0.331635	-146.849040	0.008	-0.007	0.002	-0.032	-10.030	0.284	0.035179	-0.055830	0.032939	59.462008	18.135493	59.4	18.1
11:42:13.294	-1.731907	0.331803	-146.848890	0.008	-0.007	0.001	-0.031	-10.035	0.283	0.028189	-0.055790	0.032975	59.462008	18.135493	59.4	18.1
11:42:13.308	-1.732898	0.332221	-146.848849	0.009	-0.006	0.002	0.154	-9.949	0.365	-0.163205	0.077115	-0.012651	59.462008	18.135493	59.4	18.1
11:42:13.322	-1.731675	0.331509	-146.848808	0.009	-0.006	0.004	0.005	-9.647	0.350	0.128996	-0.031663	0.000059	59.462008	18.135493	59.4	18.1
11:42:13.336	-1.731948	0.332670	-146.849245	0.008	-0.007	-0.001	0.070	-9.989	0.293	-0.096743	0.148756	-0.039116	59.462008	18.135493	59.4	18.1
11:42:13.350	-1.731074	0.331325	-146.849149	0.009	-0.005	0.004	0.021	-9.511	0.362	0.151017	-0.117661	-0.025074	59.462008	18.135493	59.4	18.1
11:42:13.364	-1.732079	0.332006	-146.849354	0.009	-0.005	0.002	0.018	-10.038	0.273	-0.220486	0.133337	-0.017268	59.462008	18.135493	59.4	18.1
11:42:13.378	-1.731928	0.331253	-146.849094	0.010	-0.007	0.004	0.090	-9.683	0.341	0.011802	-0.114995	0.045220	59.462008	18.135493	59.4	18.1
11:42:13.392	-1.731695	0.331019	-146.848999	0.009	-0.007	0.004	-0.022	-9.979	0.286	0.047584	-0.011608	0.041471	59.462008	18.135493	59.4	18.1
11:42:13.406	-1.731735	0.330901	-146.848835	0.009	-0.007	0.004	0.151	-9.944	0.342	-0.156603	0.130417	-0.041655	59.462008	18.135493	59.4	18.1
11:42:13.420	-1.731776	0.330783	-146.848685	0.009	-0.006	0.004	0.149	-9.925	0.343	-0.150568	0.113412	-0.038451	59.462008	18.135493	59.4	18.1
11:42:13.434	-1.731816	0.330665	-146.848534	0.009	-0.006	0.004	0.147	-9.906	0.343	-0.144533	0.096406	-0.035247	59.462008	18.135493	59.4	18.1
11:42:13.448	-1.731857	0.330547	-146.848370	0.009	-0.006	0.004	0.145	-9.887	0.343	-0.138499	0.079401	-0.032042	59.462008	18.135493	59.4	18.1
11:42:13.462	-1.731897	0.330430	-146.848207	0.009	-0.006	0.004	0.142	-9.868	0.343	-0.132464	0.062396	-0.028838	59.462008	18.135493	59.4	18.1
11:42:13.476	-1.731937	0.330312	-146.848056	0.009	-0.006	0.004	0.140	-9.849	0.344	-0.126429	0.045391	-0.025633	59.462008	18.135493	59.4	18.1
11:42:13.490	-1.731978	0.330194	-146.847892	0.009	-0.006	0.004	0.138	-9.830	0.344	-0.120395	0.028385	-0.022429	59.462008	18.135493	59.4	18.1
11:42:13.504	-1.732018	0.330076	-146.847728	0.009	-0.006	0.004	0.135	-9.811	0.344	-0.114360	0.011380	-0.019225	59.462008	18.135493	59.4	18.1
11:42:13.518	-1.732059	0.329958	-146.847578	0.009	-0.006	0.004	0.133	-9.792	0.345	-0.108325	-0.005625	-0.016020	59.462008	18.135493	59.4	18.1
11:42:13.532	-1.732099	0.329840	-146.847428	0.009	-0.006	0.004	0.131	-9.773	0.345	-0.102291	-0.022630	-0.012816	59.462008	18.135493	59.4	18.1
11:42:13.546	-1.732140	0.329722	-146.847264	0.009	-0.006	0.004	0.128	-9.754	0.345	-0.096256	-0.039636	-0.009612	59.462008	18.135493	59.4	18.1
11:42:13.560	-1.732180	0.329605	-146.847114	0.009	-0.006	0.004	0.126	-9.735	0.345	-0.090221	-0.056641	-0.006407	59.462008	18.135493	59.4	18.1
11:42:13.574	-1.732220	0.329487	-146.846950	0.009	-0.006	0.004	0.124	-9.716	0.346	-0.084187	-0.073646	-0.003203	59.462008	18.135493	59.4	18.1
11:42:13.588	-1.732261	0.329369	-146.846786	0.009	-0.006	0.004	0.122	-9.697	0.346	-0.078152	-0.090651	0.000002	59.462008	18.135493	59.4	18.1
11:42:13.602	-1.732301	0.329251	-146.846636	0.009	-0.006	0.004	0.119	-9.679	0.346	-0.072117	-0.107656	0.003206	59.462008	18.135493	59.4	18.1
11:42:13.616	-1.732342	0.329133	-146.846472	0.009	-0.006	0.003	0.117	-9.660	0.347	-0.066082	-0.124662	0.006410	59.462008	18.135493	59.4	18.1
11:42:13.630	-1.732382	0.329015	-146.846321	0.009	-0.006	0.003	0.115	-9.641	0.347	-0.060048	-0.141667	0.009615	59.462008	18.135493	59.4	18.1
11:42:13.644	-1.732423	0.328898	-146.846157	0.008	-0.006	0.003	0.112	-9.622	0.347	-0.054013	-0.158672	0.012819	59.462008	18.135493	59.4	18.1
11:42:13.658	-1.732275	0.328540	-146.846253	0.008	-0.006	0.004	0.054	-9.603	0.352	0.060042	-0.158021	-0.019342	59.462008	18.135493	59.4	18.1
11:42:13.672	-1.732347	0.329546	-146.846157	0.007	-0.007	-0.001	0.052	-10.014	0.297	-0.044004	0.112243	0.035947	59.462008	18.135493	59.4	18.1
11:42:13.686	-1.732662	0.328053	-146.846076	0.008	-0.006	0.001	0.081	-9.648	0.362	-0.091633	-0.128692	-0.001602	59.462008	18.135493	59.4	18.1
11:42:13.700	-1.732484	0.328317	-146.845884	0.007	-0.006	0.001	-0.049	-10.008	0.259	0.008583	-0.099609	0.014640	59.462008	18.135493	59.4	18.1
11:42:13.714	-1.733941	0.328080	-146.845693	0.009	-0.007	0.004	0.133	-9.717	0.379	-0.184738	-0.103215	0.063450	59.462008	18.135493	59.4	18.1
11:42:13.728	-1.733123	0.327970	-146.845843	0.008	-0.007	0.004	-0.025	-9.919	0.291	0.059090	-0.000774	-0.005384	59.462008	18.135493	59.4	18.1
11:42:13.742	-1.733497	0.328177	-146.845666	0.008	-0.007	0.004	0.092	-9.963	0.305	-0.181624	0.120189	0.031864	59.462008	18.135493	59.4	18.1
11:42:13.756	-1.733459	0.328073	-146.845556	0.008	-0.007	0.004	0.086	-9.961	0.306	-0.164991	0.112291	0.031554	59.462008	18.135493	59.4	18.1
11:42:13.770	-1.733422	0.327970	-146.845447	0.008	-0.007	0.004	0.080	-9.959	0.306	-0.148358	0.104392	0.031243	59.462008	18.135493	59.4	18.1
11:42:13.784	-1.733386	0.327867	-146.845352	0.008	-0.007	0.004	0.074	-9.957	0.307	-0.131725	0.096494	0.030933	59.462008	18.135493	59.4	18.1
11:42:13.798	-1.733348	0.327763	-146.845256	0.008	-0.007	0.004	0.068	-9.955	0.308	-0.115092	0.088595	0.030623	59.462008	18.135493	59.4	18.1
11:42:13.812	-1.733312	0.327660	-146.845147	0.008	-0.007	0.004	0.062	-9.952	0.309	-0.098458	0.080697	0.030313	59.462008	18.135493	59.4	18.1
11:42:13.826	-1.733275	0.327557	-146.845051	0.008	-0.007	0.004	0.057	-9.950	0.309	-0.081825	0.072799	0.030003	59.462008	18.135493	59.4	18.1
11:42:13.840	-1.733237	0.327453	-146.844942	0.008	-0.007	0.004	0.051	-9.948	0.310	-0.065192	0.064900	0.029693	59.462008	18.135493	59.4	18.1
11:42:13.854	-1.733201	0.327350	-146.844846	0.008	-0.007	0.004	0.045	-9.946	0.311	-0.048559	0.057002	0.029382	59.462008	18.135493	59.4	18.1
11:42:13.868	-1.733164	0.327247	-146.844737	0.008	-0.007	0.004	0.039	-9.944	0.311	-0.031926	0.049103	0.029072	59.462008	18.135493	59.4	18.1
11:42:13.882	-1.733127	0.327143	-146.844641	0.008	-0.007	0.004	0.033	-9.942	0.312	-0.015293	0.041205	0.028762	59.462008	18.135493	59.4	18.1
11:42:13.896	-1.733089	0.327040	-146.844532	0.008	-0.007	0.004	0.027	-9.940	0.313	0.001341	0.033307	0.028452	59.462008	18.135493	59.4	18.1
11:42:13.910	-1.733052	0.326937	-146.844436	0.008	-0.007	0.004	0.021	-9.937	0.314	0.017974	0.025408	0.028142	59.462008	18.135493	59.4	18.1
11:42:13.924	-1.733015	0.326833	-146.844327	0.008	-0.007	0.004	0.016	-9.935	0.314	0.034607	0.017510	0.027832	59.462008	18.135493	59.4	18.1
11:42:13.938	-1.732978	0.326730	-146.844231	0.008	-0.007	0.004	0.010	-9.933	0.315	0.051240	0.009611	0.027522	59.462008	18.135493	59.4	18.1
11:42:13.952	-1.732941	0.326626	-146.844122	0.008	-0.007	0.004	0.004	-9.931	0.316	0.067873	0.001713	0.027211	59.462008	18.135493	59.4	18.1
11:42:13.966	-1.732904	0.326523	-146.844026	0.008	-0.007	0.004	-0.002	-9.929	0.316	0.084506	-0.006185	0.026901	59.462008	18.135493	59.4	18.1
11:42:13.980	-1.732868	0.326420	-146.843917	0.008	-0.007	0.004	-0.008	-9.927	0.317	0.101139	-0.014084	0.026591	59.462008	18.135493	59.4	18.1
11:42:13.994	-1.732831	0.326316	-146.843822	0.008	-0.007	0.004	-0.014	-9.925	0.318	0.117772	-0.021982	0.026281	59.462008	18.135493	59.4	18.1
11:42:14.008	-1.733057	0.326832	-146.843972	0.007	-0.007	0.001	-0.008	-9.989	0.286	0.011553	0.025859	0.007587	59.462008	18.135493	59.4	18.1
11:42:14.022	-1.734813	0.325942	-146.843302	0.008	-0.007	0.000	0.147	-9.734	0.352	-0.166038	-0.103444	0.066104	59.462008	18.135493	59.4	18.1
11:42:14.036	-1.733484	0.325002	-146.843221	0.007	-0.006	0.002	0.005	-9.913	0.327	0.067200	-0.078458	0.023711	59.462008	18.135493	59.4	18.1
11:42:14.050	-1.733445	0.325059	-146.843139	0.007	-0.006	0.002	0.191	-9.877	0.389	-0.168581	-0.016951	-0.043846	59.462008	18.135493	59.4	18.1
11:42:14.064	-1.733405	0.325115	-146.843070	0.007	-0.006	0.002	0.183	-9.868	0.388	-0.152141	-0.014984	-0.043043	59.462008	18.135493	59.4	18.1
11:42:14.078	-1.733365	0.325171	-146.843002	0.007	-0.006	0.002	0.174	-9.859	0.386	-0.135702	-0.013017	-0.042240	59.462008	18.135493	59.4	18.1
11:42:14.092	-1.733325	0.325227	-146.842934	0.007	-0.006	0.002	0.166	-9.851	0.385	-0.119262	-0.011049	-0.041437	59.462008	18.135493	59.4	18.1
11:42:14.106	-1.733285	0.325283	-146.842865	0.007	-0.007	0.002	0.158	-9.842	0.384	-0.102822	-0.009082	-0.040635	59.462008	18.135493	59.4	18.1
11:42:14.120	-1.733245	0.325339	-146.842783	0.007	-0.007	0.002	0.149	-9.833	0.383	-0.086382	-0.007115	-0.039832	59.462008	18.135493	59.4	18.1
11:42:14.134	-1.733205	0.325395	-146.842715	0.007	-0.007	0.002	0.141	-9.824	0.382	-0.069942	-0.005147	-0.039029	59.462008	18.135493	59.4	18.1
11:42:14.148	-1.733166	0.325451	-146.842647	0.007	-0.007	0.002	0.132	-9.815	0.380	-0.053503	-0.003180	-0.038226	59.462008	18.135493	59.4	18.1
11:42:14.162	-1.733126	0.325507	-146.842578	0.007	-0.007	0.002	0.124	-9.806	0.379	-0.037063	-0.001213	-0.037423	59.462008	18.135493	59.4	18.1
11:42:14.176	-1.733085	0.325563	-146.842510	0.007	-0.007	0.002	0.115	-9.797	0.378	-0.020623	0.000755	-0.036620	59.462008	18.135493	59.4	18.1
11:42:14.190	-1.733046	0.325619	-146.842428	0.007	-0.007	0.002	0.107	-9.789	0.377	-0.004183	0.002722	-0.035817	59.462008	18.135493	59.4	18.1
11:42:14.204	-1.733006	0.325675	-146.842374	0.007	-0.007	0.002	0.099	-9.780	0.376	0.012257	0.004689	-0.035014	59.462008	18.135493	59.4	18.1
11:42:14.218	-1.732966	0.325731	-146.842292	0.007	-0.007	0.002	0.090	-9.771	0.374	0.028696	0.006657	-0.034211	59.462008	18.135493	59.4	18.1
11:42:14.232	-1.732926	0.325787	-146.842223	0.007	-0.007	0.002	0.082	-9.762	0.373	0.045136	0.008624	-0.033408	59.462008	18.135493	59.4	18.1
11:42:14.246	-1.732886	0.325843	-146.842155	0.007	-0.007	0.002	0.073	-9.753	0.372	0.061576	0.010591	-0.032606	59.462008	18.135493	59.4	18.1
11:42:14.260	-1.732846	0.325900	-146.842087	0.007	-0.007	0.002	0.065	-9.744	0.371	0.078016	0.012558	-0.031803	59.462008	18.135493	59.4	18.1
11:42:14.274	-1.732806	0.325956	-146.842005	0.007	-0.007	0.002	0.056	-9.735	0.370	0.094456	0.014526	-0.031000	59.462008	18.135493	59.4	18.1
11:42:14.288	-1.732766	0.326012	-146.841936	0.007	-0.007	0.002	0.048	-9.726	0.368	0.110895	0.016493	-0.030197	59.462008	18.135493	59.4	18.1
11:42:14.302	-1.732727	0.326068	-146.841868	0.007	-0.007	0.002	0.040	-9.718	0.367	0.127335	0.018460	-0.029394	59.462008	18.135493	59.4	18.1
11:42:14.316	-1.732687	0.326124	-146.841800	0.007	-0.007	0.002	0.031	-9.709	0.366	0.143775	0.020428	-0.028591	59.462008	18.135493	59.4	18.1
11:42:14.330	-1.732647	0.326180	-146.841732	0.007	-0.007	0.002	0.023	-9.700	0.365	0.160215	0.022395	-0.027788	59.462008	18.135493	59.4	18.1
11:42:14.344	-1.732607	0.326236	-146.841663	0.007	-0.007	0.002	0.014	-9.691	0.364	0.176655	0.024362	-0.026985	59.462008	18.135493	59.4	18.1
11:42:14.358	-1.732567	0.326292	-146.841595	0.007	-0.007	0.002	0.006	-9.682	0.362	0.193094	0.026330	-0.026182	59.462008	18.135493	59.4	18.1
11:42:14.372	-1.732644	0.326450	-146.841472	0.006	-0.007	0.001	-0.022	-9.784	0.325	0.139203	-0.014416	-0.000586	59.462008	18.135493	59.4	18.1
11:42:14.386	-1.734184	0.327404	-146.841144	0.007	-0.007	0.000	0.176	-9.929	0.335	-0.122438	0.031607	0.002780	59.462008	18.135493	59.4	18.1
11:42:14.400	-1.733263	0.327266	-146.841445	0.008	-0.007	0.005	-0.013	-9.642	0.349	0.135148	0.027695	0.007927	59.462008	18.135493	59.4	18.1
11:42:14.414	-1.733595	0.328269	-146.841144	0.007	-0.008	-0.000	0.170	-9.926	0.339	-0.060940	0.101600	0.015617	59.462008	18.135493	59.4	18.1
11:42:14.428	-1.733177	0.327685	-146.841103	0.007	-0.007	0.003	0.021	-9.595	0.340	0.034980	-0.093618	-0.020979	59.462008	18.135493	59.4	18.1
11:42:14.442	-1.733638	0.328817	-146.840762	0.007	-0.006	0.001	0.037	-10.022	0.302	-0.124956	0.096186	0.012701	59.462008	18.135493	59.4	18.1
11:42:14.456	-1.734452	0.327592	-146.840844	0.008	-0.007	0.003	0.081	-9.628	0.349	-0.088414	-0.125388	-0.008755	59.462008	18.135493	59.4	18.1
11:42:14.470	-1.734201	0.328035	-146.841117	0.008	-0.007	0.003	-0.038	-10.031	0.270	-0.069637	-0.024686	-0.003780	59.462008	18.135493	59.4	18.1
11:42:14.484	-1.734374	0.328218	-146.841253	0.008	-0.007	0.002	0.143	-9.959	0.341	-0.108493	0.149345	-0.020533	59.462008	18.135493	59.4	18.1
11:42:14.498	-1.734546	0.328401	-146.841376	0.008	-0.007	0.002	0.146	-9.958	0.342	-0.102214	0.139167	-0.020037	59.462008	18.135493	59.4	18.1
11:42:14.512	-1.734718	0.328584	-146.841499	0.008	-0.007	0.002	0.149	-9.956	0.343	-0.095936	0.128989	-0.019542	59.462008	18.135493	59.4	18.1
11:42:14.526	-1.734890	0.328767	-146.841622	0.008	-0.007	0.002	0.152	-9.955	0.343	-0.089657	0.118811	-0.019047	59.462008	18.135493	59.4	18.1
11:42:14.540	-1.735063	0.328949	-146.841759	0.008	-0.007	0.002	0.155	-9.953	0.344	-0.083378	0.108633	-0.018552	59.462008	18.135493	59.4	18.1
11:42:14.554	-1.735235	0.329132	-146.841882	0.008	-0.007	0.001	0.158	-9.952	0.345	-0.077100	0.098454	-0.018056	59.462008	18.135493	59.4	18.1
11:42:14.568	-1.735407	0.329315	-146.842005	0.008	-0.007	0.001	0.161	-9.950	0.345	-0.070821	0.088276	-0.017561	59.462008	18.135493	59.4	18.1
11:42:14.582	-1.735579	0.329498	-146.842128	0.008	-0.007	0.001	0.164	-9.949	0.346	-0.064542	0.078098	-0.017066	59.462008	18.135493	59.4	18.1
11:42:14.596	-1.735751	0.329681	-146.842264	0.008	-0.007	0.001	0.168	-9.948	0.347	-0.058264	0.067920	-0.016571	59.462008	18.135493	59.4	18.1
11:42:14.610	-1.735924	0.329864	-146.842374	0.008	-0.007	0.001	0.171	-9.946	0.348	-0.051985	0.057742	-0.016075	59.462008	18.135493	59.4	18.1
11:42:14.624	-1.736096	0.330046	-146.842510	0.008	-0.007	0.000	0.174	-9.945	0.348	-0.045706	0.047564	-0.015580	59.462008	18.135493	59.4	18.1
11:42:14.638	-1.736268	0.330229	-146.842633	0.008	-0.007	0.000	0.177	-9.943	0.349	-0.039428	0.037386	-0.015085	59.462008	18.135493	59.4	18.1
11:42:14.652	-1.736440	0.330412	-146.842756	0.008	-0.007	-0.000	0.180	-9.942	0.350	-0.033149	0.027207	-0.014590	59.462008	18.135493	59.4	18.1
11:42:14.666	-1.736612	0.330595	-146.842879	0.008	-0.007	-0.000	0.183	-9.940	0.350	-0.026871	0.017029	-0.014094	59.462008	18.135493	59.4	18.1
11:42:14.680	-1.736785	0.330778	-146.843002	0.008	-0.007	-0.000	0.186	-9.939	0.351	-0.020592	0.006851	-0.013599	59.462008	18.135493	59.4	18.1
11:42:14.694	-1.736957	0.330961	-146.843139	0.008	-0.007	-0.001	0.189	-9.937	0.352	-0.014313	-0.003327	-0.013104	59.462008	18.135493	59.4	18.1
11:42:14.708	-1.737129	0.331143	-146.843261	0.008	-0.007	-0.001	0.192	-9.936	0.352	-0.008035	-0.013505	-0.012609	59.462008	18.135493	59.4	18.1
11:42:14.722	-1.737301	0.331326	-146.843384	0.008	-0.007	-0.001	0.195	-9.935	0.353	-0.001756	-0.023683	-0.012113	59.462008	18.135493	59.4	18.1
11:42:14.736	-1.735660	0.330636	-146.842961	0.009	-0.006	0.005	0.035	-9.568	0.347	0.113167	-0.067073	0.037771	59.462008	18.135493	59.4	18.1
11:42:14.750	-1.735802	0.332048	-146.843412	0.008	-0.009	0.001	0.015	-9.976	0.277	-0.152596	0.169611	-0.022931	59.462008	18.135493	59.4	18.1
11:42:14.764	-1.735504	0.330813	-146.842947	0.009	-0.009	0.003	0.053	-9.531	0.346	0.008256	-0.142456	-0.048566	59.462008	18.135493	59.4	18.1
11:42:14.778	-1.735841	0.331330	-146.842688	0.008	-0.007	-0.000	0.006	-9.989	0.276	-0.070886	0.001141	0.037198	59.462008	18.135493	59.4	18.1
11:42:14.792	-1.736615	0.330219	-146.842510	0.010	-0.007	0.003	0.124	-9.739	0.368	-0.037252	-0.148801	0.021335	59.462008	18.135493	59.4	18.1
11:42:14.806	-1.735443	0.329840	-146.842715	0.010	-0.007	0.004	0.014	-9.622	0.341	0.051132	-0.023329	0.057640	59.462008	18.135493	59.4	18.1
11:42:14.820	-1.735662	0.330328	-146.842647	0.010	-0.007	0.004	0.038	-9.641	0.338	0.030067	-0.030705	0.062481	59.462008	18.135493	59.4	18.1
11:42:14.834	-1.735882	0.330816	-146.842578	0.011	-0.007	0.003	0.061	-9.659	0.335	0.009002	-0.038081	0.067322	59.462008	18.135493	59.4	18.1
11:42:14.848	-1.736101	0.331304	-146.842524	0.011	-0.007	0.003	0.084	-9.678	0.332	-0.012063	-0.045456	0.072164	59.462008	18.135493	59.4	18.1
11:42:14.862	-1.736321	0.331792	-146.842456	0.011	-0.008	0.003	0.108	-9.696	0.329	-0.033128	-0.052832	0.077005	59.462008	18.135493	59.4	18.1
11:42:14.876	-1.736540	0.332280	-146.842387	0.012	-0.008	0.003	0.131	-9.715	0.326	-0.054193	-0.060208	0.081846	59.462008	18.135493	59.4	18.1
11:42:14.890	-1.736760	0.332768	-146.842333	0.012	-0.008	0.002	0.155	-9.733	0.323	-0.075258	-0.067583	0.086688	59.462008	18.135493	59.4	18.1
11:42:14.904	-1.736979	0.333256	-146.842264	0.012	-0.008	0.002	0.178	-9.752	0.320	-0.096323	-0.074959	0.091529	59.462008	18.135493	59.4	18.1
11:42:14.918	-1.737199	0.333744	-146.842196	0.013	-0.008	0.002	0.202	-9.771	0.317	-0.117388	-0.082335	0.096370	59.462008	18.135493	59.4	18.1
11:42:14.932	-1.737418	0.334232	-146.842128	0.013	-0.008	0.002	0.225	-9.789	0.314	-0.138453	-0.089710	0.101212	59.462008	18.135493	59.4	18.1
11:42:14.946	-1.737638	0.334720	-146.842073	0.013	-0.008	0.001	0.248	-9.808	0.311	-0.159518	-0.097086	0.106053	59.462008	18.135493	59.4	18.1
11:42:14.960	-1.737858	0.335208	-146.842005	0.014	-0.008	0.001	0.272	-9.826	0.308	-0.180583	-0.104462	0.110894	59.462008	18.135493	59.4	18.1
11:42:14.974	-1.738077	0.335696	-146.841936	0.014	-0.008	0.001	0.295	-9.845	0.305	-0.201648	-0.111837	0.115736	59.462008	18.135493	59.4	18.1
11:42:14.988	-1.738296	0.336185	-146.841882	0.014	-0.008	0.001	0.319	-9.864	0.302	-0.222713	-0.119213	0.120577	59.462008	18.135493	59.4	18.1
11:42:15.002	-1.738516	0.336673	-146.841813	0.015	-0.008	0.000	0.342	-9.882	0.300	-0.243778	-0.126589	0.125419	59.462008	18.135493	59.4	18.1
11:42:15.016	-1.736009	0.336905	-146.842319	0.017	-0.007	0.005	0.223	-9.642	0.354	0.359989	-0.033791	-0.023084	59.462008	18.135493	59.4	18.1
11:42:15.030	-1.738004	0.339871	-146.842251	0.020	-0.008	0.003	0.164	-9.895	0.419	-0.241669	0.187226	-0.034358	59.462008	18.135493	59.4	18.1
11:42:15.044	-1.734746	0.337314	-146.840666	0.024	-0.009	0.005	0.336	-9.699	0.394	-0.156064	0.102147	0.025610	59.462008	18.135493	59.4	18.1
11:42:15.058	-1.734759	0.340638	-146.841226	0.026	-0.007	0.002	0.373	-9.931	0.277	0.198012	0.129491	0.050379	59.462008	18.135493	59.4	18.1
11:42:15.072	-1.733324	0.342745	-146.840488	0.035	-0.007	0.001	0.410	-9.815	0.283	0.483773	-0.102008	0.128341	59.462008	18.135493	59.4	18.1
11:42:15.086	-1.732174	0.344570	-146.839833	0.046	-0.007	0.002	0.375	-9.980	0.285	0.048157	0.336806	0.015625	59.462008	18.135493	59.4	18.1
11:42:15.100	-1.732067	0.347273	-146.839901	0.056	-0.007	0.002	0.629	-9.736	0.320	0.009043	-0.168657	0.035533	59.462008	18.135493	59.4	18.1
11:42:15.114	-1.731961	0.349976	-146.839969	0.066	-0.007	0.002	0.646	-9.741	0.322	0.008832	-0.146242	0.032274	59.462008	18.135493	59.4	18.1
11:42:15.128	-1.731854	0.352680	-146.840024	0.076	-0.007	0.003	0.664	-9.747	0.324	0.008622	-0.123827	0.029016	59.462008	18.135493	59.4	18.1
11:42:15.142	-1.731747	0.355383	-146.840092	0.086	-0.007	0.003	0.681	-9.753	0.326	0.008412	-0.101413	0.025757	59.462008	18.135493	59.4	18.1
11:42:15.156	-1.731640	0.358086	-146.840161	0.096	-0.007	0.003	0.699	-9.759	0.328	0.008201	-0.078998	0.022498	59.462008	18.135493	59.4	18.1
11:42:15.170	-1.731534	0.360789	-146.840229	0.106	-0.007	0.003	0.716	-9.765	0.330	0.007991	-0.056583	0.019239	59.462008	18.135493	59.4	18.1
11:42:15.184	-1.731427	0.363492	-146.840284	0.117	-0.007	0.004	0.733	-9.770	0.332	0.007780	-0.034168	0.015980	59.462008	18.135493	59.4	18.1
11:42:15.198	-1.731320	0.366195	-146.840352	0.127	-0.007	0.004	0.751	-9.776	0.333	0.007570	-0.011753	0.012722	59.462008	18.135493	59.4	18.1
11:42:15.212	-1.731214	0.368898	-146.840420	0.137	-0.007	0.004	0.768	-9.782	0.335	0.007360	0.010662	0.009463	59.462008	18.135493	59.4	18.1
11:42:15.226	-1.731107	0.371602	-146.840475	0.147	-0.007	0.005	0.786	-9.788	0.337	0.007149	0.033077	0.006204	59.462008	18.135493	59.4	18.1
11:42:15.240	-1.731000	0.374305	-146.840543	0.157	-0.007	0.005	0.803	-9.794	0.339	0.006939	0.055492	0.002945	59.462008	18.135493	59.4	18.1
11:42:15.254	-1.730893	0.377008	-146.840611	0.167	-0.007	0.005	0.821	-9.800	0.341	0.006729	0.077907	-0.000314	59.462008	18.135493	59.4	18.1
11:42:15.268	-1.730786	0.379711	-146.840666	0.177	-0.007	0.005	0.838	-9.805	0.343	0.006518	0.100322	-0.003572	59.462008	18.135493	59.4	18.1
11:42:15.282	-1.730679	0.382414	-146.840734	0.188	-0.007	0.006	0.856	-9.811	0.345	0.006308	0.122737	-0.006831	59.462008	18.135493	59.4	18.1
11:42:15.296	-1.730573	0.385117	-146.840803	0.198	-0.007	0.006	0.873	-9.817	0.347	0.006097	0.145151	-0.010090	59.462008	18.135493	59.4	18.1
11:42:15.310	-1.730466	0.387820	-146.840871	0.208	-0.007	0.006	0.890	-9.823	0.349	0.005887	0.167566	-0.013349	59.462008	18.135493	59.4	18.1
11:42:15.324	-1.730360	0.390524	-146.840939	0.218	-0.007	0.007	0.908	-9.829	0.350	0.005677	0.189981	-0.016607	59.462008	18.135493	59.4	18.1
11:42:15.338	-1.730253	0.393227	-146.840994	0.228	-0.007	0.007	0.925	-9.835	0.352	0.005466	0.212396	-0.019866	59.462008	18.135493	59.4	18.1
11:42:15.352	-1.730146	0.395930	-146.841062	0.238	-0.007	0.007	0.943	-9.840	0.354	0.005256	0.234811	-0.023125	59.462008	18.135493	59.4	18.1
11:42:15.366	-1.730039	0.398633	-146.841130	0.248	-0.007	0.008	0.960	-9.846	0.356	0.005045	0.257226	-0.026384	59.462008	18.135493	59.4	18.1
11:42:15.380	-1.729933	0.401336	-146.841185	0.259	-0.007	0.008	0.978	-9.852	0.358	0.004835	0.279641	-0.029643	59.462008	18.135493	59.4	18.1
11:42:15.394	-1.729826	0.404039	-146.841253	0.269	-0.007	0.008	0.995	-9.858	0.360	0.004625	0.302056	-0.032901	59.462008	18.135493	59.4	18.1
11:42:15.408	-1.729719	0.406743	-146.841308	0.279	-0.007	0.008	1.013	-9.864	0.362	0.004414	0.324471	-0.036160	59.462008	18.135493	59.4	18.1
11:42:15.422	-1.729612	0.409446	-146.841376	0.289	-0.007	0.009	1.030	-9.870	0.364	0.004204	0.346886	-0.039419	59.462008	18.135493	59.4	18.1
11:42:15.436	-1.730486	0.411516	-146.841663	0.300	-0.006	0.009	1.047	-9.886	0.384	-0.079836	0.113832	0.005434	59.462008	18.135493	59.4	18.1
11:42:15.450	-1.729286	0.414077	-146.842333	0.311	-0.006	0.009	0.888	-9.779	0.338	0.100412	0.224768	-0.069027	59.462008	18.135493	59.4	18.1
11:42:15.464	-1.730353	0.417951	-146.842578	0.325	-0.006	0.008	1.046	-9.920	0.365	-0.002898	0.193703	-0.006382	59.462008	18.135493	59.4	18.1
11:42:15.478	-1.729512	0.419894	-146.843644	0.336	-0.005	0.012	0.885	-9.698	0.347	0.093087	0.171912	-0.063713	59.462008	18.135493	59.4	18.1
11:42:15.492	-1.729745	0.423141	-146.844423	0.348	-0.005	0.010	0.978	-9.934	0.339	-0.072181	0.275381	-0.055659	59.462008	18.135493	59.4	18.1
11:42:15.506	-1.729473	0.424146	-146.844873	0.360	-0.005	0.011	0.866	-9.621	0.349	0.003348	0.018901	-0.053800	59.462008	18.135493	59.4	18.1
11:42:15.520	-1.729262	0.425919	-146.845761	0.371	-0.005	0.009	0.890	-9.950	0.327	-0.092921	0.197940	0.003561	59.462008	18.135493	59.4	18.1
11:42:15.534	-1.729436	0.426265	-146.845830	0.383	-0.005	0.009	0.858	-9.626	0.320	-0.075157	-0.117824	-0.021878	59.462008	18.135493	59.4	18.1
11:42:15.548	-1.729777	0.426994	-146.845898	0.395	-0.005	0.009	0.860	-9.628	0.322	-0.066227	-0.102016	-0.021971	59.462008	18.135493	59.4	18.1
11:42:15.562	-1.730117	0.427723	-146.845966	0.407	-0.005	0.010	0.862	-9.630	0.325	-0.056611	-0.084993	-0.022071	59.462008	18.135493	59.4	18.1
11:42:15.576	-1.730458	0.428453	-146.846048	0.418	-0.005	0.011	0.863	-9.632	0.327	-0.046994	-0.067970	-0.022171	59.462008	18.135493	59.4	18.1
11:42:15.590	-1.730798	0.429182	-146.846117	0.430	-0.005	0.011	0.865	-9.634	0.329	-0.037378	-0.050947	-0.022271	59.462008	18.135493	59.4	18.1
11:42:15.604	-1.731139	0.429911	-146.846198	0.442	-0.005	0.012	0.866	-9.636	0.331	-0.027761	-0.033924	-0.022371	59.462008	18.135493	59.4	18.1
11:42:15.618	-1.731479	0.430641	-146.846267	0.454	-0.005	0.012	0.868	-9.638	0.334	-0.018144	-0.016901	-0.022471	59.462008	18.135493	59.4	18.1
11:42:15.632	-1.731819	0.431370	-146.846335	0.465	-0.005	0.013	0.870	-9.640	0.336	-0.008528	0.000122	-0.022571	59.462008	18.135493	59.4	18.1
11:42:15.646	-1.732160	0.432099	-146.846417	0.477	-0.005	0.013	0.871	-9.642	0.338	0.001089	0.017146	-0.022671	59.462008	18.135493	59.4	18.1
11:42:15.660	-1.732500	0.432828	-146.846499	0.489	-0.005	0.014	0.873	-9.644	0.340	0.010705	0.034169	-0.022771	59.462008	18.135493	59.4	18.1
11:42:15.674	-1.732841	0.433558	-146.846567	0.501	-0.006	0.014	0.874	-9.646	0.343	0.020322	0.051192	-0.022872	59.462008	18.135493	59.4	18.1
11:42:15.688	-1.733182	0.434287	-146.846649	0.512	-0.006	0.015	0.876	-9.648	0.345	0.029939	0.068215	-0.022972	59.462008	18.135493	59.4	18.1
11:42:15.702	-1.733522	0.435016	-146.846718	0.524	-0.006	0.015	0.878	-9.650	0.347	0.039555	0.085238	-0.023072	59.462008	18.135493	59.4	18.1
11:42:15.716	-1.733862	0.435745	-146.846786	0.536	-0.006	0.016	0.879	-9.653	0.349	0.049172	0.102261	-0.023172	59.462008	18.135493	59.4	18.1
11:42:15.730	-1.734203	0.436475	-146.846868	0.548	-0.006	0.017	0.881	-9.655	0.352	0.058788	0.119284	-0.023272	59.462008	18.135493	59.4	18.1
11:42:15.744	-1.734543	0.437204	-146.846936	0.559	-0.006	0.017	0.882	-9.657	0.354	0.068405	0.136308	-0.023372	59.462008	18.135493	59.4	18.1
11:42:15.758	-1.734884	0.437933	-146.847018	0.571	-0.006	0.018	0.884	-9.659	0.356	0.078022	0.153331	-0.023472	59.462008	18.135493	59.4	18.1
11:42:15.772	-1.735224	0.438663	-146.847086	0.583	-0.006	0.018	0.886	-9.661	0.358	0.087638	0.170354	-0.023572	59.462008	18.135493	59.4	18.1
11:42:15.786	-1.735565	0.439392	-146.847168	0.595	-0.006	0.019	0.887	-9.663	0.361	0.097255	0.187377	-0.023672	59.462008	18.135493	59.4	18.1
11:42:15.800	-1.735588	0.442144	-146.848398	0.606	-0.006	0.019	0.887	-9.856	0.335	-0.052324	0.279043	-0.042675	59.462006	18.135491	59.4	18.1
11:42:15.814	-1.736552	0.442511	-146.848275	0.620	-0.004	0.023	0.899	-9.611	0.351	-0.079675	-0.052038	0.005606	59.462006	18.135491	59.4	18.1
11:42:15.828	-1.737641	0.445079	-146.849013	0.629	-0.004	0.020	0.847	-9.911	0.316	-0.180882	0.164714	-0.002498	59.462006	18.135491	59.4	18.1
11:42:15.842	-1.740115	0.445824	-146.850570	0.641	-0.004	0.019	0.974	-9.828	0.328	-0.257495	-0.035081	-0.032458	59.462006	18.135491	59.4	18.1
11:42:15.856	-1.740873	0.446046	-146.850857	0.652	-0.004	0.020	0.895	-9.819	0.286	-0.065471	0.049063	-0.031043	59.462006	18.135491	59.4	18.1
11:42:15.870	-1.742595	0.446980	-146.851321	0.664	-0.005	0.020	1.030	-9.995	0.355	-0.176310	-0.023623	0.044720	59.462006	18.135491	59.4	18.1
11:42:15.884	-1.743521	0.446774	-146.851321	0.675	-0.005	0.020	0.959	-9.779	0.330	-0.152599	-0.112333	-0.041275	59.462006	18.135491	59.4	18.1
11:42:15.898	-1.744446	0.446568	-146.851335	0.687	-0.005	0.021	0.942	-9.751	0.336	-0.153206	-0.096715	-0.035720	59.462006	18.135491	59.4	18.1
11:42:15.912	-1.745372	0.446362	-146.851335	0.699	-0.006	0.021	0.925	-9.723	0.341	-0.153813	-0.081097	-0.030165	59.462006	18.135491	59.4	18.1
11:42:15.926	-1.746297	0.446157	-146.851335	0.710	-0.006	0.021	0.908	-9.696	0.347	-0.154420	-0.065480	-0.024610	59.462006	18.135491	59.4	18.1
11:42:15.940	-1.747223	0.445951	-146.851348	0.722	-0.006	0.021	0.891	-9.668	0.353	-0.155027	-0.049862	-0.019055	59.462006	18.135491	59.4	18.1
11:42:15.954	-1.748149	0.445745	-146.851348	0.733	-0.007	0.022	0.874	-9.641	0.358	-0.155634	-0.034244	-0.013500	59.462006	18.135491	59.4	18.1
11:42:15.968	-1.749075	0.445539	-146.851348	0.745	-0.007	0.022	0.857	-9.613	0.364	-0.156241	-0.018627	-0.007945	59.462006	18.135491	59.4	18.1
11:42:15.982	-1.750000	0.445333	-146.851362	0.757	-0.007	0.022	0.840	-9.586	0.370	-0.156848	-0.003009	-0.002390	59.462006	18.135491	59.4	18.1
11:42:15.996	-1.750925	0.445127	-146.851362	0.768	-0.008	0.023	0.823	-9.558	0.375	-0.157455	0.012609	0.003165	59.462006	18.135491	59.4	18.1
11:42:16.010	-1.752742	0.445606	-146.851144	0.779	-0.007	0.021	0.812	-9.764	0.313	-0.082029	0.102077	0.028913	59.462006	18.135491	59.4	18.1
11:42:16.024	-1.758516	0.448305	-146.851526	0.793	-0.007	0.020	1.007	-9.892	0.388	-0.431198	0.064704	-0.048199	59.462006	18.135491	59.4	18.1
11:42:16.038	-1.759880	0.449633	-146.851362	0.805	-0.006	0.026	0.903	-9.673	0.323	-0.092075	0.113082	0.019352	59.462006	18.135491	59.4	18.1
11:42:16.052	-1.760538	0.452399	-146.851212	0.818	-0.006	0.026	1.009	-9.891	0.317	-0.303490	0.195818	0.008027	59.462006	18.135491	59.4	18.1
11:42:16.066	-1.760975	0.455372	-146.851103	0.831	-0.007	0.026	0.941	-9.698	0.294	-0.181267	0.122056	0.053358	59.462006	18.135491	59.4	18.1
11:42:16.080	-1.761413	0.458345	-146.850980	0.844	-0.007	0.026	0.957	-9.684	0.304	-0.165099	0.119664	0.050322	59.462006	18.135491	59.4	18.1
11:42:16.094	-1.761851	0.461318	-146.850884	0.857	-0.007	0.026	0.973	-9.671	0.314	-0.148931	0.117271	0.047287	59.462006	18.135491	59.4	18.1
11:42:16.108	-1.762288	0.464292	-146.850761	0.869	-0.007	0.026	0.990	-9.657	0.324	-0.132763	0.114879	0.044251	59.462006	18.135491	59.4	18.1
11:42:16.122	-1.762726	0.467265	-146.850652	0.882	-0.008	0.026	1.006	-9.644	0.334	-0.116595	0.112487	0.041215	59.462006	18.135491	59.4	18.1
11:42:16.136	-1.763164	0.470238	-146.850542	0.895	-0.008	0.026	1.022	-9.631	0.344	-0.100427	0.110094	0.038180	59.462006	18.135491	59.4	18.1
11:42:16.150	-1.763583	0.472814	-146.851116	0.909	-0.007	0.029	1.008	-9.663	0.336	0.032691	0.221812	0.011633	59.462006	18.135491	59.4	18.1
11:42:16.164	-1.765122	0.476137	-146.851103	0.925	-0.007	0.027	1.214	-10.135	0.368	-0.182834	0.261190	0.081303	59.462006	18.135491	59.4	18.1
11:42:16.178	-1.763672	0.482292	-146.850993	0.948	-0.007	0.028	1.261	-10.115	0.364	-0.170776	0.287436	0.080815	59.462006	18.135491	59.4	18.1
11:42:16.192	-1.762111	0.488919	-146.850884	0.973	-0.007	0.030	1.312	-10.092	0.360	-0.157791	0.315702	0.080290	59.462006	18.135491	59.4	18.1
11:42:16.206	-1.760550	0.495547	-146.850761	0.997	-0.007	0.032	1.364	-10.070	0.356	-0.144806	0.343967	0.079765	59.462006	18.135491	59.4	18.1
11:42:16.220	-1.758989	0.502175	-146.850652	1.022	-0.007	0.034	1.415	-10.047	0.352	-0.131821	0.372232	0.079240	59.462006	18.135491	59.4	18.1
11:42:16.234	-1.757428	0.508802	-146.850542	1.046	-0.007	0.036	1.466	-10.025	0.348	-0.118837	0.400498	0.078715	59.462006	18.135491	59.4	18.1
11:42:16.248	-1.755866	0.515430	-146.850420	1.071	-0.007	0.038	1.517	-10.003	0.344	-0.105852	0.428763	0.078190	59.462006	18.135491	59.4	18.1
11:42:16.262	-1.754305	0.522058	-146.850297	1.095	-0.007	0.040	1.568	-9.980	0.340	-0.092867	0.457028	0.077666	59.462006	18.135491	59.4	18.1
11:42:16.276	-1.752744	0.528685	-146.850187	1.120	-0.007	0.041	1.619	-9.958	0.336	-0.079882	0.485294	0.077141	59.462006	18.135491	59.4	18.1
11:42:16.290	-1.751183	0.535313	-146.850078	1.144	-0.007	0.043	1.670	-9.936	0.332	-0.066897	0.513559	0.076616	59.462006	18.135491	59.4	18.1
11:42:16.304	-1.749622	0.541941	-146.849955	1.169	-0.007	0.045	1.722	-9.913	0.328	-0.053912	0.541825	0.076091	59.462006	18.135491	59.4	18.1
11:42:16.318	-1.748061	0.548568	-146.849846	1.194	-0.007	0.047	1.773	-9.891	0.324	-0.040927	0.570090	0.075566	59.462006	18.135491	59.4	18.1
11:42:16.332	-1.746499	0.555196	-146.849723	1.218	-0.007	0.049	1.824	-9.869	0.320	-0.027942	0.598355	0.075041	59.462006	18.135491	59.4	18.1
11:42:16.346	-1.744937	0.561824	-146.849600	1.243	-0.007	0.051	1.875	-9.846	0.316	-0.014957	0.626621	0.074516	59.462006	18.135491	59.4	18.1
11:42:16.360	-1.743377	0.568451	-146.849491	1.267	-0.007	0.053	1.926	-9.824	0.312	-0.001972	0.654886	0.073991	59.462006	18.135491	59.4	18.1
11:42:16.374	-1.741815	0.575079	-146.849381	1.292	-0.007	0.055	1.977	-9.802	0.307	0.011013	0.683151	0.073466	59.462006	18.135491	59.4	18.1
11:42:16.388	-1.740254	0.581707	-146.849258	1.316	-0.007	0.057	2.029	-9.779	0.303	0.023998	0.711417	0.072941	59.462006	18.135491	59.4	18.1
11:42:16.402	-1.738692	0.588334	-146.849135	1.341	-0.006	0.059	2.080	-9.757	0.299	0.036983	0.739682	0.072416	59.462006	18.135491	59.4	18.1
11:42:16.416	-1.737131	0.594962	-146.849026	1.365	-0.006	0.061	2.131	-9.735	0.295	0.049968	0.767948	0.071891	59.462006	18.135491	59.4	18.1
11:42:16.430	-1.735569	0.601590	-146.848903	1.390	-0.006	0.063	2.182	-9.712	0.291	0.062953	0.796213	0.071366	59.462006	18.135491	59.4	18.1
11:42:16.444	-1.734008	0.608217	-146.848780	1.415	-0.006	0.065	2.233	-9.690	0.287	0.075938	0.824478	0.070842	59.462006	18.135491	59.4	18.1
11:42:16.458	-1.732447	0.614845	-146.848671	1.439	-0.006	0.067	2.284	-9.667	0.283	0.088923	0.852744	0.070317	59.462006	18.135491	59.4	18.1
11:42:16.472	-1.730885	0.621472	-146.848562	1.464	-0.006	0.069	2.336	-9.645	0.279	0.101908	0.881009	0.069792	59.462006	18.135491	59.4	18.1
11:42:16.486	-1.729324	0.628100	-146.848425	1.488	-0.006	0.071	2.387	-9.623	0.275	0.114893	0.909274	0.069267	59.462006	18.135491	59.4	18.1
11:42:16.500	-1.727472	0.636422	-146.848179	1.516	-0.006	0.072	2.505	-9.617	0.421	0.179479	0.942036	0.000480	59.462006	18.135491	59.4	18.1
11:42:16.514	-1.723507	0.648900	-146.846704	1.553	-0.006	0.074	2.559	-9.635	0.326	0.326807	0.902322	0.112643	59.462006	18.135491	59.4	18.1
11:42:16.528	-1.721520	0.659158	-146.846267	1.584	-0.006	0.077	2.455	-9.578	0.318	0.095460	0.802659	0.030197	59.462006	18.135491	59.4	18.1
11:42:16.542	-1.721095	0.669487	-146.845256	1.618	-0.006	0.078	2.603	-9.826	0.374	-0.076102	0.624594	0.111346	59.462006	18.135491	59.4	18.1
11:42:16.556	-1.720737	0.679755	-146.845597	1.653	-0.007	0.081	2.603	-9.795	0.298	0.016575	0.732245	-0.006808	59.462006	18.135491	59.4	18.1
11:42:16.570	-1.723537	0.690559	-146.845324	1.687	-0.004	0.082	2.613	-9.667	0.437	-0.041359	0.869045	0.010174	59.462006	18.135491	59.4	18.1
11:42:16.584	-1.727009	0.698767	-146.846076	1.723	-0.004	0.084	2.494	-9.688	0.327	-0.325858	0.802351	-0.096274	59.462006	18.135491	59.4	18.1
11:42:16.598	-1.734243	0.705512	-146.845980	1.752	-0.004	0.083	2.500	-9.712	0.271	-0.484997	0.515023	0.014909	59.462006	18.135491	59.4	18.1
11:42:16.612	-1.746255	0.712579	-146.846485	1.782	-0.004	0.085	2.478	-9.692	0.264	-0.463440	0.521028	0.016687	59.462006	18.135491	59.4	18.1
11:42:16.626	-1.758267	0.719647	-146.846991	1.812	-0.004	0.087	2.463	-9.706	0.285	-0.463808	0.505920	0.017315	59.462006	18.135491	59.4	18.1
11:42:16.640	-1.770280	0.726714	-146.847496	1.843	-0.004	0.089	2.447	-9.719	0.306	-0.464175	0.490813	0.017944	59.462006	18.135491	59.4	18.1
11:42:16.654	-1.782293	0.733781	-146.848002	1.873	-0.004	0.091	2.432	-9.733	0.327	-0.464543	0.475706	0.018572	59.462006	18.135491	59.4	18.1
11:42:16.668	-1.794306	0.740848	-146.848521	1.903	-0.004	0.093	2.416	-9.747	0.348	-0.464910	0.460599	0.019201	59.462006	18.135491	59.4	18.1
11:42:16.682	-1.806318	0.747915	-146.849026	1.934	-0.004	0.095	2.400	-9.760	0.369	-0.465278	0.445492	0.019829	59.462006	18.135491	59.4	18.1
11:42:16.696	-1.818331	0.754982	-146.849532	1.964	-0.005	0.097	2.385	-9.774	0.390	-0.465645	0.430385	0.020458	59.462006	18.135491	59.4	18.1
11:42:16.710	-1.830344	0.762049	-146.850051	1.994	-0.005	0.099	2.369	-9.788	0.411	-0.466013	0.415277	0.021086	59.462006	18.135491	59.4	18.1
11:42:16.724	-1.842357	0.769115	-146.850570	2.025	-0.005	0.101	2.353	-9.801	0.431	-0.466380	0.400170	0.021715	59.462006	18.135491	59.4	18.1
11:42:16.738	-1.854371	0.776182	-146.851075	2.055	-0.005	0.104	2.338	-9.815	0.452	-0.466748	0.385063	0.022343	59.462006	18.135491	59.4	18.1
11:42:16.752	-1.866383	0.783248	-146.851594	2.085	-0.005	0.106	2.322	-9.829	0.473	-0.467115	0.369956	0.022972	59.462006	18.135491	59.4	18.1
11:42:16.766	-1.878397	0.790314	-146.852127	2.116	-0.005	0.108	2.307	-9.842	0.494	-0.467483	0.354849	0.023600	59.462006	18.135491	59.4	18.1
11:42:16.780	-1.890410	0.797381	-146.852646	2.146	-0.005	0.110	2.291	-9.856	0.515	-0.467850	0.339741	0.024228	59.462006	18.135491	59.4	18.1
11:42:16.794	-1.902424	0.804447	-146.853165	2.176	-0.006	0.112	2.275	-9.870	0.536	-0.468218	0.324634	0.024857	59.462006	18.135491	59.4	18.1
11:42:16.808	-1.914437	0.811512	-146.853698	2.206	-0.006	0.114	2.260	-9.883	0.557	-0.468585	0.309527	0.025485	59.462006	18.135491	59.4	18.1
11:42:16.822	-1.926451	0.818578	-146.854217	2.237	-0.006	0.116	2.244	-9.897	0.578	-0.468953	0.294420	0.026114	59.462006	18.135491	59.4	18.1
11:42:16.836	-1.938464	0.825644	-146.854750	2.267	-0.006	0.119	2.229	-9.910	0.599	-0.469320	0.279313	0.026742	59.462006	18.135491	59.4	18.1
11:42:16.850	-1.950478	0.832710	-146.855269	2.297	-0.006	0.121	2.213	-9.924	0.619	-0.469688	0.264205	0.027371	59.462006	18.135491	59.4	18.1
11:42:16.864	-1.961646	0.837340	-146.854886	2.328	-0.006	0.122	2.132	-10.004	0.620	-0.660154	0.166950	0.091938	59.462006	18.135491	59.4	18.1
11:42:16.878	-1.968235	0.840038	-146.855146	2.354	-0.005	0.121	2.200	-10.015	0.486	-0.550162	0.191669	-0.029065	59.462006	18.135491	59.4	18.1
11:42:16.892	-1.971344	0.838615	-146.854886	2.381	-0.002	0.113	2.272	-9.968	0.576	-0.128491	-0.040344	0.013840	59.462006	18.135491	59.4	18.1
11:42:16.906	-1.977344	0.832073	-146.855214	2.409	0.000	0.108	2.081	-9.993	0.564	-0.509520	-0.498491	-0.069013	59.462006	18.135491	59.4	18.1
11:42:16.920	-1.977439	0.821302	-146.854559	2.434	0.001	0.098	1.967	-10.199	0.563	0.103008	-1.023195	0.121128	59.462006	18.135491	59.4	18.1
11:42:16.934	-1.972522	0.807719	-146.853520	2.458	-0.000	0.085	1.997	-10.427	0.352	0.341439	-1.047137	0.110711	59.462006	18.135491	59.4	18.1
11:42:16.948	-1.962123	0.788623	-146.853001	2.483	0.000	0.073	2.061	-10.279	0.490	0.694287	-1.116188	-0.063211	59.462006	18.135491	59.4	18.1
11:42:16.962	-1.948090	0.763648	-146.852687	2.509	0.001	0.062	2.165	-10.400	0.527	0.832061	-1.405502	-0.052784	59.462006	18.135491	59.4	18.1
11:42:16.976	-1.934057	0.738673	-146.852400	2.534	0.002	0.050	2.177	-10.349	0.534	0.960956	-1.662072	-0.023015	59.462006	18.135491	59.4	18.1
11:42:16.990	-1.920025	0.713698	-146.852100	2.560	0.002	0.039	2.189	-10.298	0.540	1.089850	-1.918641	0.006753	59.462006	18.135491	59.4	18.1
11:42:17.004	-1.904990	0.686939	-146.851786	2.587	0.003	0.026	2.202	-10.243	0.547	1.227950	-2.193536	0.038648	59.462006	18.135491	59.4	18.1
11:42:17.018	-1.890743	0.662003	-146.851799	2.608	0.003	0.014	2.093	-10.041	0.460	1.171517	-2.068009	-0.076121	59.462006	18.135491	59.4	18.1
11:42:17.032	-1.877883	0.642554	-146.852072	2.632	0.002	0.014	2.192	-10.021	0.458	1.234553	-2.025392	-0.067178	59.462006	18.135491	59.4	18.1
11:42:17.046	-1.865023	0.623105	-146.852346	2.657	0.002	0.014	2.179	-9.999	0.447	1.194792	-1.883054	-0.046649	59.462006	18.135491	59.4	18.1
11:42:17.060	-1.852163	0.603656	-146.852619	2.682	0.001	0.013	2.165	-9.977	0.436	1.155030	-1.740717	-0.026120	59.462006	18.135491	59.4	18.1
11:42:17.074	-1.839303	0.584208	-146.852906	2.707	0.001	0.013	2.152	-9.955	0.426	1.115269	-1.598380	-0.005591	59.462006	18.135491	59.4	18.1
11:42:17.088	-1.826443	0.564759	-146.853193	2.731	0.000	0.013	2.139	-9.933	0.415	1.075508	-1.456043	0.014938	59.462006	18.135491	59.4	18.1
11:42:17.102	-1.813584	0.545310	-146.853479	2.756	-0.000	0.012	2.126	-9.911	0.404	1.035747	-1.313705	0.035467	59.462006	18.135491	59.4	18.1
11:42:17.116	-1.800723	0.525861	-146.853780	2.781	-0.001	0.012	2.113	-9.890	0.394	0.995986	-1.171368	0.055996	59.462006	18.135491	59.4	18.1
11:42:17.130	-1.787863	0.506413	-146.854067	2.806	-0.001	0.012	2.099	-9.868	0.383	0.956224	-1.029031	0.076526	59.462006	18.135491	59.4	18.1
11:42:17.144	-1.775003	0.486965	-146.854381	2.830	-0.002	0.011	2.086	-9.846	0.372	0.916463	-0.886694	0.097055	59.462006	18.135491	59.4	18.1
11:42:17.158	-1.762142	0.467516	-146.854682	2.855	-0.002	0.011	2.073	-9.824	0.361	0.876702	-0.744356	0.117584	59.462006	18.135491	59.4	18.1
11:42:17.172	-1.749282	0.448068	-146.854996	2.880	-0.003	0.010	2.060	-9.802	0.351	0.836941	-0.602019	0.138113	59.462006	18.135491	59.4	18.1
11:42:17.186	-1.736421	0.428620	-146.855310	2.905	-0.003	0.010	2.047	-9.780	0.340	0.797180	-0.459682	0.158642	59.462006	18.135491	59.4	18.1
11:42:17.200	-1.723561	0.409171	-146.855638	2.929	-0.003	0.009	2.033	-9.758	0.329	0.757418	-0.317345	0.179171	59.461988	18.135470	59.4	18.1
11:42:17.214	-1.709782	0.388334	-146.855979	2.956	-0.004	0.009	2.019	-9.734	0.318	0.714817	-0.164840	0.201166	59.461988	18.135470	59.4	18.1
11:42:17.228	-1.699222	0.391941	-146.855515	2.982	-0.001	0.017	1.846	-9.499	0.339	0.684528	0.331282	0.077753	59.461988	18.135470	59.4	18.1
11:42:17.242	-1.689700	0.399114	-146.854586	3.007	0.001	0.025	1.765	-9.459	0.301	0.639672	0.672003	0.062902	59.461988	18.135470	59.4	18.1
11:42:17.256	-1.682762	0.408574	-146.853657	3.032	-0.002	0.035	1.662	-9.403	0.307	0.623242	0.774404	0.076293	59.461988	18.135470	59.4	18.1
11:42:17.270	-1.676860	0.418871	-146.852578	3.055	-0.003	0.038	1.673	-9.397	0.313	0.287249	0.684819	0.068314	59.461988	18.135470	59.4	18.1
11:42:17.284	-1.686422	0.434981	-146.852878	3.076	-0.003	0.042	1.663	-9.383	0.317	0.241768	0.717396	0.056426	59.461988	18.135470	59.4	18.1
11:42:17.298	-1.695985	0.451091	-146.853165	3.097	-0.003	0.045	1.654	-9.368	0.321	0.196287	0.749973	0.044539	59.461988	18.135470	59.4	18.1
11:42:17.312	-1.705547	0.467200	-146.853466	3.119	-0.003	0.049	1.645	-9.354	0.325	0.150806	0.782550	0.032651	59.461988	18.135470	59.4	18.1
11:42:17.326	-1.715110	0.483310	-146.853780	3.140	-0.003	0.052	1.635	-9.339	0.329	0.105325	0.815127	0.020764	59.461988	18.135470	59.4	18.1
11:42:17.340	-1.724673	0.499419	-146.854081	3.161	-0.003	0.056	1.626	-9.325	0.333	0.059844	0.847705	0.008876	59.461988	18.135470	59.4	18.1
11:42:17.354	-1.734235	0.515529	-146.854381	3.183	-0.003	0.059	1.616	-9.310	0.337	0.014363	0.880282	-0.003011	59.461988	18.135470	59.4	18.1
11:42:17.368	-1.743798	0.531638	-146.854695	3.204	-0.003	0.062	1.607	-9.296	0.341	-0.031118	0.912859	-0.014899	59.461988	18.135470	59.4	18.1
11:42:17.382	-1.753361	0.547747	-146.855009	3.225	-0.003	0.066	1.598	-9.282	0.345	-0.076599	0.945436	-0.026786	59.461988	18.135470	59.4	18.1
11:42:17.396	-1.762924	0.563857	-146.855337	3.247	-0.003	0.069	1.588	-9.267	0.350	-0.122080	0.978013	-0.038674	59.461988	18.135470	59.4	18.1
11:42:17.410	-1.772487	0.579966	-146.855651	3.268	-0.004	0.073	1.579	-9.253	0.354	-0.167561	1.010590	-0.050561	59.461988	18.135470	59.4	18.1
11:42:17.424	-1.782051	0.596075	-146.855966	3.289	-0.004	0.076	1.569	-9.238	0.358	-0.213042	1.043167	-0.062449	59.461988	18.135470	59.4	18.1
11:42:17.438	-1.791615	0.612184	-146.856293	3.311	-0.004	0.080	1.560	-9.224	0.362	-0.258523	1.075744	-0.074337	59.461988	18.135470	59.4	18.1
11:42:17.452	-1.801178	0.628293	-146.856621	3.332	-0.004	0.084	1.551	-9.209	0.366	-0.304004	1.108321	-0.086224	59.461988	18.135470	59.4	18.1
11:42:17.466	-1.810742	0.644402	-146.856949	3.353	-0.004	0.087	1.541	-9.195	0.370	-0.349485	1.140899	-0.098112	59.461988	18.135470	59.4	18.1
11:42:17.480	-1.820306	0.660511	-146.857277	3.375	-0.004	0.091	1.532	-9.180	0.374	-0.394966	1.173476	-0.109999	59.461988	18.135470	59.4	18.1
11:42:17.494	-1.829870	0.676620	-146.857619	3.396	-0.004	0.094	1.522	-9.166	0.378	-0.440446	1.206053	-0.121887	59.461988	18.135470	59.4	18.1
11:42:17.508	-1.839433	0.692729	-146.857946	3.417	-0.004	0.098	1.513	-9.151	0.382	-0.485928	1.238630	-0.133774	59.461988	18.135470	59.4	18.1
11:42:17.522	-1.848998	0.708838	-146.858288	3.438	-0.004	0.101	1.504	-9.137	0.387	-0.531408	1.271207	-0.145662	59.461988	18.135470	59.4	18.1
11:42:17.536	-1.858562	0.724947	-146.858629	3.460	-0.004	0.105	1.494	-9.122	0.391	-0.576889	1.303784	-0.157549	59.461988	18.135470	59.4	18.1
11:42:17.550	-1.868127	0.741055	-146.858985	3.481	-0.004	0.109	1.485	-9.108	0.395	-0.622370	1.336361	-0.169437	59.461988	18.135470	59.4	18.1
11:42:17.564	-1.877692	0.757164	-146.859326	3.502	-0.005	0.112	1.475	-9.094	0.399	-0.667851	1.368938	-0.181324	59.461988	18.135470	59.4	18.1
11:42:17.578	-1.889009	0.773264	-146.859995	3.523	-0.003	0.117	1.671	-9.561	0.584	-0.823213	1.225128	-0.020982	59.461988	18.135470	59.4	18.1
11:42:17.592	-1.899599	0.794379	-146.862837	3.545	-0.001	0.122	1.839	-9.553	0.435	-0.690285	1.538315	-0.138094	59.461988	18.135470	59.4	18.1
11:42:17.606	-1.907988	0.816743	-146.865159	3.566	0.002	0.129	1.638	-9.372	0.580	-0.442441	1.723227	-0.175303	59.461979	18.135458	59.4	18.1
11:42:17.620	-1.913561	0.839868	-146.867946	3.586	0.005	0.138	1.562	-9.188	0.421	-0.300438	1.793518	-0.215242	59.461979	18.135458	59.4	18.1
11:42:17.634	-1.916666	0.868461	-146.873724	3.608	0.007	0.150	1.571	-9.265	0.516	-0.066241	2.013956	-0.293131	59.461979	18.135458	59.4	18.1
11:42:17.648	-1.916881	0.892217	-146.875609	3.628	0.005	0.158	1.600	-9.326	0.301	0.004774	1.868489	-0.091830	59.461979	18.135458	59.4	18.1
11:42:17.662	-1.910910	0.911777	-146.876525	3.647	0.005	0.160	1.681	-9.526	0.398	0.213956	1.778030	0.089766	59.461979	18.135458	59.4	18.1
11:42:17.676	-1.903704	0.924381	-146.877877	3.666	0.005	0.161	1.566	-9.356	0.329	0.293952	1.847087	-0.000974	59.461979	18.135458	59.4	18.1
11:42:17.690	-1.896498	0.936984	-146.879216	3.684	0.005	0.161	1.558	-9.393	0.338	0.354894	1.756452	-0.015186	59.461979	18.135458	59.4	18.1
11:42:17.704	-1.889292	0.949588	-146.880568	3.702	0.005	0.161	1.551	-9.429	0.346	0.415836	1.665817	-0.029397	59.461979	18.135458	59.4	18.1
11:42:17.718	-1.882087	0.962191	-146.881907	3.721	0.006	0.162	1.543	-9.466	0.354	0.476778	1.575181	-0.043609	59.461979	18.135458	59.4	18.1
11:42:17.732	-1.874881	0.974795	-146.883232	3.739	0.006	0.162	1.536	-9.503	0.363	0.537719	1.484546	-0.057821	59.461979	18.135458	59.4	18.1
11:42:17.746	-1.867676	0.987399	-146.884570	3.757	0.006	0.162	1.529	-9.539	0.371	0.598661	1.393910	-0.072033	59.461979	18.135458	59.4	18.1
11:42:17.760	-1.860472	1.000004	-146.885909	3.776	0.006	0.163	1.521	-9.576	0.379	0.659603	1.303275	-0.086244	59.461979	18.135458	59.4	18.1
11:42:17.774	-1.853267	1.012608	-146.887248	3.794	0.007	0.163	1.514	-9.613	0.388	0.720545	1.212640	-0.100456	59.461979	18.135458	59.4	18.1
11:42:17.788	-1.846063	1.025213	-146.888573	3.812	0.007	0.164	1.507	-9.649	0.396	0.781487	1.122004	-0.114668	59.461979	18.135458	59.4	18.1
11:42:17.802	-1.838859	1.037817	-146.889912	3.831	0.007	0.164	1.499	-9.686	0.404	0.842429	1.031369	-0.128879	59.461979	18.135458	59.4	18.1
11:42:17.816	-1.831655	1.050422	-146.891237	3.849	0.007	0.164	1.492	-9.723	0.412	0.903371	0.940733	-0.143091	59.461979	18.135458	59.4	18.1
11:42:17.830	-1.824452	1.063027	-146.892562	3.867	0.008	0.165	1.484	-9.759	0.421	0.964313	0.850098	-0.157303	59.461979	18.135458	59.4	18.1
11:42:17.844	-1.817248	1.075633	-146.893887	3.886	0.008	0.165	1.477	-9.796	0.429	1.025255	0.759463	-0.171515	59.461979	18.135458	59.4	18.1
11:42:17.858	-1.810046	1.088238	-146.895212	3.904	0.008	0.166	1.470	-9.833	0.437	1.086197	0.668827	-0.185726	59.461979	18.135458	59.4	18.1
11:42:17.872	-1.802843	1.100844	-146.896551	3.922	0.009	0.166	1.462	-9.869	0.446	1.147138	0.578192	-0.199938	59.461979	18.135458	59.4	18.1
11:42:17.886	-1.795641	1.113449	-146.897862	3.941	0.009	0.166	1.455	-9.906	0.454	1.208080	0.487556	-0.214150	59.461979	18.135458	59.4	18.1
11:42:17.900	-1.788438	1.126055	-146.899173	3.959	0.009	0.167	1.448	-9.943	0.462	1.269022	0.396921	-0.228361	59.461979	18.135458	59.4	18.1
11:42:17.914	-1.781237	1.138661	-146.900512	3.977	0.009	0.167	1.440	-9.979	0.471	1.329964	0.306285	-0.242573	59.461979	18.135458	59.4	18.1
11:42:17.928	-1.772384	1.148217	-146.901755	3.996	0.010	0.168	1.477	-10.138	0.395	1.281400	0.144859	-0.158454	59.461979	18.135458	59.4	18.1
11:42:17.942	-1.753135	1.146853	-146.904979	4.012	0.013	0.166	1.303	-9.989	0.477	1.428104	-0.051104	-0.251999	59.461979	18.135458	59.4	18.1
11:42:17.956	-1.730235	1.144771	-146.907301	4.027	0.014	0.158	1.358	-10.530	0.371	1.659496	-0.114197	-0.154131	59.461979	18.135458	59.4	18.1
11:42:17.970	-1.712765	1.138452	-146.908217	4.043	0.016	0.148	1.427	-10.345	0.439	1.271645	-0.548033	-0.147748	59.461979	18.135458	59.4	18.1
11:42:17.984	-1.701878	1.128423	-146.908845	4.060	0.017	0.140	1.339	-10.750	0.384	0.594622	-0.652334	-0.074762	59.461979	18.135458	59.4	18.1
11:42:17.998	-1.698666	1.118116	-146.910908	4.073	0.013	0.133	1.270	-10.233	0.293	0.217042	-0.746514	-0.207181	59.461979	18.135458	59.4	18.1
11:42:18.012	-1.699527	1.100208	-146.913476	4.089	0.013	0.129	1.305	-10.262	0.118	-0.155168	-1.073463	-0.106508	59.461979	18.135458	59.4	18.1
11:42:18.026	-1.698883	1.077887	-146.915033	4.105	0.013	0.124	1.314	-10.243	0.128	-0.109567	-1.088559	-0.099408	59.461979	18.135458	59.4	18.1
11:42:18.040	-1.698239	1.055566	-146.916577	4.121	0.013	0.119	1.324	-10.225	0.139	-0.063966	-1.103654	-0.092308	59.461979	18.135458	59.4	18.1
11:42:18.054	-1.697594	1.033245	-146.918120	4.138	0.013	0.114	1.333	-10.206	0.149	-0.018365	-1.118750	-0.085208	59.461979	18.135458	59.4	18.1
11:42:18.068	-1.696948	1.010924	-146.919678	4.154	0.012	0.110	1.343	-10.187	0.159	0.027237	-1.133846	-0.078108	59.461979	18.135458	59.4	18.1
11:42:18.082	-1.696302	0.988604	-146.921221	4.170	0.012	0.105	1.353	-10.168	0.169	0.072838	-1.148942	-0.071008	59.461979	18.135458	59.4	18.1
11:42:18.096	-1.695656	0.966283	-146.922779	4.186	0.012	0.100	1.362	-10.150	0.180	0.118439	-1.164037	-0.063908	59.461979	18.135458	59.4	18.1
11:42:18.110	-1.695008	0.943962	-146.924322	4.202	0.012	0.095	1.372	-10.131	0.190	0.164040	-1.179133	-0.056808	59.461979	18.135458	59.4	18.1
11:42:18.124	-1.694360	0.921641	-146.925879	4.218	0.012	0.090	1.382	-10.112	0.200	0.209642	-1.194229	-0.049708	59.461979	18.135458	59.4	18.1
11:42:18.138	-1.693711	0.899320	-146.927423	4.234	0.012	0.085	1.391	-10.093	0.210	0.255243	-1.209324	-0.042608	59.461979	18.135458	59.4	18.1
11:42:18.152	-1.693062	0.877000	-146.928967	4.250	0.011	0.080	1.401	-10.075	0.221	0.300844	-1.224420	-0.035508	59.461979	18.135458	59.4	18.1
11:42:18.166	-1.692412	0.854679	-146.930524	4.266	0.011	0.075	1.410	-10.056	0.231	0.346446	-1.239516	-0.028408	59.461979	18.135458	59.4	18.1
11:42:18.180	-1.691762	0.832358	-146.932068	4.282	0.011	0.070	1.420	-10.037	0.241	0.392047	-1.254612	-0.021308	59.461979	18.135458	59.4	18.1
11:42:18.194	-1.691110	0.810038	-146.933625	4.299	0.011	0.065	1.430	-10.018	0.252	0.437648	-1.269707	-0.014208	59.461979	18.135458	59.4	18.1
11:42:18.208	-1.690459	0.787717	-146.935182	4.315	0.011	0.060	1.439	-10.000	0.262	0.483249	-1.284803	-0.007108	59.461979	18.135458	59.4	18.1
11:42:18.222	-1.689807	0.765396	-146.936726	4.331	0.011	0.055	1.449	-9.981	0.272	0.528851	-1.299899	-0.000008	59.461979	18.135458	59.4	18.1
11:42:18.236	-1.689154	0.743076	-146.938283	4.347	0.010	0.050	1.458	-9.962	0.282	0.574452	-1.314995	0.007092	59.461979	18.135458	59.4	18.1
11:42:18.250	-1.688501	0.720755	-146.939840	4.363	0.010	0.045	1.468	-9.943	0.293	0.620053	-1.330090	0.014192	59.461979	18.135458	59.4	18.1
11:42:18.264	-1.687847	0.698434	-146.941384	4.379	0.010	0.040	1.478	-9.925	0.303	0.665654	-1.345186	0.021292	59.461979	18.135458	59.4	18.1
11:42:18.278	-1.687192	0.676114	-146.942941	4.395	0.010	0.035	1.487	-9.906	0.313	0.711256	-1.360282	0.028392	59.461979	18.135458	59.4	18.1
11:42:18.292	-1.681433	0.658273	-146.943843	4.413	0.008	0.040	1.277	-9.670	0.439	0.538683	-1.271206	-0.088974	59.461979	18.135458	59.4	18.1
11:42:18.306	-1.677196	0.642783	-146.943269	4.427	0.009	0.041	1.092	-9.805	0.461	0.443642	-0.986514	-0.031146	59.461979	18.135458	59.4	18.1
11:42:18.320	-1.675024	0.627239	-146.942176	4.444	0.007	0.041	1.305	-10.062	0.596	0.139198	-0.994116	-0.035989	59.461979	18.135458	59.4	18.1
11:42:18.334	-1.672897	0.610307	-146.940865	4.464	0.010	0.041	1.483	-9.922	0.604	-0.285003	-0.967603	-0.021636	59.461979	18.135458	59.4	18.1
11:42:18.348	-1.669063	0.595412	-146.940278	4.479	0.009	0.042	1.161	-9.764	0.344	0.018671	-1.043971	0.045721	59.461979	18.135458	59.4	18.1
11:42:18.362	-1.665061	0.576204	-146.939472	4.493	0.010	0.044	1.173	-9.905	0.345	0.093344	-1.224273	0.051657	59.461979	18.135458	59.4	18.1
11:42:18.376	-1.654155	0.542003	-146.939239	4.506	0.010	0.047	1.179	-9.583	0.442	0.621019	-1.079266	-0.081514	59.461979	18.135458	59.4	18.1
11:42:18.390	-1.643250	0.507802	-146.939007	4.519	0.010	0.049	1.085	-9.605	0.450	0.614976	-1.247345	-0.087561	59.461979	18.135458	59.4	18.1
11:42:18.404	-1.632345	0.473601	-146.938789	4.531	0.010	0.052	0.992	-9.627	0.459	0.608933	-1.415424	-0.093608	59.461979	18.135458	59.4	18.1
11:42:18.418	-1.621441	0.439400	-146.938570	4.544	0.010	0.055	0.899	-9.650	0.468	0.602890	-1.583502	-0.099655	59.461979	18.135458	59.4	18.1
11:42:18.432	-1.610536	0.405199	-146.938351	4.557	0.010	0.057	0.806	-9.672	0.477	0.596847	-1.751581	-0.105702	59.461979	18.135458	59.4	18.1
11:42:18.446	-1.599632	0.370998	-146.938146	4.570	0.010	0.060	0.713	-9.694	0.485	0.590804	-1.919660	-0.111749	59.461979	18.135458	59.4	18.1
11:42:18.460	-1.588728	0.336797	-146.937955	4.583	0.011	0.062	0.620	-9.716	0.494	0.584761	-2.087738	-0.117796	59.461979	18.135458	59.4	18.1
11:42:18.474	-1.577824	0.302596	-146.937764	4.595	0.011	0.065	0.526	-9.739	0.503	0.578718	-2.255817	-0.123844	59.461979	18.135458	59.4	18.1
11:42:18.488	-1.566920	0.268395	-146.937573	4.608	0.011	0.067	0.433	-9.761	0.512	0.572675	-2.423896	-0.129891	59.461979	18.135458	59.4	18.1
11:42:18.502	-1.556016	0.234193	-146.937395	4.621	0.011	0.070	0.340	-9.783	0.520	0.566632	-2.591975	-0.135938	59.461979	18.135458	59.4	18.1
11:42:18.516	-1.545113	0.199992	-146.937231	4.634	0.011	0.072	0.247	-9.805	0.529	0.560589	-2.760053	-0.141985	59.461979	18.135458	59.4	18.1
11:42:18.530	-1.534209	0.165791	-146.937054	4.646	0.011	0.075	0.154	-9.827	0.538	0.554546	-2.928132	-0.148032	59.461979	18.135458	59.4	18.1
11:42:18.544	-1.523306	0.131589	-146.936903	4.659	0.011	0.077	0.060	-9.850	0.547	0.548504	-3.096211	-0.154079	59.461979	18.135458	59.4	18.1
11:42:18.558	-1.512402	0.097388	-146.936753	4.672	0.011	0.079	-0.033	-9.872	0.555	0.542461	-3.264289	-0.160127	59.461979	18.135458	59.4	18.1
11:42:18.572	-1.501499	0.063187	-146.936603	4.685	0.012	0.082	-0.126	-9.894	0.564	0.536418	-3.432368	-0.166174	59.461979	18.135458	59.4	18.1
11:42:18.586	-1.490596	0.028985	-146.936466	4.698	0.012	0.084	-0.219	-9.916	0.573	0.530375	-3.600447	-0.172221	59.461979	18.135458	59.4	18.1
11:42:18.600	-1.479694	-0.005216	-146.936343	4.711	0.012	0.087	-0.312	-9.939	0.582	0.524332	-3.768525	-0.178268	59.461979	18.135458	59.4	18.1
11:42:18.614	-1.468791	-0.039418	-146.936207	4.723	0.012	0.089	-0.405	-9.961	0.590	0.518289	-3.936604	-0.184315	59.461979	18.135458	59.4	18.1
11:42:18.628	-1.457888	-0.073619	-146.936084	4.736	0.012	0.091	-0.499	-9.983	0.599	0.512246	-4.104682	-0.190362	59.461979	18.135458	59.4	18.1
11:42:18.642	-1.446897	-0.116244	-146.933201	4.736	0.012	0.078	-0.903	-11.152	0.466	1.077518	-3.863084	0.205821	59.461979	18.135458	59.4	18.1
11:42:18.656	-1.458218	-0.152652	-146.928420	4.725	0.010	0.042	-0.637	-11.750	0.410	-0.897748	-2.488686	0.298200	59.461979	18.135458	59.4	18.1
11:42:18.670	-1.493895	-0.161018	-146.931439	4.742	0.018	0.014	1.300	-12.575	-0.085	-2.634461	-0.738472	-0.310771	59.461979	18.135458	59.4	18.1
11:42:18.684	-1.535379	-0.144089	-146.942176	4.787	0.018	-0.001	3.234	-11.150	0.116	-2.945967	1.298792	-0.753768	59.461979	18.135458	59.4	18.1
11:42:18.698	-1.557311	-0.120667	-146.952558	4.824	0.015	0.035	1.844	-9.537	0.341	-1.472415	1.743927	-0.671637	59.461979	18.135458	59.4	18.1
11:42:18.712	-1.568075	-0.076351	-146.954170	4.854	0.038	0.078	0.866	-11.081	0.093	-0.953014	3.406867	0.065834	59.461979	18.135458	59.4	18.1
11:42:18.726	-1.574572	-0.026289	-146.955563	4.869	0.037	0.081	1.166	-12.841	-0.274	-1.769995	5.333959	0.447065	59.461979	18.135458	59.4	18.1
11:42:18.740	-1.581069	0.023773	-146.956970	4.883	0.036	0.085	0.979	-11.473	0.263	-1.503375	5.546764	0.356744	59.461979	18.135458	59.4	18.1
11:42:18.754	-1.587568	0.073834	-146.958378	4.898	0.035	0.088	0.968	-11.326	0.278	-1.328707	5.152792	0.327050	59.461979	18.135458	59.4	18.1
11:42:18.768	-1.594068	0.123896	-146.959785	4.912	0.035	0.091	0.956	-11.178	0.292	-1.154039	4.758819	0.297356	59.461979	18.135458	59.4	18.1
11:42:18.782	-1.600570	0.173957	-146.961205	4.927	0.034	0.094	0.945	-11.031	0.307	-0.979371	4.364846	0.267663	59.461979	18.135458	59.4	18.1
11:42:18.796	-1.607073	0.224018	-146.962640	4.941	0.033	0.098	0.933	-10.883	0.322	-0.804702	3.970874	0.237969	59.461979	18.135458	59.4	18.1
11:42:18.810	-1.613576	0.274079	-146.964074	4.956	0.032	0.101	0.921	-10.736	0.336	-0.630034	3.576901	0.208275	59.461979	18.135458	59.4	18.1
11:42:18.824	-1.620082	0.324140	-146.965508	4.970	0.031	0.104	0.910	-10.588	0.351	-0.455366	3.182929	0.178582	59.461979	18.135458	59.4	18.1
11:42:18.838	-1.626588	0.374201	-146.966943	4.984	0.030	0.108	0.898	-10.441	0.366	-0.280698	2.788956	0.148888	59.461979	18.135458	59.4	18.1
11:42:18.852	-1.633096	0.424262	-146.968404	4.999	0.029	0.111	0.887	-10.293	0.380	-0.106029	2.394984	0.119194	59.461979	18.135458	59.4	18.1
11:42:18.866	-1.639605	0.474322	-146.969852	5.013	0.028	0.115	0.875	-10.146	0.395	0.068639	2.001011	0.089501	59.461979	18.135458	59.4	18.1
11:42:18.880	-1.646115	0.524382	-146.971314	5.028	0.028	0.118	0.863	-9.998	0.410	0.243307	1.607038	0.059807	59.461979	18.135458	59.4	18.1
