time	long	lat	vel_x	vel_y	vel_z	roll	pitch	yaw	acc_x	acc_y	acc_z	gyr_x	gyr_y	gyr_z
42133.0	18.135493	59.462008	0.01	-0.007	N/A	-0.030309667042813845	0.0057572128837985745	-2.5630400222841803	0.166	0.352	-9.936	-0.144857	0.079436	0.017982
42133.014	18.135493	59.462008	0.01	-0.006	N/A	-0.030279298313829146	0.0057331447934135735	-2.563055520807938	-0.023	0.369	-9.67	0.20034	-0.060661	-0.067792
42133.028	18.135493	59.462008	0.01	-0.006	N/A	-0.03028006625870002	0.0057355882543663654	-2.5630469337880184	-0.037	0.307	-9.925	0.160997	-0.056556	0.032281
42133.042	18.135493	59.462008	0.01	-0.006	N/A	-0.03027729118518935	0.005738502954217196	-2.56304431579414	-0.037	0.306	-9.931	0.154007	-0.056515	0.032318
42133.056	18.135493	59.462008	0.01	-0.006	N/A	-0.030274533564971198	0.005741417654068027	-2.5630414534541672	-0.036	0.305	-9.937	0.147017	-0.056475	0.032354
42133.07	18.135493	59.462008	0.01	-0.006	N/A	-0.030271758491460528	0.0057443323539188565	-2.563038818006996	-0.036	0.304	-9.942	0.140027	-0.056435	0.032391
42133.084	18.135493	59.462008	0.01	-0.006	N/A	-0.030269000871242378	0.005747264507062207	-2.5630362000131184	-0.036	0.302	-9.948	0.133037	-0.056395	0.032427
42133.098	18.135493	59.462008	0.01	-0.006	N/A	-0.030266225797731708	0.005750179206913038	-2.5630335820192403	-0.036	0.301	-9.954	0.126047	-0.056354	0.032464
42133.112	18.135493	59.462008	0.01	-0.006	N/A	-0.030263468177513554	0.005753093906763868	-2.5630309640253626	-0.035	0.3	-9.96	0.119057	-0.056314	0.0325
42133.126	18.135493	59.462008	0.01	-0.006	N/A	-0.030260693104002884	0.005756008606614699	-2.563028328578192	-0.035	0.298	-9.966	0.112067	-0.056274	0.032537
42133.14	18.135493	59.462008	0.009	-0.006	N/A	-0.030257935483784734	0.00575894075975805	-2.563025710584314	-0.035	0.297	-9.971	0.105077	-0.056233	0.032573
42133.154	18.135493	59.462008	0.009	-0.006	N/A	-0.03025516041027406	0.005761855459608879	-2.563023092590436	-0.034	0.296	-9.977	0.098088	-0.056193	0.03261
42133.168	18.135493	59.462008	0.009	-0.006	N/A	-0.03025238533676339	0.005764770159459711	-2.563020474596558	-0.034	0.295	-9.983	0.091098	-0.056153	0.032647
42133.182	18.135493	59.462008	0.009	-0.006	N/A	-0.03024962771654524	0.005767702312603061	-2.5630178391493876	-0.034	0.293	-9.989	0.084108	-0.056113	0.032683
42133.196	18.135493	59.462008	0.009	-0.006	N/A	-0.03024687009632709	0.005770617012453892	-2.563014976809414	-0.034	0.292	-9.995	0.077118	-0.056072	0.03272
42133.21	18.135493	59.462008	0.009	-0.006	N/A	-0.030244095022816418	0.005773531712304722	-2.563012603161632	-0.033	0.291	-10.0	0.070128	-0.056032	0.032756
42133.224	18.135493	59.462008	0.009	-0.006	N/A	-0.030241319949305748	0.005776446412155553	-2.563009740821658	-0.033	0.289	-10.006	0.063138	-0.055992	0.032793
42133.238	18.135493	59.462008	0.009	-0.006	N/A	-0.030238562329087598	0.005779378565298902	-2.56300712282778	-0.033	0.288	-10.012	0.056148	-0.055951	0.032829
42133.252	18.135493	59.462008	0.009	-0.006	N/A	-0.030235787255576928	0.005782293265149734	-2.56300448738061	-0.032	0.287	-10.018	0.049158	-0.055911	0.032866
42133.266	18.135493	59.462008	0.008	-0.007	N/A	-0.030233029635358774	0.0057852079650005635	-2.563001869386732	-0.032	0.286	-10.024	0.042168	-0.055871	0.032902
42133.28	18.135493	59.462008	0.008	-0.007	N/A	-0.030230254561848104	0.005788122664851395	-2.5629992513928537	-0.032	0.284	-10.03	0.035179	-0.05583	0.032939
42133.294	18.135493	59.462008	0.008	-0.007	N/A	-0.030227479488337435	0.005791054817994745	-2.562996633398976	-0.031	0.283	-10.035	0.028189	-0.05579	0.032975
42133.308	18.135493	59.462008	0.009	-0.006	N/A	-0.030244775701224698	0.005798350294268081	-2.5629959178139825	0.154	0.365	-9.949	-0.163205	0.077115	-0.012651
42133.322	18.135493	59.462008	0.009	-0.006	N/A	-0.03022343032447281	0.005785923549993882	-2.562995202228989	0.005	0.35	-9.647	0.128996	-0.031663	5.9e-05
42133.336	18.135493	59.462008	0.008	-0.007	N/A	-0.030228195073330754	0.0058061868226095366	-2.56300282931782	0.07	0.293	-9.989	-0.096743	0.148756	-0.039116
42133.35	18.135493	59.462008	0.009	-0.005	N/A	-0.03021294089566832	0.005782712144170212	-2.5630011538017383	0.021	0.362	-9.511	0.151017	-0.117661	-0.025074
42133.364	18.135493	59.462008	0.009	-0.005	N/A	-0.030230481454650862	0.005794597836376294	-2.563004731726705	0.018	0.273	-10.038	-0.220486	0.133337	-0.017268
42133.378	18.135493	59.462008	0.01	-0.007	N/A	-0.03022784600748035	0.005781455507108776	-2.56300019387065	0.09	0.341	-9.683	0.011802	-0.114995	0.04522
42133.392	18.135493	59.462008	0.009	-0.007	N/A	-0.030223779390323207	0.00577737143665911	-2.56299853580786	-0.022	0.286	-9.979	0.047584	-0.011608	0.041471
42133.406	18.135493	59.462008	0.009	-0.007	N/A	-0.030224477522024003	0.005775311948141756	-2.562995673467887	0.151	0.342	-9.944	-0.156603	0.130417	-0.041655
42133.42	18.135493	59.462008	0.009	-0.006	N/A	-0.03022519310701732	0.005773252459624403	-2.562993055474009	0.149	0.343	-9.925	-0.150568	0.113412	-0.038451
42133.434	18.135493	59.462008	0.009	-0.006	N/A	-0.030225891238718116	0.0057711929711070495	-2.5629904200268387	0.147	0.343	-9.906	-0.144533	0.096406	-0.035247
42133.448	18.135493	59.462008	0.009	-0.006	N/A	-0.030226606823711435	0.005769133482589696	-2.562987557686865	0.145	0.343	-9.887	-0.138499	0.079401	-0.032042
42133.462	18.135493	59.462008	0.009	-0.006	N/A	-0.030227304955412235	0.005767091447364863	-2.562984712800185	0.142	0.343	-9.868	-0.132464	0.062396	-0.028838
42133.476	18.135493	59.462008	0.009	-0.006	N/A	-0.030228003087113035	0.0057650319588475095	-2.5629820773530145	0.14	0.344	-9.849	-0.126429	0.045391	-0.025633
42133.49	18.135493	59.462008	0.009	-0.006	N/A	-0.030228718672106348	0.005762972470330156	-2.5629792150130406	0.138	0.344	-9.83	-0.120395	0.028385	-0.022429
42133.504	18.135493	59.462008	0.009	-0.006	N/A	-0.030229416803807148	0.005760912981812803	-2.5629763526730676	0.135	0.344	-9.811	-0.11436	0.01138	-0.019225
42133.518	18.135493	59.462008	0.009	-0.006	N/A	-0.030230132388800464	0.005758853493295449	-2.5629737346791894	0.133	0.345	-9.792	-0.108325	-0.005625	-0.01602
42133.532	18.135493	59.462008	0.009	-0.006	N/A	-0.030230830520501264	0.005756794004778096	-2.5629711166853117	0.131	0.345	-9.773	-0.102291	-0.02263	-0.012816
42133.546	18.135493	59.462008	0.009	-0.006	N/A	-0.030231546105494576	0.005754734516260743	-2.5629682543453383	0.128	0.345	-9.754	-0.096256	-0.039636	-0.009612
42133.56	18.135493	59.462008	0.009	-0.006	N/A	-0.030232244237195376	0.00575269248103591	-2.5629656363514606	0.126	0.345	-9.735	-0.090221	-0.056641	-0.006407
42133.574	18.135493	59.462008	0.009	-0.006	N/A	-0.030232942368896176	0.0057506329925185555	-2.562962774011487	0.124	0.346	-9.716	-0.084187	-0.073646	-0.003203
42133.588	18.135493	59.462008	0.009	-0.006	N/A	-0.030233657953889496	0.0057485735040012035	-2.562959911671514	0.122	0.346	-9.697	-0.078152	-0.090651	2e-06
42133.602	18.135493	59.462008	0.009	-0.006	N/A	-0.030234356085590292	0.005746514015483851	-2.5629572936776355	0.119	0.346	-9.679	-0.072117	-0.107656	0.003206
42133.616	18.135493	59.462008	0.009	-0.006	N/A	-0.030235071670583608	0.005744454526966496	-2.562954431337663	0.117	0.347	-9.66	-0.066082	-0.124662	0.00641
42133.63	18.135493	59.462008	0.009	-0.006	N/A	-0.030235769802284405	0.005742395038449143	-2.5629517958904917	0.115	0.347	-9.641	-0.060048	-0.141667	0.009615
42133.644	18.135493	59.462008	0.008	-0.006	N/A	-0.030236485387277724	0.00574035300322431	-2.5629489335505187	0.112	0.347	-9.622	-0.054013	-0.158672	0.012819
42133.658	18.135493	59.462008	0.008	-0.006	N/A	-0.030233902299984773	0.00573410472450217	-2.5629506090666005	0.054	0.352	-9.603	0.060042	-0.158021	-0.019342
42133.672	18.135493	59.462008	0.007	-0.007	N/A	-0.030235158937046206	0.005751662736777233	-2.5629489335505187	0.052	0.297	-10.014	-0.044004	0.112243	0.035947
42133.686	18.135493	59.462008	0.008	-0.006	N/A	-0.03024065672418999	0.005725604971044958	-2.5629475198338247	0.081	0.362	-9.648	-0.091633	-0.128692	-0.001602
42133.7	18.135493	59.462008	0.007	-0.006	N/A	-0.030237550038121435	0.005730212640270223	-2.562944168801661	-0.049	0.259	-10.008	0.008583	-0.099609	0.01464
42133.714	18.135493	59.462008	0.009	-0.007	N/A	-0.030262979485322996	0.005726076209942996	-2.56294083522279	0.133	0.379	-9.717	-0.184738	-0.103215	0.06345
42133.728	18.135493	59.462008	0.008	-0.007	N/A	-0.030248702692041683	0.0057241563477658025	-2.5629434532166675	-0.025	0.291	-9.919	0.05909	-0.000774	-0.005384
42133.742	18.135493	59.462008	0.008	-0.007	N/A	-0.030255230223444143	0.005727769179317431	-2.5629403639838912	0.092	0.305	-9.963	-0.181624	0.120189	0.031864
42133.756	18.135493	59.462008	0.008	-0.007	N/A	-0.03025456699832839	0.005725954036895357	-2.562938444121714	0.086	0.306	-9.961	-0.164991	0.112291	0.031554
42133.77	18.135493	59.462008	0.008	-0.007	N/A	-0.030253921226505148	0.0057241563477658025	-2.56293654171283	0.08	0.306	-9.959	-0.148358	0.104392	0.031243
42133.784	18.135493	59.462008	0.008	-0.007	N/A	-0.03025329290797443	0.005722358658636248	-2.56293488365004	0.074	0.307	-9.957	-0.131725	0.096494	0.030933
42133.798	18.135493	59.462008	0.008	-0.007	N/A	-0.030252629682858675	0.0057205435162141745	-2.562933208133958	0.068	0.308	-9.955	-0.115092	0.088595	0.030623
42133.812	18.135493	59.462008	0.008	-0.007	N/A	-0.03025200136432795	0.00571874582708462	-2.5629313057250735	0.062	0.309	-9.952	-0.098458	0.080697	0.030313
42133.826	18.135493	59.462008	0.008	-0.007	N/A	-0.03025135559250471	0.005716948137955065	-2.5629296302089917	0.057	0.309	-9.95	-0.081825	0.072799	0.030003
42133.84	18.135493	59.462008	0.008	-0.007	N/A	-0.030250692367388955	0.0057151329955329915	-2.562927727800107	0.051	0.31	-9.948	-0.065192	0.0649	0.029693
42133.854	18.135493	59.462008	0.008	-0.007	N/A	-0.030250064048858237	0.005713335306403437	-2.5629260522840247	0.045	0.311	-9.946	-0.048559	0.057002	0.029382
42133.868	18.135493	59.462008	0.008	-0.007	N/A	-0.030249418277034996	0.005711537617273884	-2.5629241498751405	0.039	0.311	-9.944	-0.031926	0.049103	0.029072
42133.882	18.135493	59.462008	0.008	-0.007	N/A	-0.03024877250521176	0.00570972247485181	-2.562922474359058	0.033	0.312	-9.942	-0.015293	0.041205	0.028762
42133.896	18.135493	59.462008	0.008	-0.007	N/A	-0.030248109280096008	0.005707924785722255	-2.5629205719501735	0.027	0.313	-9.94	0.001341	0.033307	0.028452
42133.91	18.135493	59.462008	0.008	-0.007	N/A	-0.03024746350827277	0.005706127096592701	-2.562918896434092	0.021	0.314	-9.937	0.017974	0.025408	0.028142
42133.924	18.135493	59.462008	0.008	-0.007	N/A	-0.03024681773644953	0.005704311954170627	-2.562916994025207	0.016	0.314	-9.935	0.034607	0.01751	0.027832
42133.938	18.135493	59.462008	0.008	-0.007	N/A	-0.03024617196462629	0.005702514265041073	-2.5629153185091256	0.01	0.315	-9.933	0.05124	0.009611	0.027522
42133.952	18.135493	59.462008	0.008	-0.007	N/A	-0.030245526192803057	0.005700699122618999	-2.5629134161002405	0.004	0.316	-9.931	0.067873	0.001713	0.027211
42133.966	18.135493	59.462008	0.008	-0.007	N/A	-0.03024488042097982	0.005698901433489444	-2.562911740584159	-0.002	0.316	-9.929	0.084506	-0.006185	0.026901
42133.98	18.135493	59.462008	0.008	-0.007	N/A	-0.030244252102449097	0.00569710374435989	-2.562909838175274	-0.008	0.317	-9.927	0.101139	-0.014084	0.026591
42133.994	18.135493	59.462008	0.008	-0.007	N/A	-0.03024360633062586	0.005695288601937816	-2.5629081801124847	-0.014	0.318	-9.925	0.117772	-0.021982	0.026281
42134.008	18.135493	59.462008	0.007	-0.007	N/A	-0.030247550774735368	0.005704294500878107	-2.562910798106363	-0.008	0.286	-9.989	0.011553	0.025859	0.007587
42134.022	18.135493	59.462008	0.008	-0.007	N/A	-0.030278198756400386	0.005688761070535358	-2.5628991044003744	0.147	0.352	-9.734	-0.166038	-0.103444	0.066104
42134.036	18.135493	59.462008	0.007	-0.006	N/A	-0.030255003330641385	0.005672354975566611	-2.5628976906836805	0.005	0.327	-9.913	0.0672	-0.078458	0.023711
42134.05	18.135493	59.462008	0.007	-0.006	N/A	-0.030254322652233104	0.005673349813240247	-2.5628962595136935	0.191	0.389	-9.877	-0.168581	-0.016951	-0.043846
42134.064	18.135493	59.462008	0.007	-0.006	N/A	-0.03025362452053231	0.005674327197621364	-2.5628950552365097	0.183	0.388	-9.868	-0.152141	-0.014984	-0.043043
42134.078	18.135493	59.462008	0.007	-0.006	N/A	-0.03025292638883151	0.005675304582002481	-2.5628938684126186	0.174	0.386	-9.859	-0.135702	-0.013017	-0.04224
42134.092	18.135493	59.462008	0.007	-0.006	N/A	-0.03025222825713071	0.005676281966383598	-2.5628926815887274	0.166	0.385	-9.851	-0.119262	-0.011049	-0.041437
42134.106	18.135493	59.462008	0.007	-0.007	N/A	-0.030251530125429915	0.005677259350764715	-2.5628914773115428	0.158	0.384	-9.842	-0.102822	-0.009082	-0.040635
42134.12	18.135493	59.462008	0.007	-0.007	N/A	-0.030250831993729115	0.005678236735145832	-2.5628900461415562	0.149	0.383	-9.833	-0.086382	-0.007115	-0.039832
42134.134	18.135493	59.462008	0.007	-0.007	N/A	-0.030250133862028322	0.005679214119526948	-2.562888859317665	0.141	0.382	-9.824	-0.069942	-0.005147	-0.039029
42134.148	18.135493	59.462008	0.007	-0.007	N/A	-0.030249453183620042	0.005680191503908066	-2.5628876724937735	0.132	0.38	-9.815	-0.053503	-0.00318	-0.038226
42134.162	18.135493	59.462008	0.007	-0.007	N/A	-0.030248755051919242	0.005681168888289182	-2.5628864682165897	0.124	0.379	-9.806	-0.037063	-0.001213	-0.037423
42134.176	18.135493	59.462008	0.007	-0.007	N/A	-0.030248039466925926	0.0056821462726702986	-2.5628852813926986	0.115	0.378	-9.797	-0.020623	0.000755	-0.03662
42134.19	18.135493	59.462008	0.007	-0.007	N/A	-0.030247358788517652	0.005683123657051415	-2.562883850222712	0.107	0.377	-9.789	-0.004183	0.002722	-0.035817
42134.204	18.135493	59.462008	0.007	-0.007	N/A	-0.030246660656816853	0.005684101041432532	-2.562882907744916	0.099	0.376	-9.78	0.012257	0.004689	-0.035014
42134.218	18.135493	59.462008	0.007	-0.007	N/A	-0.030245962525116053	0.005685078425813649	-2.562881476574929	0.09	0.374	-9.771	0.028696	0.006657	-0.034211
42134.232	18.135493	59.462008	0.007	-0.007	N/A	-0.030245264393415253	0.005686055810194766	-2.562880272297745	0.082	0.373	-9.762	0.045136	0.008624	-0.033408
42134.246	18.135493	59.462008	0.007	-0.007	N/A	-0.030244566261714456	0.0056870331945758825	-2.562879085473854	0.073	0.372	-9.753	0.061576	0.010591	-0.032606
42134.26	18.135493	59.462008	0.007	-0.007	N/A	-0.03024386813001366	0.00568802803224952	-2.5628778986499623	0.065	0.371	-9.744	0.078016	0.012558	-0.031803
42134.274	18.135493	59.462008	0.007	-0.007	N/A	-0.030243169998312863	0.005689005416630637	-2.5628764674799758	0.056	0.37	-9.735	0.094456	0.014526	-0.031
42134.288	18.135493	59.462008	0.007	-0.007	N/A	-0.030242471866612063	0.005689982801011754	-2.562875263202792	0.048	0.368	-9.726	0.110895	0.016493	-0.030197
42134.302	18.135493	59.462008	0.007	-0.007	N/A	-0.030241791188203783	0.005690960185392871	-2.562874076378901	0.04	0.367	-9.718	0.127335	0.01846	-0.029394
42134.316	18.135493	59.462008	0.007	-0.007	N/A	-0.03024109305650299	0.005691937569773988	-2.5628728895550092	0.031	0.366	-9.709	0.143775	0.020428	-0.028591
42134.33	18.135493	59.462008	0.007	-0.007	N/A	-0.03024039492480219	0.005692914954155105	-2.562871702731118	0.023	0.365	-9.7	0.160215	0.022395	-0.027788
42134.344	18.135493	59.462008	0.007	-0.007	N/A	-0.030239696793101394	0.0056938923385362215	-2.5628704984539343	0.014	0.364	-9.691	0.176655	0.024362	-0.026985
42134.358	18.135493	59.462008	0.007	-0.007	N/A	-0.030238998661400594	0.005694869722917338	-2.5628693116300427	0.006	0.362	-9.682	0.193094	0.02633	-0.026182
42134.372	18.135493	59.462008	0.006	-0.007	N/A	-0.03024034256492463	0.005697627343135489	-2.562867164875063	-0.022	0.325	-9.784	0.139203	-0.014416	-0.000586
42134.386	18.135493	59.462008	0.007	-0.007	N/A	-0.030267220635405344	0.005714277784199514	-2.5628614401951166	0.176	0.335	-9.929	-0.122438	0.031607	0.00278
42134.4	18.135493	59.462008	0.008	-0.007	N/A	-0.030251146152994478	0.005711869229831763	-2.5628666936361646	-0.013	0.349	-9.642	0.135148	0.027695	0.007927
42134.414	18.135493	59.462008	0.007	-0.008	N/A	-0.030256940646111098	0.005729374882229265	-2.5628614401951166	0.17	0.339	-9.926	-0.06094	0.1016	0.015617
42134.428	18.135493	59.462008	0.007	-0.007	N/A	-0.03024964516983776	0.005719182159397619	-2.562860724610123	0.021	0.34	-9.595	0.03498	-0.093618	-0.020979
42134.442	18.135493	59.462008	0.007	-0.006	N/A	-0.030257691137689457	0.005738939286530195	-2.562854773037374	0.037	0.302	-10.022	-0.124956	0.096186	0.012701
42134.456	18.135493	59.462008	0.008	-0.007	N/A	-0.03027189811780069	0.005717559003193264	-2.5628562042073604	0.081	0.349	-9.628	-0.088414	-0.125388	-0.008755
42134.47	18.135493	59.462008	0.008	-0.007	N/A	-0.030267517341378187	0.005725290811779599	-2.562860968956218	-0.038	0.27	-10.031	-0.069637	-0.024686	-0.00378
42134.484	18.135493	59.462008	0.008	-0.007	N/A	-0.030270536760984134	0.005728484764310748	-2.562863342604001	0.143	0.341	-9.959	-0.108493	0.149345	-0.020533
42134.498	18.135493	59.462008	0.008	-0.007	N/A	-0.03027353872729756	0.005731678716841898	-2.562865489358981	0.146	0.342	-9.958	-0.102214	0.139167	-0.020037
42134.512	18.135493	59.462008	0.008	-0.007	N/A	-0.030276540693610993	0.005734872669373047	-2.562867636113961	0.149	0.343	-9.956	-0.095936	0.128989	-0.019542
42134.526	18.135493	59.462008	0.008	-0.007	N/A	-0.030279542659924427	0.0057380666219041965	-2.562869782868941	0.152	0.343	-9.955	-0.089657	0.118811	-0.019047
42134.54	18.135493	59.462008	0.008	-0.007	N/A	-0.030282562079530374	0.005741243121142827	-2.562872173970016	0.155	0.344	-9.953	-0.083378	0.108633	-0.018552
42134.554	18.135493	59.462008	0.008	-0.007	N/A	-0.030285564045843802	0.0057444370736739764	-2.5628743207249958	0.158	0.345	-9.952	-0.0771	0.098454	-0.018056
42134.568	18.135493	59.462008	0.008	-0.007	N/A	-0.030288566012157233	0.005747631026205127	-2.5628764674799758	0.161	0.345	-9.95	-0.070821	0.088276	-0.017561
42134.582	18.135493	59.462008	0.008	-0.007	N/A	-0.030291567978470667	0.005750824978736276	-2.5628786142349558	0.164	0.346	-9.949	-0.064542	0.078098	-0.017066
42134.596	18.135493	59.462008	0.008	-0.007	N/A	-0.030294569944784095	0.005754018931267426	-2.5628809878827385	0.168	0.347	-9.948	-0.058264	0.06792	-0.016571
42134.61	18.135493	59.462008	0.008	-0.007	N/A	-0.030297589364390042	0.0057572128837985745	-2.562882907744916	0.171	0.348	-9.946	-0.051985	0.057742	-0.016075
42134.624	18.135493	59.462008	0.008	-0.007	N/A	-0.030300591330703477	0.005760389383037205	-2.5628852813926986	0.174	0.348	-9.945	-0.045706	0.047564	-0.01558
42134.638	18.135493	59.462008	0.008	-0.007	N/A	-0.0303035932970169	0.005763583335568354	-2.5628874281476786	0.177	0.349	-9.943	-0.039428	0.037386	-0.015085
42134.652	18.135493	59.462008	0.008	-0.007	N/A	-0.030306595263330335	0.005766777288099503	-2.5628895749026586	0.18	0.35	-9.942	-0.033149	0.027207	-0.01459
42134.666	18.135493	59.462008	0.008	-0.007	N/A	-0.030309597229643763	0.005769971240630654	-2.5628917216576386	0.183	0.35	-9.94	-0.026871	0.017029	-0.014094
42134.68	18.135493	59.462008	0.008	-0.007	N/A	-0.030312616649249717	0.005773165193161804	-2.5628938684126186	0.186	0.351	-9.939	-0.020592	0.006851	-0.013599
42134.694	18.135493	59.462008	0.008	-0.007	N/A	-0.030315618615563148	0.005776359145692953	-2.5628962595136935	0.189	0.352	-9.937	-0.014313	-0.003327	-0.013104
42134.708	18.135493	59.462008	0.008	-0.007	N/A	-0.030318620581876576	0.0057795356449315835	-2.5628983888153813	0.192	0.352	-9.936	-0.008035	-0.013505	-0.012609
42134.722	18.135493	59.462008	0.008	-0.007	N/A	-0.030321622548190003	0.005782729597462732	-2.562900535570361	0.195	0.353	-9.935	-0.001756	-0.023683	-0.012113
42134.736	18.135493	59.462008	0.009	-0.006	N/A	-0.03029298169516478	0.005770686825623972	-2.562893152827625	0.035	0.347	-9.568	0.113167	-0.067073	0.037771
42134.75	18.135493	59.462008	0.008	-0.009	N/A	-0.030295460062702614	0.005795330874662131	-2.5629010242625516	0.015	0.277	-9.976	-0.152596	0.169611	-0.022931
42134.764	18.135493	59.462008	0.009	-0.009	N/A	-0.03029025898153167	0.005773776058400001	-2.56289290848153	0.053	0.346	-9.531	0.008256	-0.142456	-0.048566
42134.778	18.135493	59.462008	0.008	-0.007	N/A	-0.03029614074111089	0.005782799410632812	-2.5628883880787674	0.006	0.276	-9.989	-0.070886	0.001141	0.037198
42134.792	18.135493	59.462008	0.01	-0.007	N/A	-0.030309649589521325	0.0057634088026431544	-2.5628852813926986	0.124	0.368	-9.739	-0.037252	-0.148801	0.021335
42134.806	18.135493	59.462008	0.01	-0.007	N/A	-0.03028919433068795	0.005756794004778096	-2.562888859317665	0.014	0.341	-9.622	0.051132	-0.023329	0.05764
42134.82	18.135493	59.462008	0.01	-0.007	N/A	-0.03029301660174982	0.005765311211527829	-2.5628876724937735	0.038	0.338	-9.641	0.030067	-0.030705	0.062481
42134.834	18.135493	59.462008	0.011	-0.007	N/A	-0.030296856326104203	0.005773828418277561	-2.5628864682165897	0.061	0.335	-9.659	0.009002	-0.038081	0.067322
42134.848	18.135493	59.462008	0.011	-0.007	N/A	-0.03030067859716607	0.005782345625027293	-2.5628855257387935	0.084	0.332	-9.678	-0.012063	-0.045456	0.072164
42134.862	18.135493	59.462008	0.011	-0.008	N/A	-0.030304518321520462	0.005790862831777025	-2.5628843389149023	0.108	0.329	-9.696	-0.033128	-0.052832	0.077005
42134.876	18.135493	59.462008	0.012	-0.008	N/A	-0.03030834059258233	0.005799380038526759	-2.5628831346377186	0.131	0.326	-9.715	-0.054193	-0.060208	0.081846
42134.89	18.135493	59.462008	0.012	-0.008	N/A	-0.030312180316936718	0.005807897245276491	-2.5628821921599223	0.155	0.323	-9.733	-0.075258	-0.067583	0.086688
42134.904	18.135493	59.462008	0.012	-0.008	N/A	-0.030316002587998582	0.005816414452026223	-2.5628809878827385	0.178	0.32	-9.752	-0.096323	-0.074959	0.091529
42134.918	18.135493	59.462008	0.013	-0.008	N/A	-0.03031984231235297	0.005824931658775954	-2.562879801058847	0.202	0.317	-9.771	-0.117388	-0.082335	0.09637
42134.932	18.135493	59.462008	0.013	-0.008	N/A	-0.030323664583414837	0.0058334488655256865	-2.5628786142349558	0.225	0.314	-9.789	-0.138453	-0.08971	0.101212
42134.946	18.135493	59.462008	0.013	-0.008	N/A	-0.03032750430776923	0.0058419660722754205	-2.5628776543038674	0.248	0.311	-9.808	-0.159518	-0.097086	0.106053
42134.96	18.135493	59.462008	0.014	-0.008	N/A	-0.030331344032123616	0.005850483279025152	-2.5628764674799758	0.272	0.308	-9.826	-0.180583	-0.104462	0.110894
42134.974	18.135493	59.462008	0.014	-0.008	N/A	-0.03033516630318548	0.005859000485774884	-2.562875263202792	0.295	0.305	-9.845	-0.201648	-0.111837	0.115736
42134.988	18.135493	59.462008	0.014	-0.008	N/A	-0.030338988574247355	0.005867535145817137	-2.5628743207249958	0.319	0.302	-9.864	-0.222713	-0.119213	0.120577
42135.002	18.135493	59.462008	0.015	-0.008	N/A	-0.030342828298601736	0.005876052352566869	-2.562873116447812	0.342	0.3	-9.882	-0.243778	-0.126589	0.125419
42135.016	18.135493	59.462008	0.017	-0.007	N/A	-0.03029907289425424	0.005880101516431496	-2.562881947813827	0.223	0.354	-9.642	0.359989	-0.033791	-0.023084
42135.03	18.135493	59.462008	0.02	-0.008	N/A	-0.030333892212831528	0.0059318679820456474	-2.562880760989936	0.164	0.419	-9.895	-0.241669	0.187226	-0.034358
42135.044	18.135493	59.462008	0.024	-0.009	N/A	-0.030277029385801547	0.0058872399130721524	-2.5628530975212915	0.336	0.394	-9.699	-0.156064	0.102147	0.02561
42135.058	18.135493	59.462008	0.026	-0.007	N/A	-0.030277256278604312	0.005945254657408444	-2.562862871365103	0.373	0.277	-9.931	0.198012	0.129491	0.050379
42135.072	18.135493	59.462008	0.035	-0.007	N/A	-0.030252210803838192	0.005982028744747965	-2.562849990835223	0.41	0.283	-9.815	0.483773	-0.102008	0.128341
42135.086	18.135493	59.462008	0.046	-0.007	N/A	-0.03023213951744026	0.006013881003596861	-2.5628385589286227	0.375	0.285	-9.98	0.048157	0.336806	0.015625
42135.1	18.135493	59.462008	0.056	-0.007	N/A	-0.030230272015140624	0.006061057253278268	-2.562839745752514	0.629	0.32	-9.736	0.009043	-0.168657	0.035533
42135.114	18.135493	59.462008	0.066	-0.007	N/A	-0.030228421966133512	0.006108233502959675	-2.5628409325764054	0.646	0.322	-9.741	0.008832	-0.146242	0.032274
42135.128	18.135493	59.462008	0.076	-0.007	N/A	-0.030226554463833877	0.0061554272059336015	-2.562841892507494	0.664	0.324	-9.747	0.008622	-0.123827	0.029016
42135.142	18.135493	59.462008	0.086	-0.007	N/A	-0.03022468696153424	0.0062026034556150085	-2.5628430793313854	0.681	0.326	-9.753	0.008412	-0.101413	0.025757
42135.156	18.135493	59.462008	0.096	-0.007	N/A	-0.03022281945923461	0.006249779705296415	-2.562844283608569	0.699	0.328	-9.759	0.008201	-0.078998	0.022498
42135.17	18.135493	59.462008	0.106	-0.007	N/A	-0.03022096941022749	0.0062969559549778216	-2.5628454704324604	0.716	0.33	-9.765	0.007991	-0.056583	0.019239
42135.184	18.135493	59.462008	0.117	-0.007	N/A	-0.030219101907927863	0.006344132204659228	-2.562846430363549	0.733	0.332	-9.77	0.00778	-0.034168	0.01598
42135.198	18.135493	59.462008	0.127	-0.007	N/A	-0.030217234405628228	0.006391308454340635	-2.5628476171874404	0.751	0.333	-9.776	0.00757	-0.011753	0.012722
42135.212	18.135493	59.462008	0.137	-0.007	N/A	-0.030215384356621112	0.006438484704022042	-2.5628488040113315	0.768	0.335	-9.782	0.00736	0.010662	0.009463
42135.226	18.135493	59.462008	0.147	-0.007	N/A	-0.030213516854321474	0.006485678406995967	-2.5628497639424204	0.786	0.337	-9.788	0.007149	0.033077	0.006204
42135.24	18.135493	59.462008	0.157	-0.007	N/A	-0.030211649352021846	0.006532854656677375	-2.5628509507663115	0.803	0.339	-9.794	0.006939	0.055492	0.002945
42135.254	18.135493	59.462008	0.167	-0.007	N/A	-0.030209781849722214	0.006580030906358782	-2.562852137590203	0.821	0.341	-9.8	0.006729	0.077907	-0.000314
42135.268	18.135493	59.462008	0.177	-0.007	N/A	-0.030207914347422572	0.006627207156040189	-2.5628530975212915	0.838	0.343	-9.805	0.006518	0.100322	-0.003572
42135.282	18.135493	59.462008	0.188	-0.007	N/A	-0.030206046845122944	0.006674383405721595	-2.5628542843451827	0.856	0.345	-9.811	0.006308	0.122737	-0.006831
42135.296	18.135493	59.462008	0.198	-0.007	N/A	-0.030204196796115825	0.006721559655403002	-2.562855488622367	0.873	0.347	-9.817	0.006097	0.145151	-0.01009
42135.31	18.135493	59.462008	0.208	-0.007	N/A	-0.030202329293816197	0.006768735905084408	-2.562856675446258	0.89	0.349	-9.823	0.005887	0.167566	-0.013349
42135.324	18.135493	59.462008	0.218	-0.007	N/A	-0.030200479244809078	0.0068159296080583355	-2.5628578622701492	0.908	0.35	-9.829	0.005677	0.189981	-0.016607
42135.338	18.135493	59.462008	0.228	-0.007	N/A	-0.030198611742509443	0.0068631058577397425	-2.562858822201238	0.925	0.352	-9.835	0.005466	0.212396	-0.019866
42135.352	18.135493	59.462008	0.238	-0.007	N/A	-0.03019674424020981	0.006910282107421149	-2.5628600090251292	0.943	0.354	-9.84	0.005256	0.234811	-0.023125
42135.366	18.135493	59.462008	0.248	-0.007	N/A	-0.030194876737910183	0.0069574583571025556	-2.562861195849021	0.96	0.356	-9.846	0.005045	0.257226	-0.026384
42135.38	18.135493	59.462008	0.259	-0.007	N/A	-0.030193026688903064	0.0070046346067839625	-2.5628621557801097	0.978	0.358	-9.852	0.004835	0.279641	-0.029643
42135.394	18.135493	59.462008	0.269	-0.007	N/A	-0.03019115918660343	0.007051810856465369	-2.562863342604001	0.995	0.36	-9.858	0.004625	0.302056	-0.032901
42135.408	18.135493	59.462008	0.279	-0.007	N/A	-0.030189291684303794	0.007099004559439296	-2.5628643025350897	1.013	0.362	-9.864	0.004414	0.324471	-0.03616
42135.422	18.135493	59.462008	0.289	-0.007	N/A	-0.030187424182004163	0.007146180809120701	-2.562865489358981	1.03	0.364	-9.87	0.004204	0.346886	-0.039419
42135.436	18.135493	59.462008	0.3	-0.006	N/A	-0.030202678359666595	0.007182309124636985	-2.5628704984539343	1.047	0.384	-9.886	-0.079836	0.113832	0.005434
42135.45	18.135493	59.462008	0.311	-0.006	N/A	-0.03018173440864266	0.00722700700678056	-2.5628821921599223	0.888	0.338	-9.779	0.100412	0.224768	-0.069027
42135.464	18.135493	59.462008	0.325	-0.006	N/A	-0.030200357071761438	0.007294621062002821	-2.5628864682165897	1.046	0.365	-9.92	-0.002898	0.193703	-0.006382
42135.478	18.135493	59.462008	0.336	-0.005	N/A	-0.030185678852752168	0.00732853280936907	-2.5629050734264163	0.885	0.347	-9.698	0.093087	0.171912	-0.063713
42135.492	18.135493	59.462008	0.348	-0.005	N/A	-0.030189745469909317	0.007385203650181325	-2.5629186695412893	0.978	0.339	-9.934	-0.072181	0.275381	-0.055659
42135.506	18.135493	59.462008	0.36	-0.005	N/A	-0.030184998174343895	0.007402744209163869	-2.5629265235229233	0.866	0.349	-9.621	0.003348	0.018901	-0.0538
42135.52	18.135493	59.462008	0.371	-0.005	N/A	-0.030181315529622187	0.007433688896801728	-2.562942022046681	0.89	0.327	-9.95	-0.092921	0.19794	0.003561
42135.534	18.135493	59.462008	0.383	-0.005	N/A	-0.030184352402520653	0.007439727736013629	-2.5629432263238647	0.858	0.32	-9.626	-0.075157	-0.117824	-0.021878
42135.548	18.135493	59.462008	0.395	-0.005	N/A	-0.030190303975269953	0.007452451186260666	-2.562944413147756	0.86	0.322	-9.628	-0.066227	-0.102016	-0.021971
42135.562	18.135493	59.462008	0.407	-0.005	N/A	-0.03019623809472673	0.007465174636507706	-2.5629455999716475	0.862	0.325	-9.63	-0.056611	-0.084993	-0.022071
42135.576	18.135493	59.462008	0.418	-0.005	N/A	-0.030202189667476034	0.007477915540047264	-2.562947031141634	0.863	0.327	-9.632	-0.046994	-0.06797	-0.022171
42135.59	18.135493	59.462008	0.43	-0.005	N/A	-0.030208123786932817	0.007490638990294303	-2.5629482354188178	0.865	0.329	-9.634	-0.037378	-0.050947	-0.022271
42135.604	18.135493	59.462008	0.442	-0.005	N/A	-0.030214075359682114	0.007503362440541341	-2.5629496491355117	0.866	0.331	-9.636	-0.027761	-0.033924	-0.022371
42135.618	18.135493	59.462008	0.454	-0.005	N/A	-0.030220009479138898	0.007516103344080901	-2.5629508534126964	0.868	0.334	-9.638	-0.018144	-0.016901	-0.022471
42135.632	18.135493	59.462008	0.465	-0.005	N/A	-0.030225943598595678	0.007528826794327938	-2.5629520402365875	0.87	0.336	-9.64	-0.008528	0.000122	-0.022571
42135.646	18.135493	59.462008	0.477	-0.005	N/A	-0.030231895171344975	0.007541550244574978	-2.562953471406574	0.871	0.338	-9.642	0.001089	0.017146	-0.022671
42135.66	18.135493	59.462008	0.489	-0.005	N/A	-0.03023782929080176	0.007554273694822016	-2.5629549025765606	0.873	0.34	-9.644	0.010705	0.034169	-0.022771
42135.674	18.135493	59.462008	0.501	-0.006	N/A	-0.030243780863551062	0.007567014598361575	-2.5629560894004517	0.874	0.343	-9.646	0.020322	0.051192	-0.022872
42135.688	18.135493	59.462008	0.512	-0.006	N/A	-0.03024973243630036	0.007579738048608613	-2.5629575205704387	0.876	0.345	-9.648	0.029939	0.068215	-0.022972
42135.702	18.135493	59.462008	0.524	-0.006	N/A	-0.030255666555757142	0.007592461498855653	-2.5629587248476224	0.878	0.347	-9.65	0.039555	0.085238	-0.023072
42135.716	18.135493	59.462008	0.536	-0.006	N/A	-0.030261600675213923	0.007605184949102691	-2.562959911671514	0.879	0.349	-9.653	0.049172	0.102261	-0.023172
42135.73	18.135493	59.462008	0.548	-0.006	N/A	-0.03026755224796322	0.0076179258526422496	-2.5629613428415006	0.881	0.352	-9.655	0.058788	0.119284	-0.023272
42135.744	18.135493	59.462008	0.559	-0.006	N/A	-0.030273486367420003	0.007630649302889288	-2.5629625296653917	0.882	0.354	-9.657	0.068405	0.136308	-0.023372
42135.758	18.135493	59.462008	0.571	-0.006	N/A	-0.030279437940169306	0.0076433727531363274	-2.5629639608353783	0.884	0.356	-9.659	0.078022	0.153331	-0.023472
42135.772	18.135493	59.462008	0.583	-0.006	N/A	-0.030285372059626083	0.007656113656675886	-2.56296514765927	0.886	0.358	-9.661	0.087638	0.170354	-0.023572
42135.786	18.135493	59.462008	0.595	-0.006	N/A	-0.030291323632375383	0.007668837106922925	-2.5629665788292564	0.887	0.361	-9.663	0.097255	0.187377	-0.023672
42135.8	18.135491	59.462006	0.606	-0.006	N/A	-0.030291725058103344	0.007716868567937808	-2.562988046379056	0.887	0.335	-9.856	-0.052324	0.279043	-0.042675
42135.814	18.135491	59.462006	0.62	-0.004	N/A	-0.030308550032092568	0.007723273926292627	-2.562985899624076	0.899	0.351	-9.611	-0.079675	-0.052038	0.005606
42135.828	18.135491	59.462006	0.629	-0.004	N/A	-0.030327556667646787	0.007768093981483842	-2.5629987801539555	0.847	0.316	-9.911	-0.180882	0.164714	-0.002498
42135.842	18.135491	59.462006	0.641	-0.004	N/A	-0.030370736113341127	0.007781096684411199	-2.5630259549304095	0.974	0.328	-9.828	-0.257495	-0.035081	-0.032458
42135.856	18.135491	59.462006	0.652	-0.004	N/A	-0.03038396570907124	0.007784971315350627	-2.5630309640253626	0.895	0.286	-9.819	-0.065471	0.049063	-0.031043
42135.87	18.135491	59.462006	0.664	-0.005	N/A	-0.030414020278790584	0.007801272690564254	-2.5630390623530923	1.03	0.355	-9.995	-0.17631	-0.023623	0.04472
42135.884	18.135491	59.462006	0.675	-0.005	N/A	-0.030430182027664055	0.007797677312305146	-2.5630390623530923	0.959	0.33	-9.779	-0.152599	-0.112333	-0.041275
42135.898	18.135491	59.462006	0.687	-0.005	N/A	-0.030446326323245	0.007794081934046038	-2.5630393066991872	0.942	0.336	-9.751	-0.153206	-0.096715	-0.03572
42135.912	18.135491	59.462006	0.699	-0.006	N/A	-0.03046248807211847	0.007790486555786929	-2.5630393066991872	0.925	0.341	-9.723	-0.153813	-0.081097	-0.030165
42135.926	18.135491	59.462006	0.71	-0.006	N/A	-0.030478632367699415	0.007786908630820342	-2.5630393066991872	0.908	0.347	-9.696	-0.15442	-0.06548	-0.02461
42135.94	18.135491	59.462006	0.722	-0.006	N/A	-0.030494794116572882	0.007783313252561232	-2.5630395335919895	0.891	0.353	-9.668	-0.155027	-0.049862	-0.019055
42135.954	18.135491	59.462006	0.733	-0.007	N/A	-0.030510955865446353	0.007779717874302124	-2.5630395335919895	0.874	0.358	-9.641	-0.155634	-0.034244	-0.0135
42135.968	18.135491	59.462006	0.745	-0.007	N/A	-0.030527117614319817	0.0077761224960430165	-2.5630395335919895	0.857	0.364	-9.613	-0.156241	-0.018627	-0.007945
42135.982	18.135491	59.462006	0.757	-0.007	N/A	-0.030543261909900768	0.007772527117783908	-2.563039777938085	0.84	0.37	-9.586	-0.156848	-0.003009	-0.00239
42135.996	18.135491	59.462006	0.768	-0.008	N/A	-0.030559406205481716	0.007768931739524799	-2.563039777938085	0.823	0.375	-9.558	-0.157455	0.012609	0.003165
42136.01	18.135491	59.462006	0.779	-0.007	N/A	-0.030591118837990452	0.0077772918666418524	-2.5630359731203156	0.812	0.313	-9.764	-0.082029	0.102077	0.028913
42136.024	18.135491	59.462006	0.793	-0.007	N/A	-0.030691894149000604	0.00782439830315318	-2.5630426402780584	1.007	0.388	-9.892	-0.431198	0.064704	-0.048199
42136.038	18.135491	59.462006	0.805	-0.006	N/A	-0.030715700439997808	0.007847576275619664	-2.563039777938085	0.903	0.323	-9.673	-0.092075	0.113082	0.019352
42136.052	18.135491	59.462006	0.818	-0.006	N/A	-0.030727184706475928	0.007895852082729827	-2.5630371599442068	1.009	0.317	-9.891	-0.30349	0.195818	0.008027
42136.066	18.135491	59.462006	0.831	-0.007	N/A	-0.030734811795307147	0.007947740721391618	-2.563035257535322	0.941	0.294	-9.698	-0.181267	0.122056	0.053358
42136.08	18.135491	59.462006	0.844	-0.007	N/A	-0.03074245633743088	0.00799962936005341	-2.563033110780342	0.957	0.304	-9.684	-0.165099	0.119664	0.050322
42136.094	18.135491	59.462006	0.857	-0.007	N/A	-0.030750100879554612	0.008051517998715202	-2.5630314352642607	0.973	0.314	-9.671	-0.148931	0.117271	0.047287
42136.108	18.135491	59.462006	0.869	-0.007	N/A	-0.030757727968385832	0.008103424090669512	-2.5630292885092807	0.99	0.324	-9.657	-0.132763	0.114879	0.044251
42136.122	18.135491	59.462006	0.882	-0.008	N/A	-0.030765372510509564	0.008155312729331303	-2.563027386100396	1.006	0.334	-9.644	-0.116595	0.112487	0.041215
42136.136	18.135491	59.462006	0.895	-0.008	N/A	-0.030773017052633297	0.008207201367993095	-2.563025466238219	1.022	0.344	-9.631	-0.100427	0.110094	0.03818
42136.15	18.135491	59.462006	0.909	-0.007	N/A	-0.030780329982199154	0.00825216104952447	-2.563035484428125	1.008	0.336	-9.663	0.032691	0.221812	0.011633
42136.164	18.135491	59.462006	0.925	-0.007	N/A	-0.03080719059938735	0.00831015834056824	-2.563035257535322	1.214	0.368	-10.135	-0.182834	0.26119	0.081303
42136.178	18.135491	59.462006	0.948	-0.007	N/A	-0.03078188332523343	0.008417583356028492	-2.563033337673145	1.261	0.364	-10.115	-0.170776	0.287436	0.080815
42136.192	18.135491	59.462006	0.973	-0.007	N/A	-0.0307546387356098	0.008533246325558156	-2.5630314352642607	1.312	0.36	-10.092	-0.157791	0.315702	0.08029
42136.206	18.135491	59.462006	0.997	-0.007	N/A	-0.03072739414598617	0.00864892674838034	-2.5630292885092807	1.364	0.356	-10.07	-0.144806	0.343967	0.079765
42136.22	18.135491	59.462006	1.022	-0.007	N/A	-0.03070014955636254	0.008764607171202525	-2.563027386100396	1.415	0.352	-10.047	-0.131821	0.372232	0.07924
42136.234	18.135491	59.462006	1.046	-0.007	N/A	-0.030672904966738905	0.008880270140732187	-2.563025466238219	1.466	0.348	-10.025	-0.118837	0.400498	0.078715
42136.248	18.135491	59.462006	1.071	-0.007	N/A	-0.03064564292382275	0.008995950563554372	-2.5630233369365314	1.517	0.344	-10.003	-0.105852	0.428763	0.07819
42136.262	18.135491	59.462006	1.095	-0.007	N/A	-0.030618398334199125	0.009111630986376558	-2.5630211901815514	1.568	0.34	-9.98	-0.092867	0.457028	0.077666
42136.276	18.135491	59.462006	1.12	-0.007	N/A	-0.03059115374457549	0.009227293955906221	-2.563019270319374	1.619	0.336	-9.958	-0.079882	0.485294	0.077141
42136.29	18.135491	59.462006	1.144	-0.007	N/A	-0.030563909154951857	0.009342974378728407	-2.5630173679104895	1.67	0.332	-9.936	-0.066897	0.513559	0.076616
42136.304	18.135491	59.462006	1.169	-0.007	N/A	-0.03053666456532823	0.00945865480155059	-2.563015221155509	1.722	0.328	-9.913	-0.053912	0.541825	0.076091
42136.318	18.135491	59.462006	1.194	-0.007	N/A	-0.030509419975704596	0.009574317771080252	-2.5630133187466253	1.773	0.324	-9.891	-0.040927	0.57009	0.075566
42136.332	18.135491	59.462006	1.218	-0.007	N/A	-0.030482157932788443	0.009689998193902438	-2.5630111719916453	1.824	0.32	-9.869	-0.027942	0.598355	0.075041
42136.346	18.135491	59.462006	1.243	-0.007	N/A	-0.03045489588987229	0.009805678616724621	-2.5630090252366653	1.875	0.316	-9.846	-0.014957	0.626621	0.074516
42136.36	18.135491	59.462006	1.267	-0.007	N/A	-0.030427668753541182	0.009921341586254287	-2.56300712282778	1.926	0.312	-9.824	-0.001972	0.654886	0.073991
42136.374	18.135491	59.462006	1.292	-0.007	N/A	-0.03040040671062503	0.01003702200907647	-2.563005202965603	1.977	0.307	-9.802	0.011013	0.683151	0.073466
42136.388	18.135491	59.462006	1.316	-0.007	N/A	-0.030373162121001395	0.010152702431898654	-2.563003056210623	2.029	0.303	-9.779	0.023998	0.711417	0.072941
42136.402	18.135491	59.462006	1.341	-0.006	N/A	-0.03034590007808525	0.01026836540142832	-2.563000909455643	2.08	0.299	-9.757	0.036983	0.739682	0.072416
42136.416	18.135491	59.462006	1.365	-0.006	N/A	-0.030318655488461615	0.010384045824250503	-2.5629990070467583	2.131	0.295	-9.735	0.049968	0.767948	0.071891
42136.43	18.135491	59.462006	1.39	-0.006	N/A	-0.03029139344554546	0.010499726247072686	-2.5629968602917788	2.182	0.291	-9.712	0.062953	0.796213	0.071366
42136.444	18.135491	59.462006	1.415	-0.006	N/A	-0.030264148855921835	0.010615389216602352	-2.5629947135367988	2.233	0.287	-9.69	0.075938	0.824478	0.070842
42136.458	18.135491	59.462006	1.439	-0.006	N/A	-0.0302369042662982	0.010731069639424535	-2.562992811127914	2.284	0.283	-9.667	0.088923	0.852744	0.070317
42136.472	18.135491	59.462006	1.464	-0.006	N/A	-0.030209642223382047	0.010846732608954199	-2.562990908719029	2.336	0.279	-9.645	0.101908	0.881009	0.069792
42136.486	18.135491	59.462006	1.488	-0.006	N/A	-0.03018239763375842	0.010962413031776383	-2.5629885176179537	2.387	0.275	-9.623	0.114893	0.909274	0.069267
42136.5	18.135491	59.462006	1.516	-0.006	N/A	-0.030150074136011482	0.011107659332127352	-2.5629842241079936	2.505	0.421	-9.617	0.179479	0.942036	0.00048
42136.514	18.135491	59.462006	1.553	-0.006	N/A	-0.03008087183116991	0.011325441516191205	-2.562958480501527	2.559	0.326	-9.635	0.326807	0.902322	0.112643
42136.528	18.135491	59.462006	1.584	-0.006	N/A	-0.03004619213893278	0.011504477390860782	-2.5629508534126964	2.455	0.318	-9.578	0.09546	0.802659	0.030197
42136.542	18.135491	59.462006	1.618	-0.006	N/A	-0.030038774489611803	0.011684752449299278	-2.562933208133958	2.603	0.374	-9.826	-0.076102	0.624594	0.111346
42136.556	18.135491	59.462006	1.653	-0.007	N/A	-0.030032526210889664	0.011863962856894054	-2.5629391597067075	2.603	0.298	-9.795	0.016575	0.732245	-0.006808
42136.57	18.135491	59.462006	1.687	-0.004	N/A	-0.03008139542994551	0.012052528229279522	-2.56293439495785	2.613	0.437	-9.667	-0.041359	0.869045	0.010174
42136.584	18.135491	59.462006	1.723	-0.004	N/A	-0.030141993261574754	0.012195784854283217	-2.5629475198338247	2.494	0.327	-9.688	-0.325858	0.802351	-0.096274
42136.598	18.135491	59.462006	1.752	-0.004	N/A	-0.03026825037966402	0.012313507312330234	-2.5629458443177424	2.5	0.271	-9.712	-0.484997	0.515023	0.014909
42136.612	18.135491	59.462006	1.782	-0.004	N/A	-0.030477899329413576	0.012436849730568671	-2.5629546582304656	2.478	0.264	-9.692	-0.46344	0.521028	0.016687
42136.626	18.135491	59.462006	1.812	-0.004	N/A	-0.030687548279163136	0.012560209602099633	-2.5629634895964806	2.463	0.285	-9.706	-0.463808	0.50592	0.017315
42136.64	18.135491	59.462006	1.843	-0.004	N/A	-0.03089721468220522	0.01268355202033807	-2.562972303509203	2.447	0.306	-9.719	-0.464175	0.490813	0.017944
42136.654	18.135491	59.462006	1.873	-0.004	N/A	-0.031106881085247295	0.012806894438576511	-2.5629811348752183	2.432	0.327	-9.733	-0.464543	0.475706	0.018572
42136.668	18.135491	59.462006	1.903	-0.004	N/A	-0.03131654748828937	0.01293023685681495	-2.562990193134036	2.416	0.348	-9.747	-0.46491	0.460599	0.019201
42136.682	18.135491	59.462006	1.934	-0.004	N/A	-0.03152619643803893	0.01305357927505339	-2.5629990070467583	2.4	0.369	-9.76	-0.465278	0.445492	0.019829
42136.696	18.135491	59.462006	1.964	-0.005	N/A	-0.03173586284108101	0.01317692169329183	-2.5630078384127737	2.385	0.39	-9.774	-0.465645	0.430385	0.020458
42136.71	18.135491	59.462006	1.994	-0.005	N/A	-0.03194552924412309	0.013300264111530267	-2.563016896671592	2.369	0.411	-9.788	-0.466013	0.415277	0.021086
42136.724	18.135491	59.462006	2.025	-0.005	N/A	-0.03215519564716517	0.013423589076476186	-2.5630259549304095	2.353	0.431	-9.801	-0.46638	0.40017	0.021715
42136.738	18.135491	59.462006	2.055	-0.005	N/A	-0.03236487950349977	0.013546931494714627	-2.563034768843132	2.338	0.452	-9.815	-0.466748	0.385063	0.022343
42136.752	18.135491	59.462006	2.085	-0.005	N/A	-0.032574528453249325	0.013670256459660546	-2.56304382710195	2.322	0.473	-9.829	-0.467115	0.369956	0.022972
42136.766	18.135491	59.462006	2.116	-0.005	N/A	-0.03278421230958393	0.013793581424606464	-2.563053129706863	2.307	0.494	-9.842	-0.467483	0.354849	0.0236
42136.78	18.135491	59.462006	2.146	-0.005	N/A	-0.032993878712626004	0.013916923842844903	-2.5630621879656807	2.291	0.515	-9.856	-0.46785	0.339741	0.024228
42136.794	18.135491	59.462006	2.176	-0.006	N/A	-0.03320356256896061	0.014040248807790824	-2.5630712462244984	2.275	0.536	-9.87	-0.468218	0.324634	0.024857
42136.808	18.135491	59.462006	2.206	-0.006	N/A	-0.03341322897200268	0.014163556319444224	-2.563080548829412	2.26	0.557	-9.883	-0.468585	0.309527	0.025485
42136.822	18.135491	59.462006	2.237	-0.006	N/A	-0.03362291282833728	0.014286881284390143	-2.5630896070882296	2.244	0.578	-9.897	-0.468953	0.29442	0.026114
42136.836	18.135491	59.462006	2.267	-0.006	N/A	-0.033832579231379355	0.014410206249336064	-2.5630989096931427	2.229	0.599	-9.91	-0.46932	0.279313	0.026742
42136.85	18.135491	59.462006	2.297	-0.006	N/A	-0.03404226308771396	0.01453353121428198	-2.5631079679519604	2.213	0.619	-9.924	-0.469688	0.264205	0.027371
42136.864	18.135491	59.462006	2.328	-0.006	N/A	-0.03423718145857668	0.014614339958649318	-2.563101283340925	2.132	0.62	-10.004	-0.660154	0.16695	0.091938
42136.878	18.135491	59.462006	2.354	-0.005	N/A	-0.034352181202990585	0.014661428941868126	-2.5631058211969804	2.2	0.486	-10.015	-0.550162	0.191669	-0.029065
42136.892	18.135491	59.462006	2.381	-0.002	N/A	-0.0344064434894351	0.014636592906612247	-2.563101283340925	2.272	0.576	-9.968	-0.128491	-0.040344	0.01384
42136.906	18.135491	59.462006	2.409	0.0	N/A	-0.034511163244554756	0.014522413466946778	-2.5631070080208715	2.081	0.564	-9.993	-0.50952	-0.498491	-0.069013
42136.92	18.135491	59.462006	2.434	0.001	N/A	-0.03451282130734415	0.014334424053214468	-2.563095576114271	1.967	0.563	-10.199	0.103008	-1.023195	0.121128
42136.934	18.135491	59.462006	2.458	-0.0	N/A	-0.03442700346802359	0.014097355980916076	-2.563077442143343	1.997	0.352	-10.427	0.341439	-1.047137	0.110711
42136.948	18.135491	59.462006	2.483	0.0	N/A	-0.0342455066791087	0.01376406790695524	-2.563068383884525	2.061	0.49	-10.279	0.694287	-1.116188	-0.063211
42136.962	18.135491	59.462006	2.509	0.001	N/A	-0.034000584625176335	0.013328171926269656	-2.563062903550674	2.165	0.527	-10.4	0.832061	-1.405502	-0.052784
42136.976	18.135491	59.462006	2.534	0.002	N/A	-0.03375566257124397	0.012892275945584073	-2.5630578944557207	2.177	0.534	-10.349	0.960956	-1.662072	-0.023015
42136.99	18.135491	59.462006	2.56	0.002	N/A	-0.03351075797060413	0.012456379964898493	-2.563052658467965	2.189	0.54	-10.298	1.08985	-1.918641	0.006753
42137.004	18.135491	59.462006	2.587	0.003	N/A	-0.03324834771756678	0.011989347310357326	-2.5630471781341138	2.202	0.547	-10.243	1.22795	-2.193536	0.038648
42137.018	18.135491	59.462006	2.608	0.003	N/A	-0.032999690659035144	0.011554132008080021	-2.5630474050269165	2.093	0.46	-10.041	1.171517	-2.068009	-0.076121
42137.032	18.135491	59.462006	2.632	0.002	N/A	-0.03277524131722867	0.011214682921859643	-2.563052169775774	2.192	0.458	-10.021	1.234553	-2.025392	-0.067178
42137.046	18.135491	59.462006	2.657	0.002	N/A	-0.032550791975422204	0.010875233835639268	-2.563056951977925	2.179	0.447	-9.999	1.194792	-1.883054	-0.046649
42137.06	18.135491	59.462006	2.682	0.001	N/A	-0.03232634263361573	0.01053578474941889	-2.5630617167267826	2.165	0.436	-9.977	1.15503	-1.740717	-0.02612
42137.074	18.135491	59.462006	2.707	0.001	N/A	-0.032101893291809264	0.01019635311649103	-2.5630667258217357	2.152	0.426	-9.955	1.115269	-1.59838	-0.005591
42137.088	18.135491	59.462006	2.731	0.0	N/A	-0.03187744395000279	0.009856904030270655	-2.563071734916689	2.139	0.415	-9.933	1.075508	-1.456043	0.014938
42137.102	18.135491	59.462006	2.756	-0.0	N/A	-0.03165301206148884	0.009517454944050277	-2.5630767265583496	2.126	0.404	-9.911	1.035747	-1.313705	0.035467
42137.116	18.135491	59.462006	2.781	-0.001	N/A	-0.03142854526638985	0.0091780058578299	-2.5630819799993985	2.113	0.394	-9.89	0.995986	-1.171368	0.055996
42137.13	18.135491	59.462006	2.806	-0.001	N/A	-0.03120409592458338	0.008838574224902045	-2.563086989094351	2.099	0.383	-9.868	0.956224	-1.029031	0.076526
42137.144	18.135491	59.462006	2.83	-0.002	N/A	-0.030979646582776913	0.008499142591974186	-2.5630924694282027	2.086	0.372	-9.846	0.916463	-0.886694	0.097055
42137.158	18.135491	59.462006	2.855	-0.002	N/A	-0.03075517978767792	0.00815969350575381	-2.563097722869251	2.073	0.361	-9.824	0.876702	-0.744356	0.117584
42137.172	18.135491	59.462006	2.88	-0.003	N/A	-0.030530730445871446	0.007820261872825952	-2.5631032032031023	2.06	0.351	-9.802	0.836941	-0.602019	0.138113
42137.186	18.135491	59.462006	2.905	-0.003	N/A	-0.030306263650772457	0.007480830239898094	-2.563108683536954	2.047	0.34	-9.78	0.79718	-0.459682	0.158642
42137.2	18.13547	59.461988	2.929	-0.003	N/A	-0.030081814308965987	0.007141381153677719	-2.5631144082169004	2.033	0.329	-9.758	0.757418	-0.317345	0.179171
42137.214	18.13547	59.461988	2.956	-0.004	N/A	-0.029841325391333686	0.0067777068974396604	-2.5631203597896497	2.019	0.318	-9.734	0.714817	-0.16484	0.201166
42137.228	18.13547	59.461988	2.982	-0.001	N/A	-0.029657018622323086	0.006840660923559095	-2.5631122614619204	1.846	0.339	-9.499	0.684528	0.331282	0.077753
42137.242	18.13547	59.461988	3.007	0.001	N/A	-0.029490828370948186	0.006965853390804649	-2.563096047353169	1.765	0.301	-9.459	0.639672	0.672003	0.062902
42137.256	18.13547	59.461988	3.032	-0.002	N/A	-0.02936973742744482	0.007130961538043311	-2.5630798332444185	1.662	0.307	-9.403	0.623242	0.774404	0.076293
42137.27	18.13547	59.461988	3.055	-0.003	N/A	-0.029266728094992114	0.007310678091121168	-2.563061001141789	1.673	0.313	-9.397	0.287249	0.684819	0.068314
42137.284	18.13547	59.461988	3.076	-0.003	N/A	-0.029433616478067814	0.007591850633617454	-2.5630662371295454	1.663	0.317	-9.383	0.241768	0.717396	0.056426
42137.298	18.13547	59.461988	3.097	-0.003	N/A	-0.02960052231443603	0.007873023176113741	-2.5630712462244984	1.654	0.321	-9.368	0.196287	0.749973	0.044539
42137.312	18.13547	59.461988	3.119	-0.003	N/A	-0.029767410697511723	0.008154178265317507	-2.563076499665547	1.645	0.325	-9.354	0.150806	0.78255	0.032651
42137.326	18.13547	59.461988	3.14	-0.003	N/A	-0.029934316533879943	0.008435350807813794	-2.5630819799993985	1.635	0.329	-9.339	0.105325	0.815127	0.020764
42137.34	18.13547	59.461988	3.161	-0.003	N/A	-0.030101222370248162	0.00871650589701756	-2.563087233440447	1.626	0.333	-9.325	0.059844	0.847705	0.008876
42137.354	18.13547	59.461988	3.183	-0.003	N/A	-0.03026811075332386	0.008997678439513847	-2.5630924694282027	1.616	0.337	-9.31	0.014363	0.880282	-0.003011
42137.368	18.13547	59.461988	3.204	-0.003	N/A	-0.03043501658969208	0.009278833528717613	-2.563097949762054	1.607	0.341	-9.296	-0.031118	0.912859	-0.014899
42137.382	18.13547	59.461988	3.225	-0.003	N/A	-0.0306019224260603	0.00955998861792138	-2.563103430095905	1.598	0.345	-9.282	-0.076599	0.945436	-0.026786
42137.396	18.13547	59.461988	3.247	-0.003	N/A	-0.030768828262428514	0.009841161160417668	-2.5631091547758516	1.588	0.35	-9.267	-0.12208	0.978013	-0.038674
42137.41	18.13547	59.461988	3.268	-0.004	N/A	-0.030935734098796727	0.010122316249621432	-2.563114635109703	1.579	0.354	-9.253	-0.167561	1.01059	-0.050561
42137.424	18.13547	59.461988	3.289	-0.004	N/A	-0.031102657388457473	0.0104034713388252	-2.563120132896847	1.569	0.358	-9.238	-0.213042	1.043167	-0.062449
42137.438	18.13547	59.461988	3.311	-0.004	N/A	-0.031269580678118206	0.010684626428028966	-2.563125840123501	1.56	0.362	-9.224	-0.258523	1.075744	-0.074337
42137.452	18.13547	59.461988	3.332	-0.004	N/A	-0.031436486514486425	0.010965781517232733	-2.5631315648034474	1.551	0.366	-9.209	-0.304004	1.108321	-0.086224
42137.466	18.13547	59.461988	3.353	-0.004	N/A	-0.03160340980414716	0.0112469366064365	-2.5631372894833935	1.541	0.37	-9.195	-0.349485	1.140899	-0.098112
42137.48	18.13547	59.461988	3.375	-0.004	N/A	-0.0317703330938079	0.011528091695640267	-2.563143014163341	1.532	0.374	-9.18	-0.394966	1.173476	-0.109999
42137.494	18.13547	59.461988	3.396	-0.004	N/A	-0.031937256383468636	0.011809246784844032	-2.5631489831893823	1.522	0.378	-9.166	-0.440446	1.206053	-0.121887
42137.508	18.13547	59.461988	3.417	-0.004	N/A	-0.032104162219836856	0.0120904018740478	-2.5631546904160363	1.513	0.382	-9.151	-0.485928	1.23863	-0.133774
42137.522	18.13547	59.461988	3.438	-0.004	N/A	-0.032271102962790114	0.012371556963251564	-2.563160659442078	1.504	0.387	-9.137	-0.531408	1.271207	-0.145662
42137.536	18.13547	59.461988	3.46	-0.004	N/A	-0.032438026252450854	0.012652712052455332	-2.5631666110148275	1.494	0.391	-9.122	-0.576889	1.303784	-0.157549
42137.55	18.13547	59.461988	3.481	-0.004	N/A	-0.03260496699540411	0.01293384968836658	-2.5631728243869643	1.485	0.395	-9.108	-0.62237	1.336361	-0.169437
42137.564	18.13547	59.461988	3.502	-0.005	N/A	-0.032771907738357364	0.013215004777570344	-2.563178775959714	1.475	0.399	-9.094	-0.667851	1.368938	-0.181324
42137.578	18.13547	59.461988	3.523	-0.003	N/A	-0.03296942664980557	0.013496002787141432	-2.56319045221241	1.671	0.584	-9.561	-0.823213	1.225128	-0.020982
42137.592	18.13547	59.461988	3.545	-0.001	N/A	-0.03315425701759176	0.013864529058700035	-2.563240054469752	1.839	0.435	-9.553	-0.690285	1.538315	-0.138094
42137.606	18.135458	59.461979	3.566	0.002	N/A	-0.03330067268854157	0.014254854492616048	-2.5632805810149826	1.638	0.58	-9.372	-0.442441	1.723227	-0.175303
42137.62	18.135458	59.461979	3.586	0.005	N/A	-0.03339793988775521	0.014658461882139734	-2.5633292233412353	1.562	0.421	-9.188	-0.300438	1.793518	-0.215242
42137.634	18.135458	59.461979	3.608	0.007	N/A	-0.03345213236102964	0.015157503875162473	-2.5634300684654163	1.571	0.516	-9.265	-0.066241	2.013956	-0.293131
42137.648	18.135458	59.461979	3.628	0.005	N/A	-0.03345588481892142	0.015572124292266247	-2.5634629679218164	1.6	0.301	-9.326	0.004774	1.868489	-0.09183
42137.662	18.135458	59.461979	3.647	0.005	N/A	-0.033351671209284846	0.01591351069395634	-2.563478955137764	1.681	0.398	-9.526	0.213956	1.77803	0.089766
42137.676	18.135458	59.461979	3.666	0.005	N/A	-0.03322590278338613	0.016133491992877703	-2.5635025519892514	1.566	0.329	-9.356	0.293952	1.847087	-0.000974
42137.69	18.135458	59.461979	3.684	0.005	N/A	-0.03310013435748742	0.01635345583850655	-2.5635259219479356	1.558	0.338	-9.393	0.354894	1.756452	-0.015186
42137.704	18.135458	59.461979	3.702	0.005	N/A	-0.03297436593158871	0.016573437137427913	-2.5635495187994226	1.551	0.346	-9.429	0.415836	1.665817	-0.029397
42137.718	18.135458	59.461979	3.721	0.006	N/A	-0.03284861495898252	0.01679340098305676	-2.563572888758107	1.543	0.354	-9.466	0.476778	1.575181	-0.043609
42137.732	18.135458	59.461979	3.739	0.006	N/A	-0.032722846533083806	0.017013382281978125	-2.5635960143706957	1.536	0.363	-9.503	0.537719	1.484546	-0.057821
42137.746	18.135458	59.461979	3.757	0.006	N/A	-0.032597095560477615	0.01723336358089949	-2.5636193668760874	1.529	0.371	-9.539	0.598661	1.39391	-0.072033
42137.76	18.135458	59.461979	3.776	0.006	N/A	-0.032471362041163944	0.017453362333113374	-2.5636427368347716	1.521	0.379	-9.576	0.659603	1.303275	-0.086244
42137.774	18.135458	59.461979	3.794	0.007	N/A	-0.03234561106855775	0.017673343632034738	-2.5636661067934554	1.514	0.388	-9.613	0.720545	1.21264	-0.100456
42137.788	18.135458	59.461979	3.812	0.007	N/A	-0.03221987754924408	0.017893342384248622	-2.5636892324060447	1.507	0.396	-9.649	0.781487	1.122004	-0.114668
42137.802	18.135458	59.461979	3.831	0.007	N/A	-0.03209414402993041	0.01811332368316999	-2.563712602364729	1.499	0.404	-9.686	0.842429	1.031369	-0.128879
42137.816	18.135458	59.461979	3.849	0.007	N/A	-0.03196841051061674	0.018333322435383877	-2.5637357279773174	1.492	0.412	-9.723	0.903371	0.940733	-0.143091
42137.83	18.135458	59.461979	3.867	0.008	N/A	-0.03184269444459559	0.01855332118759776	-2.5637588535899067	1.484	0.421	-9.759	0.964313	0.850098	-0.157303
42137.844	18.135458	59.461979	3.886	0.008	N/A	-0.031716960925281916	0.01877333739310417	-2.5637819792024956	1.477	0.429	-9.796	1.025255	0.759463	-0.171515
42137.858	18.135458	59.461979	3.904	0.008	N/A	-0.031591262312553284	0.018993336145318052	-2.5638051048150845	1.47	0.437	-9.833	1.086197	0.668827	-0.185726
42137.872	18.135458	59.461979	3.922	0.009	N/A	-0.03146554624653213	0.019213352350824456	-2.5638284747737683	1.462	0.446	-9.869	1.147138	0.578192	-0.199938
42137.886	18.135458	59.461979	3.941	0.009	N/A	-0.0313398476338035	0.01943335110303834	-2.5638513560402623	1.455	0.454	-9.906	1.20808	0.487556	-0.21415
42137.9	18.135458	59.461979	3.959	0.009	N/A	-0.031214131567782348	0.019653367308544747	-2.563874237306756	1.448	0.462	-9.943	1.269022	0.396921	-0.228361
42137.914	18.135458	59.461979	3.977	0.009	N/A	-0.031088450408346235	0.01987338351405115	-2.56389760726544	1.44	0.471	-9.979	1.329964	0.306285	-0.242573
42137.928	18.135458	59.461979	3.996	0.01	N/A	-0.03093393640966718	0.02004016717737173	-2.563919301708043	1.477	0.395	-10.138	1.2814	0.144859	-0.158454
42137.942	18.135458	59.461979	4.012	0.013	N/A	-0.03059797798195079	0.020016360886374526	-2.5639755711231267	1.303	0.477	-9.989	1.428104	-0.051104	-0.251999
42137.956	18.135458	59.461979	4.027	0.014	N/A	-0.030198297583244087	0.01998002313134801	-2.564016097668358	1.358	0.371	-10.53	1.659496	-0.114197	-0.154131
42137.97	18.135458	59.461979	4.043	0.016	N/A	-0.02989338856292068	0.019869735775914485	-2.5640320848843063	1.427	0.439	-10.345	1.271645	-0.548033	-0.147748
42137.984	18.135458	59.461979	4.06	0.017	N/A	-0.029703374567256056	0.019694696705231975	-2.564043045552009	1.339	0.384	-10.75	0.594622	-0.652334	-0.074762
42137.998	18.135458	59.461979	4.073	0.013	N/A	-0.029647314591682	0.019514805619228918	-2.564079051694478	1.27	0.293	-10.233	0.217042	-0.746514	-0.207181
42138.012	18.135458	59.461979	4.089	0.013	N/A	-0.029662341876541667	0.019202252056781773	-2.564123871749669	1.305	0.118	-10.262	-0.155168	-1.073463	-0.106508
42138.026	18.135458	59.461979	4.105	0.013	N/A	-0.02965110195615882	0.01881267711444412	-2.5641510465261224	1.314	0.128	-10.243	-0.109567	-1.088559	-0.099408
42138.04	18.135458	59.461979	4.121	0.013	N/A	-0.029639862035775986	0.018423102172106465	-2.564177994409773	1.324	0.139	-10.225	-0.063966	-1.103654	-0.092308
42138.054	18.135458	59.461979	4.138	0.013	N/A	-0.029628604662100617	0.01803352722976881	-2.5642049248401313	1.333	0.149	-10.206	-0.018365	-1.11875	-0.085208
42138.068	18.135458	59.461979	4.154	0.012	N/A	-0.029617329835132735	0.017643952287431156	-2.564232117069878	1.343	0.159	-10.187	0.027237	-1.133846	-0.078108
42138.082	18.135458	59.461979	4.17	0.012	N/A	-0.029606055008164853	0.017254394798386023	-2.5642590475002356	1.353	0.169	-10.168	0.072838	-1.148942	-0.071008
42138.096	18.135458	59.461979	4.186	0.012	N/A	-0.029594780181196965	0.016864819856048367	-2.5642862397299817	1.362	0.18	-10.15	0.118439	-1.164037	-0.063908
42138.11	18.135458	59.461979	4.202	0.012	N/A	-0.029583470447644044	0.01647524491371071	-2.56431317016034	1.372	0.19	-10.131	0.16404	-1.179133	-0.056808
42138.124	18.135458	59.461979	4.218	0.012	N/A	-0.029572160714091123	0.01608566997137306	-2.564340344936794	1.382	0.2	-10.112	0.209642	-1.194229	-0.049708
42138.138	18.135458	59.461979	4.234	0.012	N/A	-0.029560833527245676	0.015696095029035403	-2.5643672928204446	1.391	0.21	-10.093	0.255243	-1.209324	-0.042608
42138.152	18.135458	59.461979	4.25	0.011	N/A	-0.029549506340400235	0.01530653753999027	-2.5643942407040954	1.401	0.221	-10.075	0.300844	-1.22442	-0.035508
42138.166	18.135458	59.461979	4.266	0.011	N/A	-0.029538161700262276	0.014916962597652616	-2.5644214154805485	1.41	0.231	-10.056	0.346446	-1.239516	-0.028408
42138.18	18.135458	59.461979	4.282	0.011	N/A	-0.02952681706012431	0.014527387655314961	-2.5644483633641992	1.42	0.241	-10.037	0.392047	-1.254612	-0.021308
42138.194	18.135458	59.461979	4.299	0.011	N/A	-0.029515437513401306	0.014137830166269827	-2.564475538140653	1.43	0.252	-10.018	0.437648	-1.269707	-0.014208
42138.208	18.135458	59.461979	4.315	0.011	N/A	-0.02950407541997082	0.013748255223932174	-2.5645027129171067	1.439	0.262	-10.0	0.483249	-1.284803	-0.007108
42138.222	18.135458	59.461979	4.331	0.011	N/A	-0.02949269587324782	0.013358680281594516	-2.5645296608007575	1.449	0.272	-9.981	0.528851	-1.299899	-8e-06
42138.236	18.135458	59.461979	4.347	0.01	N/A	-0.0294812988732323	0.012969122792549382	-2.564556835577211	1.458	0.282	-9.962	0.574452	-1.314995	0.007092
42138.25	18.135458	59.461979	4.363	0.01	N/A	-0.029469901873216773	0.01257954785021173	-2.5645840103536646	1.468	0.293	-9.943	0.620053	-1.33009	0.014192
42138.264	18.135458	59.461979	4.379	0.01	N/A	-0.02945848741990873	0.012189972907874075	-2.5646109582373153	1.478	0.303	-9.925	0.665654	-1.345186	0.021292
42138.278	18.135458	59.461979	4.395	0.01	N/A	-0.029447055513308167	0.01180041541882894	-2.564638133013769	1.487	0.313	-9.906	0.711256	-1.360282	0.028392
42138.292	18.135458	59.461979	4.413	0.008	N/A	-0.029346542001685814	0.011489031226980632	-2.564653875883622	1.277	0.439	-9.67	0.538683	-1.271206	-0.088974
42138.306	18.135458	59.461979	4.427	0.009	N/A	-0.029272592401278812	0.011218679725846711	-2.564643857693715	1.092	0.461	-9.805	0.443642	-0.986514	-0.031146
42138.32	18.135458	59.461979	4.444	0.007	N/A	-0.0292346838499255	0.010947385746916713	-2.564624781244991	1.305	0.596	-10.062	0.139198	-0.994116	-0.035989
42138.334	18.135458	59.461979	4.464	0.01	N/A	-0.02919756069673558	0.010651866597969033	-2.5646018999784976	1.483	0.604	-9.922	-0.285003	-0.967603	-0.021636
42138.348	18.135458	59.461979	4.479	0.009	N/A	-0.02913064477321411	0.010391899805884479	-2.5645916548957883	1.161	0.344	-9.764	0.018671	-1.043971	0.045721
42138.362	18.135458	59.461979	4.493	0.01	N/A	-0.0290607966965493	0.010056656963161407	-2.564577587542017	1.173	0.345	-9.905	0.093344	-1.224273	0.051657
42138.376	18.135458	59.461979	4.506	0.01	N/A	-0.028870451088326803	0.009459736905686826	-2.56457352092486	1.179	0.442	-9.583	0.621019	-1.079266	-0.081514
