Time Stamp	Roll	Pitch	Yaw	X Velocity	Y Velocity	Latitude	Longitude
(s)	(°)	(°)	(°)	(m.s^-1)	(m.s^-1)	(°)	(°)
705.980	-1.732973	0.255876	-145.208866	0.002	-0.001	59.462025	18.135509
705.992	-1.732885	0.255811	-145.208743	0.002	-0.002	59.462025	18.135509
706.004	-1.732798	0.255745	-145.208633	0.002	-0.002	59.462025	18.135509
706.016	-1.732710	0.255680	-145.208510	0.002	-0.002	59.462025	18.135509
706.028	-1.732622	0.255615	-145.208401	0.002	-0.002	59.462025	18.135509
706.040	-1.732535	0.255549	-145.208278	0.002	-0.002	59.462025	18.135509
706.052	-1.732447	0.255484	-145.208169	0.002	-0.002	59.462025	18.135509
706.064	-1.732360	0.255419	-145.208046	0.002	-0.002	59.462025	18.135509
706.076	-1.732272	0.255353	-145.207923	0.002	-0.002	59.462025	18.135509
706.088	-1.732184	0.255288	-145.207814	0.002	-0.002	59.462025	18.135509
706.100	-1.732097	0.255223	-145.207691	0.002	-0.002	59.462025	18.135509
706.112	-1.732009	0.255157	-145.207581	0.002	-0.002	59.462025	18.135509
706.124	-1.731922	0.255092	-145.207459	0.002	-0.002	59.462025	18.135509
706.136	-1.731834	0.255027	-145.207349	0.002	-0.002	59.462025	18.135509
706.148	-1.731746	0.254961	-145.207226	0.002	-0.002	59.462025	18.135509
706.160	-1.731659	0.254896	-145.207103	0.002	-0.002	59.462025	18.135509
706.172	-1.731571	0.254831	-145.206994	0.002	-0.002	59.462025	18.135509
706.184	-1.731484	0.254766	-145.206871	0.002	-0.002	59.462025	18.135509
706.196	-1.731396	0.254700	-145.206762	0.002	-0.002	59.462025	18.135509
706.208	-1.731308	0.254635	-145.206639	0.002	-0.002	59.462025	18.135509
706.220	-1.731221	0.254570	-145.206530	0.002	-0.002	59.462025	18.135509
706.232	-1.731133	0.254504	-145.206407	0.002	-0.002	59.462025	18.135509
706.244	-1.731769	0.254680	-145.206270	0.003	-0.002	59.462025	18.135509
706.256	-1.731601	0.254606	-145.207021	0.002	-0.002	59.462025	18.135509
706.268	-1.730989	0.255178	-145.206775	0.002	-0.002	59.462025	18.135509
706.280	-1.731584	0.254591	-145.206584	0.003	-0.002	59.462025	18.135509
706.292	-1.730920	0.254434	-145.206571	0.002	-0.002	59.462025	18.135509
706.304	-1.731684	0.254656	-145.206557	0.003	-0.002	59.462025	18.135509
706.316	-1.731842	0.254193	-145.206325	0.003	-0.002	59.462025	18.135509
706.328	-1.731820	0.254158	-145.206174	0.003	-0.002	59.462025	18.135509
706.340	-1.731799	0.254124	-145.206024	0.003	-0.002	59.462025	18.135509
706.352	-1.731777	0.254090	-145.205888	0.003	-0.002	59.462025	18.135509
706.364	-1.731755	0.254056	-145.205737	0.003	-0.002	59.462025	18.135509
706.376	-1.731734	0.254021	-145.205587	0.003	-0.002	59.462025	18.135509
706.388	-1.731712	0.253987	-145.205450	0.003	-0.002	59.462025	18.135509
706.400	-1.731690	0.253953	-145.205300	0.003	-0.002	59.462025	18.135509
706.412	-1.731669	0.253919	-145.205150	0.003	-0.002	59.462025	18.135509
706.424	-1.731648	0.253884	-145.205013	0.003	-0.002	59.462025	18.135509
706.436	-1.731626	0.253850	-145.204863	0.003	-0.002	59.462025	18.135509
706.448	-1.731604	0.253816	-145.204713	0.003	-0.002	59.462025	18.135509
706.460	-1.731582	0.253781	-145.204576	0.003	-0.002	59.462025	18.135509
706.472	-1.731561	0.253747	-145.204426	0.003	-0.002	59.462025	18.135509
706.484	-1.731540	0.253713	-145.204276	0.003	-0.002	59.462025	18.135509
706.496	-1.731518	0.253679	-145.204139	0.003	-0.002	59.462025	18.135509
706.508	-1.731496	0.253644	-145.203989	0.003	-0.002	59.462025	18.135509
706.520	-1.731474	0.253610	-145.203839	0.003	-0.002	59.462025	18.135509
706.532	-1.731453	0.253576	-145.203688	0.003	-0.002	59.462025	18.135509
706.544	-1.731431	0.253542	-145.203552	0.003	-0.002	59.462025	18.135509
706.556	-1.731410	0.253507	-145.203401	0.003	-0.002	59.462025	18.135509
706.568	-1.731388	0.253473	-145.203265	0.003	-0.002	59.462025	18.135509
706.580	-1.731366	0.253439	-145.203115	0.003	-0.002	59.462025	18.135509
706.592	-1.731350	0.253475	-145.203169	0.003	-0.002	59.462025	18.135509
706.604	-1.731059	0.254146	-145.203770	0.002	-0.002	59.462025	18.135509
706.616	-1.732194	0.253887	-145.203456	0.003	-0.002	59.462025	18.135509
706.628	-1.731720	0.253454	-145.203907	0.002	-0.002	59.462025	18.135509
706.640	-1.731203	0.254820	-145.204166	0.003	-0.002	59.462025	18.135509
706.652	-1.731219	0.254015	-145.204180	0.003	-0.001	59.462025	18.135509
706.664	-1.730542	0.254148	-145.204822	0.002	-0.002	59.462025	18.135509
706.676	-1.730977	0.254788	-145.204945	0.002	-0.002	59.462025	18.135509
706.688	-1.731086	0.254685	-145.204904	0.002	-0.002	59.462025	18.135509
706.700	-1.731195	0.254582	-145.204849	0.002	-0.002	59.462025	18.135509
706.712	-1.731304	0.254480	-145.204808	0.002	-0.002	59.462025	18.135509
706.724	-1.731414	0.254377	-145.204754	0.002	-0.002	59.462025	18.135509
706.736	-1.731523	0.254275	-145.204713	0.002	-0.002	59.462025	18.135509
706.748	-1.731632	0.254172	-145.204658	0.002	-0.002	59.462025	18.135509
706.760	-1.731741	0.254070	-145.204617	0.002	-0.002	59.462025	18.135509
706.772	-1.731851	0.253967	-145.204576	0.002	-0.002	59.462025	18.135509
706.784	-1.731960	0.253865	-145.204522	0.002	-0.002	59.462025	18.135509
706.796	-1.732069	0.253762	-145.204481	0.002	-0.002	59.462025	18.135509
706.808	-1.732178	0.253660	-145.204426	0.002	-0.002	59.462025	18.135509
706.820	-1.732288	0.253557	-145.204385	0.002	-0.002	59.462025	18.135509
706.832	-1.732397	0.253455	-145.204344	0.002	-0.002	59.462025	18.135509
706.844	-1.732506	0.253352	-145.204289	0.002	-0.001	59.462025	18.135509
706.856	-1.732615	0.253249	-145.204248	0.002	-0.001	59.462025	18.135509
706.868	-1.732725	0.253147	-145.204194	0.002	-0.001	59.462025	18.135509
706.880	-1.732834	0.253044	-145.204153	0.002	-0.001	59.462025	18.135509
706.892	-1.732943	0.252942	-145.204098	0.003	-0.001	59.462025	18.135509
706.904	-1.733052	0.252839	-145.204057	0.003	-0.001	59.462025	18.135509
706.916	-1.733162	0.252737	-145.204002	0.003	-0.001	59.462025	18.135509
706.928	-1.733271	0.252634	-145.203961	0.003	-0.001	59.462025	18.135509
706.940	-1.733380	0.252532	-145.203907	0.003	-0.001	59.462025	18.135509
706.952	-1.733933	0.253416	-145.203224	0.003	-0.001	59.462025	18.135509
706.964	-1.732869	0.252988	-145.202800	0.003	-0.001	59.462025	18.135509
706.976	-1.733271	0.253642	-145.202896	0.002	-0.001	59.462025	18.135509
706.988	-1.733435	0.253579	-145.202254	0.003	-0.001	59.462025	18.135509
707.000	-1.733065	0.253524	-145.201626	0.002	-0.001	59.462025	18.135509
707.012	-1.732781	0.254072	-145.201694	0.003	-0.001	59.462025	18.135509
707.024	-1.731998	0.253172	-145.201707	0.003	-0.001	59.462025	18.135509
707.036	-1.731947	0.253066	-145.201626	0.003	-0.001	59.462025	18.135509
707.048	-1.731891	0.252951	-145.201530	0.003	-0.001	59.462025	18.135509
707.060	-1.731836	0.252836	-145.201434	0.003	-0.001	59.462025	18.135509
707.072	-1.731780	0.252720	-145.201352	0.003	-0.001	59.462025	18.135509
707.084	-1.731725	0.252605	-145.201257	0.003	-0.001	59.462025	18.135509
707.096	-1.731669	0.252490	-145.201161	0.003	-0.001	59.462025	18.135509
707.108	-1.731613	0.252375	-145.201065	0.003	-0.001	59.462025	18.135509
707.120	-1.731558	0.252259	-145.200983	0.003	-0.001	59.462025	18.135509
707.132	-1.731503	0.252144	-145.200888	0.003	-0.001	59.462025	18.135509
707.144	-1.731447	0.252029	-145.200792	0.003	-0.001	59.462025	18.135509
707.156	-1.731392	0.251914	-145.200710	0.003	-0.001	59.462025	18.135509
707.168	-1.731336	0.251798	-145.200615	0.003	-0.001	59.462025	18.135509
707.180	-1.731281	0.251683	-145.200519	0.003	-0.001	59.462025	18.135509
707.192	-1.731225	0.251568	-145.200437	0.003	-0.001	59.462025	18.135509
707.204	-1.731169	0.251453	-145.200341	0.003	-0.001	59.462025	18.135509
707.216	-1.731114	0.251337	-145.200246	0.003	-0.001	59.462025	18.135509
707.228	-1.731058	0.251222	-145.200150	0.003	-0.001	59.462025	18.135509
707.240	-1.731003	0.251107	-145.200068	0.003	-0.001	59.462025	18.135509
707.252	-1.730947	0.250991	-145.199973	0.003	-0.002	59.462025	18.135509
707.264	-1.730892	0.250876	-145.199877	0.003	-0.002	59.462025	18.135509
707.276	-1.730836	0.250761	-145.199795	0.003	-0.002	59.462025	18.135509
707.288	-1.730781	0.250646	-145.199699	0.003	-0.002	59.462025	18.135509
707.300	-1.730725	0.250530	-145.199604	0.003	-0.002	59.462025	18.135509
707.312	-1.730738	0.251103	-145.200041	0.003	-0.002	59.462025	18.135509
707.324	-1.731488	0.251034	-145.199631	0.004	-0.002	59.462025	18.135509
707.336	-1.730980	0.250969	-145.199440	0.003	-0.002	59.462025	18.135509
707.348	-1.731045	0.252318	-145.199850	0.003	-0.002	59.462025	18.135509
707.360	-1.731397	0.252437	-145.200382	0.003	-0.002	59.462025	18.135509
707.372	-1.731487	0.252006	-145.200765	0.003	-0.002	59.462025	18.135509
707.384	-1.730837	0.254401	-145.201339	0.009	-0.002	59.462025	18.135509
707.396	-1.730557	0.256530	-145.201421	0.014	-0.002	59.462025	18.135509
707.408	-1.730277	0.258658	-145.201503	0.020	-0.002	59.462025	18.135509
707.420	-1.729997	0.260786	-145.201585	0.025	-0.001	59.462025	18.135509
707.432	-1.729716	0.262914	-145.201667	0.030	-0.001	59.462025	18.135509
707.444	-1.729436	0.265042	-145.201735	0.036	-0.001	59.462025	18.135509
707.456	-1.729156	0.267170	-145.201817	0.041	-0.001	59.462025	18.135509
707.468	-1.728876	0.269298	-145.201899	0.046	-0.001	59.462025	18.135509
707.480	-1.728596	0.271426	-145.201981	0.052	-0.001	59.462025	18.135509
707.492	-1.728316	0.273555	-145.202063	0.057	-0.001	59.462025	18.135509
707.504	-1.728035	0.275683	-145.202131	0.062	-0.001	59.462025	18.135509
707.516	-1.727755	0.277811	-145.202213	0.068	-0.001	59.462025	18.135509
707.528	-1.727475	0.279939	-145.202295	0.073	-0.001	59.462025	18.135509
707.540	-1.727195	0.282067	-145.202377	0.079	-0.001	59.462025	18.135509
707.552	-1.726915	0.284195	-145.202445	0.084	-0.000	59.462025	18.135509
707.564	-1.726635	0.286323	-145.202527	0.089	-0.000	59.462025	18.135509
707.576	-1.726354	0.288452	-145.202609	0.095	-0.000	59.462025	18.135509
707.588	-1.726074	0.290580	-145.202691	0.100	-0.000	59.462025	18.135509
707.600	-1.725795	0.292708	-145.202773	0.105	-0.000	59.462025	18.135509
707.612	-1.725514	0.294836	-145.202841	0.111	-0.000	59.462025	18.135509
707.624	-1.725234	0.296964	-145.202923	0.116	0.000	59.462025	18.135509
707.636	-1.724954	0.299092	-145.203005	0.122	0.000	59.462025	18.135509
707.648	-1.724674	0.301220	-145.203087	0.127	0.000	59.462025	18.135509
707.660	-1.725185	0.303177	-145.202869	0.135	0.000	59.462025	18.135509
707.672	-1.724578	0.304348	-145.202268	0.144	0.000	59.462025	18.135509
707.684	-1.724225	0.307700	-145.201680	0.154	0.000	59.462025	18.135509
707.696	-1.724672	0.309281	-145.200738	0.164	0.000	59.462025	18.135509
707.708	-1.723233	0.311197	-145.200492	0.173	0.000	59.462025	18.135509
707.720	-1.722957	0.314778	-145.199549	0.184	-0.000	59.462025	18.135509
707.732	-1.722753	0.315359	-145.198921	0.193	0.000	59.462025	18.135509
707.744	-1.721368	0.316508	-145.198798	0.202	0.000	59.462025	18.135509
707.756	-1.719983	0.317656	-145.198661	0.210	0.000	59.462025	18.135509
707.768	-1.718598	0.318805	-145.198525	0.219	0.000	59.462025	18.135509
707.780	-1.717213	0.319954	-145.198374	0.227	0.000	59.462025	18.135509
707.792	-1.715828	0.321103	-145.198251	0.236	0.000	59.462025	18.135509
707.804	-1.714443	0.322252	-145.198115	0.244	0.000	59.462025	18.135509
707.816	-1.713058	0.323400	-145.197978	0.253	0.000	59.462025	18.135509
707.828	-1.711673	0.324549	-145.197842	0.262	0.001	59.462025	18.135509
707.840	-1.710288	0.325698	-145.197705	0.270	0.001	59.462025	18.135509
707.852	-1.708904	0.326847	-145.197568	0.279	0.001	59.462025	18.135509
707.864	-1.707519	0.327995	-145.197432	0.287	0.001	59.462025	18.135509
707.876	-1.706134	0.329144	-145.197309	0.296	0.001	59.462025	18.135509
707.888	-1.704749	0.330293	-145.197172	0.304	0.001	59.462025	18.135509
707.900	-1.703364	0.331442	-145.197036	0.313	0.001	59.462025	18.135509
707.912	-1.701979	0.332590	-145.196899	0.321	0.001	59.462025	18.135509
707.924	-1.700594	0.333739	-145.196762	0.330	0.001	59.462025	18.135509
707.936	-1.699209	0.334888	-145.196626	0.339	0.001	59.462025	18.135509
707.948	-1.697824	0.336036	-145.196489	0.347	0.001	59.462025	18.135509
707.960	-1.696439	0.337185	-145.196353	0.356	0.001	59.462025	18.135509
707.972	-1.695054	0.338334	-145.196216	0.364	0.001	59.462025	18.135509
707.984	-1.693554	0.339578	-145.196066	0.373	0.001	59.462025	18.135509
707.996	-1.691821	0.342080	-145.194891	0.382	0.001	59.462025	18.135509
708.008	-1.689800	0.343037	-145.193825	0.392	0.001	59.462025	18.135509
708.020	-1.687264	0.345175	-145.192173	0.401	0.001	59.462025	18.135509
708.032	-1.684905	0.347287	-145.190205	0.411	0.001	59.462025	18.135509
708.044	-1.681871	0.349335	-145.188225	0.421	0.001	59.462025	18.135509
708.056	-1.680947	0.351899	-145.187296	0.429	0.001	59.462025	18.135508
708.068	-1.679077	0.354452	-145.186640	0.438	0.001	59.462025	18.135508
708.080	-1.677207	0.357004	-145.185957	0.448	0.001	59.462025	18.135508
708.092	-1.675337	0.359556	-145.185301	0.457	0.001	59.462024	18.135508
708.104	-1.673467	0.362109	-145.184618	0.466	0.001	59.462024	18.135508
708.116	-1.671597	0.364661	-145.183949	0.476	0.001	59.462024	18.135508
708.128	-1.669727	0.367213	-145.183293	0.485	0.001	59.462024	18.135508
708.140	-1.667857	0.369765	-145.182610	0.494	0.002	59.462024	18.135508
708.152	-1.665987	0.372318	-145.181941	0.504	0.002	59.462024	18.135508
708.164	-1.664117	0.374870	-145.181272	0.513	0.002	59.462024	18.135508
708.176	-1.662247	0.377422	-145.180602	0.522	0.002	59.462024	18.135508
708.188	-1.660376	0.379974	-145.179933	0.532	0.002	59.462024	18.135508
708.200	-1.658506	0.382526	-145.179263	0.541	0.002	59.462024	18.135508
708.212	-1.656635	0.385078	-145.178580	0.550	0.002	59.462024	18.135508
708.224	-1.654766	0.387630	-145.177911	0.560	0.002	59.462024	18.135508
708.236	-1.652896	0.390182	-145.177255	0.569	0.002	59.462024	18.135508
708.248	-1.651025	0.392734	-145.176572	0.578	0.002	59.462024	18.135507
708.260	-1.649154	0.395286	-145.175903	0.588	0.002	59.462024	18.135507
708.272	-1.647284	0.397838	-145.175234	0.597	0.002	59.462024	18.135507
708.284	-1.645414	0.400390	-145.174564	0.606	0.002	59.462024	18.135507
708.296	-1.643543	0.402942	-145.173895	0.616	0.002	59.462024	18.135507
708.308	-1.641673	0.405494	-145.173226	0.625	0.002	59.462024	18.135507
708.320	-1.639802	0.408046	-145.172543	0.634	0.002	59.462024	18.135507
708.332	-1.637932	0.410598	-145.171887	0.644	0.002	59.462024	18.135507
708.344	-1.636061	0.413150	-145.171204	0.653	0.003	59.462023	18.135507
708.356	-1.634191	0.415702	-145.170535	0.662	0.003	59.462023	18.135507
708.368	-1.632353	0.418577	-145.168936	0.672	0.002	59.462023	18.135507
708.380	-1.627218	0.422232	-145.165794	0.683	0.002	59.462023	18.135507
708.392	-1.621742	0.426982	-145.162338	0.693	0.002	59.462023	18.135507
708.404	-1.617162	0.432121	-145.158267	0.706	0.002	59.462023	18.135507
708.416	-1.614619	0.435962	-145.155494	0.716	0.002	59.462023	18.135506
708.428	-1.611445	0.440574	-145.151027	0.728	0.002	59.462023	18.135506
708.440	-1.607616	0.445396	-145.147544	0.740	0.002	59.462023	18.135506
708.452	-1.607845	0.450695	-145.144498	0.752	0.002	59.462023	18.135506
708.464	-1.610247	0.455131	-145.141779	0.766	0.002	59.462023	18.135506
708.476	-1.612649	0.459566	-145.139061	0.779	0.002	59.462023	18.135506
708.488	-1.615050	0.464002	-145.136343	0.793	0.002	59.462023	18.135506
708.500	-1.617451	0.468438	-145.133624	0.806	0.002	59.462023	18.135506
708.512	-1.619852	0.472875	-145.130919	0.820	0.002	59.462023	18.135506
708.524	-1.622253	0.477311	-145.128201	0.833	0.002	59.462022	18.135506
708.536	-1.624654	0.481747	-145.125483	0.847	0.002	59.462022	18.135505
708.548	-1.627054	0.486184	-145.122764	0.860	0.002	59.462022	18.135505
708.560	-1.629455	0.490620	-145.120059	0.874	0.002	59.462022	18.135505
708.572	-1.631854	0.495057	-145.117341	0.887	0.001	59.462022	18.135505
708.584	-1.634255	0.499494	-145.114623	0.901	0.001	59.462022	18.135505
708.596	-1.636654	0.503931	-145.111904	0.914	0.001	59.462022	18.135505
708.608	-1.639053	0.508368	-145.109186	0.928	0.001	59.462022	18.135505
708.620	-1.641453	0.512805	-145.106467	0.941	0.001	59.462022	18.135505
708.632	-1.643851	0.517242	-145.103749	0.955	0.001	59.462022	18.135505
708.644	-1.646251	0.521680	-145.101044	0.968	0.001	59.462022	18.135504
708.656	-1.648649	0.526117	-145.098326	0.982	0.001	59.462022	18.135504
708.668	-1.651047	0.530555	-145.095607	0.995	0.001	59.462021	18.135504
708.680	-1.653445	0.534993	-145.092889	1.009	0.001	59.462021	18.135504
708.692	-1.655843	0.539430	-145.090184	1.022	0.001	59.462021	18.135504
708.704	-1.658241	0.543868	-145.087466	1.036	0.001	59.462021	18.135504
708.716	-1.660639	0.548307	-145.084747	1.049	0.001	59.462021	18.135504
708.728	-1.662440	0.551373	-145.081633	1.062	0.001	59.462021	18.135504
708.740	-1.666082	0.553339	-145.078464	1.075	0.001	59.462021	18.135504
708.752	-1.668641	0.556048	-145.075718	1.087	0.002	59.462021	18.135503
708.764	-1.670317	0.557491	-145.072207	1.101	0.002	59.462021	18.135503
708.776	-1.670306	0.559005	-145.069694	1.112	0.003	59.462021	18.135503
708.788	-1.670060	0.559883	-145.066538	1.124	0.003	59.462021	18.135503
708.800	-1.671244	0.559605	-145.063096	1.137	0.003	59.462020	18.135503
708.812	-1.670550	0.558568	-145.060336	1.150	0.003	59.462020	18.135503
708.824	-1.669856	0.557531	-145.057590	1.162	0.003	59.462020	18.135503
708.836	-1.669162	0.556494	-145.054831	1.175	0.003	59.462020	18.135502
708.848	-1.668469	0.555457	-145.052072	1.188	0.003	59.462020	18.135502
708.860	-1.667775	0.554420	-145.049312	1.200	0.003	59.462020	18.135502
708.872	-1.667082	0.553383	-145.046567	1.213	0.003	59.462020	18.135502
708.884	-1.666388	0.552346	-145.043807	1.225	0.003	59.462020	18.135502
708.896	-1.665695	0.551308	-145.041048	1.238	0.003	59.462020	18.135502
708.908	-1.665001	0.550271	-145.038302	1.251	0.003	59.462019	18.135502
708.920	-1.664308	0.549234	-145.035543	1.263	0.003	59.462019	18.135501
708.932	-1.663614	0.548197	-145.032783	1.276	0.002	59.462019	18.135501
708.944	-1.662922	0.547159	-145.030038	1.289	0.002	59.462019	18.135501
708.956	-1.662228	0.546122	-145.027278	1.301	0.002	59.462019	18.135501
708.968	-1.661535	0.545084	-145.024519	1.314	0.002	59.462019	18.135501
708.980	-1.660842	0.544047	-145.021773	1.327	0.002	59.462019	18.135501
708.992	-1.661642	0.542990	-145.019150	1.339	0.002	59.462019	18.135500
709.004	-1.665007	0.543082	-145.017101	1.353	0.001	59.462019	18.135500
709.016	-1.667127	0.543342	-145.015148	1.365	0.001	59.462018	18.135500
709.028	-1.670573	0.543868	-145.013085	1.377	0.000	59.462018	18.135500
709.040	-1.673836	0.545434	-145.011118	1.390	0.000	59.462018	18.135500
709.052	-1.678893	0.546845	-145.009260	1.403	-0.001	59.462018	18.135500
709.064	-1.683950	0.548258	-145.007389	1.416	-0.001	59.462018	18.135499
709.076	-1.688659	0.549756	-145.005531	1.428	-0.002	59.462018	18.135499
709.088	-1.691847	0.552374	-145.003482	1.442	-0.002	59.462018	18.135499
709.100	-1.696190	0.555080	-145.001255	1.456	-0.001	59.462018	18.135499
709.112	-1.700533	0.557785	-144.999028	1.471	-0.001	59.462017	18.135499
709.124	-1.704876	0.560491	-144.996802	1.485	-0.001	59.462017	18.135499
709.136	-1.709219	0.563197	-144.994575	1.500	-0.000	59.462017	18.135498
709.148	-1.713561	0.565902	-144.992349	1.514	0.000	59.462017	18.135498
709.160	-1.717904	0.568609	-144.990108	1.528	0.000	59.462017	18.135498
709.172	-1.722246	0.571315	-144.987882	1.543	0.001	59.462017	18.135498
709.184	-1.726589	0.574021	-144.985655	1.557	0.001	59.462017	18.135498
709.196	-1.730931	0.576728	-144.983428	1.572	0.001	59.462016	18.135497
709.208	-1.735273	0.579435	-144.981188	1.586	0.002	59.462016	18.135497
709.220	-1.739615	0.582142	-144.978975	1.601	0.002	59.462016	18.135497
709.232	-1.743957	0.584849	-144.976748	1.615	0.002	59.462016	18.135497
709.244	-1.748299	0.587556	-144.974522	1.629	0.002	59.462016	18.135497
709.256	-1.752640	0.590264	-144.972281	1.644	0.003	59.462016	18.135496
709.268	-1.756981	0.592971	-144.970055	1.658	0.003	59.462016	18.135496
709.280	-1.761323	0.595679	-144.967842	1.673	0.003	59.462015	18.135496
709.292	-1.765665	0.598387	-144.965615	1.687	0.004	59.462015	18.135496
709.304	-1.770006	0.601095	-144.963389	1.702	0.004	59.462015	18.135496
709.316	-1.774347	0.603804	-144.961162	1.716	0.004	59.462015	18.135495
709.328	-1.778688	0.606512	-144.958935	1.730	0.005	59.462015	18.135495
709.340	-1.783029	0.609221	-144.956709	1.745	0.005	59.462015	18.135495
709.352	-1.787370	0.611930	-144.954482	1.759	0.005	59.462015	18.135495
709.364	-1.791711	0.614638	-144.952255	1.774	0.005	59.462014	18.135495
709.376	-1.796052	0.617348	-144.950042	1.788	0.006	59.462014	18.135494
709.388	-1.800392	0.620057	-144.947816	1.802	0.006	59.462014	18.135494
709.400	-1.804732	0.622767	-144.945589	1.817	0.006	59.462014	18.135494
709.412	-1.808484	0.624884	-144.943117	1.831	0.006	59.462014	18.135494
709.424	-1.811041	0.623908	-144.940412	1.848	0.006	59.462014	18.135494
709.436	-1.814729	0.621861	-144.938458	1.863	0.006	59.462014	18.135493
709.448	-1.818923	0.621926	-144.936819	1.880	0.005	59.462013	18.135493
709.460	-1.824729	0.620475	-144.934592	1.896	0.005	59.462013	18.135493
709.472	-1.828743	0.619079	-144.932803	1.912	0.003	59.462013	18.135493
709.484	-1.833018	0.618592	-144.930180	1.931	0.002	59.462013	18.135492
709.496	-1.839611	0.618073	-144.927872	1.947	0.001	59.462013	18.135492
709.508	-1.846381	0.619217	-144.925863	1.964	0.001	59.462013	18.135492
709.520	-1.857286	0.622847	-144.922708	1.981	0.001	59.462012	18.135492
709.532	-1.868189	0.626477	-144.919566	1.998	0.001	59.462012	18.135491
709.544	-1.879093	0.630108	-144.916424	2.015	0.001	59.462012	18.135491
709.556	-1.889995	0.633739	-144.913282	2.032	0.001	59.462012	18.135491
709.568	-1.900898	0.637371	-144.910140	2.049	0.001	59.462012	18.135491
709.580	-1.911801	0.641004	-144.906998	2.066	0.001	59.462011	18.135490
709.592	-1.922703	0.644637	-144.903857	2.083	0.001	59.462011	18.135490
709.604	-1.933606	0.648270	-144.900715	2.100	0.001	59.462011	18.135490
709.616	-1.944507	0.651905	-144.897573	2.117	0.001	59.462011	18.135490
709.628	-1.955410	0.655540	-144.894445	2.134	0.001	59.462011	18.135489
709.640	-1.966312	0.659175	-144.891303	2.151	0.001	59.462010	18.135489
709.652	-1.977213	0.662811	-144.888161	2.168	0.001	59.462010	18.135489
709.664	-1.988115	0.666448	-144.885033	2.185	0.001	59.462010	18.135489
709.676	-1.999016	0.670085	-144.881891	2.202	0.001	59.462010	18.135488
709.688	-2.009917	0.673723	-144.878762	2.219	0.000	59.462010	18.135488
709.700	-2.020818	0.677362	-144.875621	2.236	0.000	59.462010	18.135488
709.712	-2.031718	0.681001	-144.872492	2.253	0.000	59.462009	18.135488
709.724	-2.042619	0.684640	-144.869364	2.270	0.000	59.462009	18.135487
709.736	-2.053518	0.688281	-144.866222	2.287	0.000	59.462009	18.135487
709.748	-2.064419	0.691922	-144.863094	2.304	0.000	59.462009	18.135487
709.760	-2.075319	0.695563	-144.859966	2.321	0.000	59.462009	18.135486
709.772	-2.086218	0.699205	-144.856824	2.338	0.000	59.462008	18.135486
709.784	-2.097118	0.702848	-144.853696	2.355	0.000	59.462008	18.135486
709.796	-2.107364	0.711171	-144.850991	2.373	0.000	59.462008	18.135486
709.808	-2.119706	0.726515	-144.849721	2.392	0.000	59.462008	18.135485
709.820	-2.129819	0.743482	-144.848395	2.410	0.001	59.462008	18.135485
709.832	-2.133275	0.760285	-144.845855	2.429	0.000	59.462007	18.135485
709.844	-2.135477	0.779692	-144.843970	2.446	0.002	59.462007	18.135485
709.856	-2.134096	0.794775	-144.842481	2.461	0.004	59.462007	18.135484
709.868	-2.129360	0.811992	-144.842180	2.477	0.006	59.462007	18.135484
709.880	-2.116171	0.815014	-144.839147	2.493	0.007	59.462006	18.135484
709.892	-2.101354	0.815251	-144.835691	2.509	0.008	59.462006	18.135483
709.904	-2.086537	0.815487	-144.832235	2.525	0.009	59.462006	18.135483
709.916	-2.071720	0.815721	-144.828779	2.541	0.010	59.462006	18.135483
709.928	-2.056904	0.815955	-144.825309	2.557	0.011	59.462006	18.135482
709.940	-2.042086	0.816188	-144.821853	2.573	0.012	59.462005	18.135482
709.952	-2.027270	0.816421	-144.818397	2.589	0.013	59.462005	18.135482
709.964	-2.012453	0.816652	-144.814955	2.605	0.015	59.462005	18.135481
709.976	-1.997636	0.816882	-144.811485	2.621	0.016	59.462005	18.135481
709.988	-1.981577	0.812981	-144.808357	2.637	0.015	59.462004	18.135481
710.000	-1.960172	0.795031	-144.805283	2.652	0.015	59.462004	18.135481
710.012	-1.933779	0.775114	-144.801773	2.665	0.013	59.462004	18.135480
710.024	-1.915026	0.752378	-144.798699	2.679	0.012	59.462004	18.135480
710.036	-1.898236	0.730378	-144.795994	2.693	0.010	59.462004	18.135480
710.048	-1.881448	0.708376	-144.793289	2.707	0.009	59.462003	18.135479
710.060	-1.864661	0.686374	-144.790598	2.721	0.007	59.462003	18.135479
710.072	-1.847875	0.664371	-144.787907	2.735	0.006	59.462003	18.135479
710.084	-1.831090	0.642367	-144.785244	2.749	0.004	59.462003	18.135478
710.096	-1.814306	0.620362	-144.782566	2.763	0.002	59.462002	18.135478
710.108	-1.797523	0.598357	-144.779889	2.777	0.001	59.462002	18.135478
710.120	-1.780741	0.576351	-144.777239	2.791	-0.001	59.462002	18.135477
710.132	-1.763960	0.554344	-144.774575	2.805	-0.003	59.462002	18.135477
710.144	-1.745783	0.530502	-144.771706	2.820	-0.004	59.462001	18.135477
710.156	-1.736942	0.517458	-144.769425	2.833	-0.005	59.462001	18.135476
710.168	-1.729184	0.506156	-144.766898	2.846	-0.004	59.462001	18.135476
710.180	-1.721269	0.498825	-144.765805	2.860	-0.005	59.462001	18.135476
710.192	-1.726647	0.509445	-144.764521	2.875	-0.005	59.462000	18.135475
710.204	-1.732025	0.520066	-144.763250	2.890	-0.005	59.462000	18.135475
710.216	-1.737402	0.530687	-144.761966	2.905	-0.004	59.462000	18.135474
710.228	-1.742779	0.541308	-144.760682	2.919	-0.004	59.462000	18.135474
710.240	-1.748156	0.551929	-144.759412	2.934	-0.004	59.461999	18.135474
710.252	-1.753533	0.562550	-144.758128	2.949	-0.004	59.461999	18.135473
710.264	-1.758909	0.573171	-144.756857	2.964	-0.004	59.461999	18.135473
710.276	-1.764285	0.583793	-144.755587	2.979	-0.004	59.461998	18.135473
710.288	-1.769661	0.594414	-144.754303	2.994	-0.004	59.461998	18.135472
710.300	-1.775037	0.605036	-144.753032	3.009	-0.004	59.461998	18.135472
710.312	-1.780412	0.615658	-144.751762	3.024	-0.004	59.461998	18.135471
710.324	-1.785787	0.626280	-144.750492	3.038	-0.004	59.461997	18.135471
710.336	-1.791162	0.636902	-144.749221	3.053	-0.004	59.461997	18.135471
710.348	-1.796537	0.647524	-144.747951	3.068	-0.004	59.461997	18.135470
710.360	-1.801912	0.658146	-144.746680	3.083	-0.004	59.461997	18.135470
710.372	-1.807286	0.668769	-144.745424	3.098	-0.004	59.461996	18.135470
710.384	-1.812661	0.679391	-144.744153	3.113	-0.004	59.461996	18.135469
710.396	-1.818034	0.690014	-144.742883	3.128	-0.004	59.461996	18.135469
710.408	-1.823408	0.700637	-144.741626	3.143	-0.004	59.461995	18.135469
710.420	-1.828781	0.711259	-144.740369	3.157	-0.004	59.461995	18.135468
710.432	-1.834155	0.721882	-144.739112	3.172	-0.004	59.461995	18.135468
710.444	-1.839528	0.732505	-144.737842	3.187	-0.004	59.461995	18.135467
710.456	-1.844900	0.743129	-144.736585	3.202	-0.003	59.461994	18.135467
710.468	-1.850273	0.753752	-144.735315	3.217	-0.003	59.461994	18.135467
710.480	-1.855646	0.764376	-144.734072	3.232	-0.003	59.461994	18.135466
710.492	-1.861017	0.774999	-144.732801	3.247	-0.003	59.461994	18.135466
710.504	-1.869808	0.787238	-144.732173	3.262	-0.003	59.461993	18.135466
710.516	-1.880861	0.799179	-144.732323	3.274	-0.003	59.461993	18.135465
710.528	-1.893767	0.810421	-144.732624	3.287	-0.004	59.461993	18.135465
710.540	-1.904548	0.821719	-144.732692	3.301	-0.004	59.461992	18.135464
710.552	-1.913634	0.832861	-144.732719	3.315	-0.006	59.461992	18.135464
710.564	-1.924298	0.843832	-144.732801	3.329	-0.005	59.461992	18.135464
710.576	-1.932137	0.853870	-144.732542	3.341	-0.005	59.461992	18.135463
710.588	-1.940246	0.866606	-144.732637	3.355	-0.003	59.461991	18.135463
710.600	-1.945882	0.880328	-144.732077	3.369	-0.003	59.461991	18.135462
710.612	-1.948806	0.895650	-144.733334	3.383	-0.003	59.461991	18.135462
710.624	-1.951730	0.910971	-144.734591	3.396	-0.003	59.461990	18.135461
710.636	-1.954655	0.926292	-144.735861	3.410	-0.003	59.461990	18.135461
710.648	-1.957580	0.941613	-144.737118	3.424	-0.003	59.461990	18.135461
710.660	-1.960505	0.956935	-144.738375	3.438	-0.003	59.461989	18.135460
710.672	-1.963431	0.972256	-144.739632	3.451	-0.003	59.461989	18.135460
710.684	-1.966358	0.987577	-144.740902	3.465	-0.003	59.461989	18.135459
710.696	-1.969284	1.002898	-144.742172	3.479	-0.004	59.461989	18.135459
710.708	-1.972212	1.018219	-144.743429	3.493	-0.004	59.461988	18.135459
710.720	-1.975139	1.033540	-144.744700	3.506	-0.004	59.461988	18.135458
710.732	-1.978067	1.048860	-144.745956	3.520	-0.004	59.461988	18.135458
710.744	-1.980994	1.064181	-144.747227	3.534	-0.004	59.461987	18.135457
710.756	-1.983923	1.079502	-144.748497	3.547	-0.004	59.461987	18.135457
710.768	-1.986852	1.094823	-144.749754	3.561	-0.004	59.461987	18.135456
710.780	-1.989781	1.110143	-144.751024	3.575	-0.004	59.461986	18.135456
710.792	-1.992710	1.125464	-144.752295	3.589	-0.004	59.461986	18.135456
710.804	-1.995640	1.140784	-144.753565	3.602	-0.004	59.461986	18.135455
710.816	-1.998570	1.156105	-144.754836	3.616	-0.004	59.461985	18.135455
710.828	-2.001500	1.171425	-144.756106	3.630	-0.004	59.461985	18.135454
710.840	-2.004431	1.186745	-144.757376	3.644	-0.004	59.461985	18.135454
710.852	-2.007363	1.202065	-144.758660	3.657	-0.004	59.461985	18.135453
710.864	-1.993771	1.211369	-144.762608	3.672	-0.004	59.461984	18.135453
710.876	-1.976483	1.216292	-144.766215	3.685	0.001	59.461984	18.135453
710.888	-1.954988	1.221265	-144.770695	3.700	0.003	59.461984	18.135452
710.900	-1.932853	1.225550	-144.776228	3.714	0.006	59.461983	18.135452
710.912	-1.912660	1.230318	-144.781746	3.725	0.006	59.461983	18.135451
710.924	-1.889663	1.235786	-144.788372	3.741	0.010	59.461983	18.135451
710.936	-1.874845	1.241775	-144.793986	3.753	0.010	59.461982	18.135450
710.948	-1.858681	1.246773	-144.799054	3.767	0.010	59.461982	18.135450
710.960	-1.842518	1.251772	-144.804122	3.780	0.010	59.461982	18.135449
710.972	-1.826354	1.256772	-144.809177	3.794	0.011	59.461981	18.135449
710.984	-1.808845	1.262191	-144.814654	3.808	0.011	59.461981	18.135448
710.996	-1.790831	1.263048	-144.817742	3.819	0.010	59.461981	18.135448
711.008	-1.782042	1.243998	-144.823725	3.829	0.009	59.461980	18.135448
711.020	-1.773252	1.224950	-144.829694	3.839	0.009	59.461980	18.135447
711.032	-1.764459	1.205902	-144.835678	3.848	0.008	59.461980	18.135447
711.044	-1.755665	1.186855	-144.841661	3.858	0.007	59.461979	18.135446
711.056	-1.746869	1.167810	-144.847658	3.868	0.007	59.461979	18.135446
711.068	-1.738070	1.148765	-144.853641	3.877	0.006	59.461979	18.135445
711.080	-1.729270	1.129721	-144.859638	3.887	0.005	59.461978	18.135445
711.092	-1.720468	1.110678	-144.865635	3.897	0.004	59.461978	18.135444
711.104	-1.711664	1.091636	-144.871618	3.907	0.004	59.461977	18.135444
711.116	-1.702858	1.072595	-144.877629	3.916	0.003	59.461977	18.135443
711.128	-1.694050	1.053554	-144.883639	3.926	0.002	59.461977	18.135443
711.140	-1.685240	1.034515	-144.889636	3.936	0.001	59.461976	18.135442
711.152	-1.676429	1.015476	-144.895660	3.945	0.001	59.461976	18.135442
711.164	-1.667615	0.996439	-144.901657	3.955	-0.000	59.461976	18.135441
711.176	-1.658799	0.977403	-144.907682	3.965	-0.001	59.461975	18.135441
711.188	-1.649981	0.958367	-144.913692	3.974	-0.002	59.461975	18.135440
711.200	-1.641162	0.939332	-144.919716	3.984	-0.002	59.461975	18.135440
711.212	-1.634390	0.918139	-144.926615	3.994	-0.003	59.461974	18.135440
711.224	-1.639275	0.884352	-144.937939	4.002	-0.005	59.461974	18.135439
711.236	-1.643594	0.858299	-144.947570	4.008	-0.004	59.461974	18.135439
711.248	-1.647520	0.828723	-144.957105	4.014	-0.002	59.461973	18.135438
711.260	-1.648716	0.801411	-144.965164	4.022	-0.002	59.461973	18.135438
711.272	-1.648644	0.777323	-144.973634	4.030	-0.002	59.461973	18.135437
711.284	-1.646882	0.766814	-144.981816	4.039	-0.001	59.461972	18.135437
711.296	-1.645119	0.756305	-144.990013	4.048	-0.001	59.461972	18.135436
711.308	-1.643354	0.745796	-144.998195	4.056	-0.001	59.461972	18.135436
711.320	-1.641588	0.735288	-145.006378	4.065	-0.001	59.461971	18.135435
711.332	-1.639821	0.724780	-145.014560	4.073	-0.001	59.461971	18.135435
711.344	-1.638051	0.714272	-145.022743	4.082	-0.001	59.461970	18.135434
711.356	-1.636280	0.703765	-145.030939	4.090	-0.001	59.461970	18.135434
711.368	-1.634509	0.693257	-145.039135	4.099	-0.001	59.461970	18.135433
711.380	-1.632735	0.682750	-145.047318	4.107	-0.001	59.461969	18.135433
711.392	-1.630960	0.672244	-145.055500	4.116	-0.001	59.461969	18.135432
711.404	-1.629183	0.661737	-145.063697	4.124	-0.001	59.461969	18.135432
711.416	-1.627405	0.651231	-145.071879	4.133	-0.001	59.461968	18.135431
711.428	-1.625625	0.640725	-145.080075	4.141	-0.001	59.461968	18.135431
711.440	-1.623844	0.630219	-145.088272	4.150	-0.000	59.461968	18.135430
711.452	-1.622061	0.619714	-145.096454	4.158	-0.000	59.461967	18.135430
711.464	-1.620277	0.609208	-145.104651	4.167	-0.000	59.461967	18.135429
711.476	-1.618492	0.598703	-145.112833	4.175	-0.000	59.461966	18.135429
711.488	-1.616704	0.588199	-145.121029	4.184	-0.000	59.461966	18.135428
711.500	-1.614916	0.577694	-145.129212	4.192	0.000	59.461966	18.135428
711.512	-1.613126	0.567190	-145.137422	4.201	0.000	59.461965	18.135427
711.524	-1.611334	0.556686	-145.145604	4.209	0.000	59.461965	18.135427
711.536	-1.609542	0.546182	-145.153801	4.218	0.000	59.461965	18.135426
711.548	-1.607747	0.535679	-145.161997	4.226	0.000	59.461964	18.135426
711.560	-1.605950	0.525176	-145.170179	4.235	0.001	59.461964	18.135425
711.572	-1.607360	0.516465	-145.178949	4.244	0.000	59.461963	18.135425
711.584	-1.615643	0.508156	-145.188908	4.256	-0.002	59.461963	18.135424
711.596	-1.625865	0.497805	-145.197200	4.267	-0.003	59.461963	18.135424
711.608	-1.631285	0.478541	-145.206502	4.279	-0.004	59.461962	18.135423
711.620	-1.636223	0.450946	-145.216119	4.285	-0.005	59.461962	18.135423
711.632	-1.638549	0.410996	-145.224684	4.295	-0.004	59.461962	18.135422
711.644	-1.638290	0.352109	-145.232430	4.307	-0.004	59.461961	18.135422
711.656	-1.637736	0.371413	-145.241978	4.317	-0.004	59.461961	18.135421
711.668	-1.637135	0.392471	-145.252415	4.328	-0.004	59.461960	18.135421
711.680	-1.636538	0.413530	-145.262838	4.339	-0.004	59.461960	18.135420
711.692	-1.635945	0.434589	-145.273261	4.349	-0.005	59.461960	18.135420
711.704	-1.635355	0.455648	-145.283683	4.360	-0.005	59.461959	18.135419
711.716	-1.634769	0.476708	-145.294106	4.371	-0.005	59.461959	18.135419
711.728	-1.634187	0.497767	-145.304543	4.382	-0.005	59.461959	18.135418
711.740	-1.633609	0.518827	-145.314952	4.392	-0.005	59.461958	18.135418
711.752	-1.633035	0.539886	-145.325389	4.403	-0.005	59.461958	18.135417
711.764	-1.632464	0.560946	-145.335811	4.414	-0.006	59.461957	18.135416
711.776	-1.631898	0.582006	-145.346234	4.424	-0.006	59.461957	18.135416
711.788	-1.631335	0.603066	-145.356657	4.435	-0.006	59.461957	18.135415
711.800	-1.630776	0.624126	-145.367080	4.446	-0.006	59.461956	18.135415
711.812	-1.630221	0.645186	-145.377503	4.457	-0.006	59.461956	18.135414
711.824	-1.629670	0.666246	-145.387926	4.467	-0.006	59.461955	18.135414
711.836	-1.629122	0.687306	-145.398349	4.478	-0.006	59.461955	18.135413
711.848	-1.628578	0.708367	-145.408772	4.489	-0.007	59.461955	18.135413
711.860	-1.628039	0.729427	-145.419194	4.500	-0.007	59.461954	18.135412
711.872	-1.627503	0.750487	-145.429617	4.510	-0.007	59.461954	18.135412
711.884	-1.626970	0.771548	-145.440040	4.521	-0.007	59.461953	18.135411
711.896	-1.626443	0.792609	-145.450477	4.532	-0.007	59.461953	18.135411
711.908	-1.625917	0.813670	-145.460886	4.542	-0.007	59.461953	18.135410
711.920	-1.625397	0.834731	-145.471309	4.553	-0.007	59.461952	18.135410
711.932	-1.654499	0.911909	-145.482005	4.569	-0.012	59.461952	18.135409
711.944	-1.686940	0.984027	-145.494176	4.585	-0.012	59.461951	18.135408
711.956	-1.709449	1.036539	-145.505145	4.610	-0.014	59.461951	18.135408
711.968	-1.734610	1.085228	-145.516183	4.624	-0.014	59.461951	18.135407
711.980	-1.756503	1.126141	-145.528027	4.629	-0.014	59.461950	18.135407
711.992	-1.775607	1.155231	-145.540020	4.632	-0.012	59.461950	18.135406
712.004	-1.778460	1.163528	-145.553612	4.639	-0.011	59.461949	18.135406
712.016	-1.759416	1.147328	-145.566139	4.646	-0.010	59.461949	18.135405
712.028	-1.740368	1.131132	-145.578679	4.652	-0.009	59.461949	18.135405
712.040	-1.721317	1.114940	-145.591220	4.659	-0.008	59.461948	18.135404
712.052	-1.702262	1.098753	-145.603760	4.666	-0.007	59.461948	18.135404
712.064	-1.683204	1.082569	-145.616314	4.672	-0.006	59.461947	18.135403
712.076	-1.664143	1.066390	-145.628868	4.679	-0.005	59.461947	18.135402
712.088	-1.645077	1.050215	-145.641421	4.685	-0.004	59.461946	18.135402
712.100	-1.626009	1.034044	-145.653989	4.692	-0.003	59.461946	18.135401
712.112	-1.606937	1.017878	-145.666557	4.699	-0.002	59.461946	18.135401
712.124	-1.587862	1.001715	-145.679138	4.705	-0.000	59.461945	18.135400
712.136	-1.568782	0.985557	-145.691719	4.712	0.001	59.461945	18.135400
712.148	-1.549701	0.969403	-145.704314	4.719	0.002	59.461944	18.135399
712.160	-1.530614	0.953253	-145.716895	4.725	0.003	59.461944	18.135399
712.172	-1.511525	0.937107	-145.729490	4.732	0.004	59.461944	18.135398
712.184	-1.492433	0.920966	-145.742098	4.739	0.005	59.461943	18.135398
712.196	-1.473337	0.904828	-145.754707	4.745	0.006	59.461943	18.135397
712.208	-1.454237	0.888695	-145.767315	4.752	0.007	59.461942	18.135396
712.220	-1.435134	0.872566	-145.779938	4.758	0.008	59.461942	18.135396
712.232	-1.416027	0.856442	-145.792560	4.765	0.009	59.461941	18.135395
712.244	-1.396917	0.840321	-145.805182	4.772	0.010	59.461941	18.135395
712.256	-1.377804	0.824205	-145.817818	4.778	0.011	59.461941	18.135394
712.268	-1.358687	0.808093	-145.830467	4.785	0.012	59.461940	18.135394
712.280	-1.337954	0.811091	-145.842393	4.794	0.012	59.461940	18.135393
712.292	-1.308462	0.854157	-145.854400	4.808	0.009	59.461939	18.135393
712.304	-1.272702	0.916198	-145.866367	4.812	0.007	59.461939	18.135392
712.316	-1.232612	0.982622	-145.878456	4.819	0.005	59.461939	18.135391
712.328	-1.206819	1.058465	-145.891939	4.829	0.006	59.461938	18.135391
712.340	-1.169681	1.127858	-145.906720	4.835	0.007	59.461938	18.135390
712.352	-1.140356	1.196370	-145.921910	4.841	0.010	59.461937	18.135390
712.364	-1.142353	1.168079	-145.933904	4.842	0.009	59.461937	18.135389
712.376	-1.154033	1.109720	-145.945269	4.844	0.008	59.461936	18.135389
712.388	-1.165700	1.051359	-145.956621	4.846	0.008	59.461936	18.135388
712.400	-1.177356	0.992995	-145.967959	4.847	0.007	59.461935	18.135387
712.412	-1.189000	0.934630	-145.979284	4.848	0.006	59.461935	18.135387
712.424	-1.200632	0.876261	-145.990594	4.850	0.006	59.461935	18.135386
712.436	-1.212252	0.817891	-146.001891	4.851	0.005	59.461934	18.135386
712.448	-1.223862	0.759518	-146.013189	4.852	0.005	59.461934	18.135385
712.460	-1.235459	0.701143	-146.024458	4.854	0.004	59.461933	18.135385
712.472	-1.247045	0.642766	-146.035715	4.855	0.003	59.461933	18.135384
712.484	-1.258619	0.584386	-146.046971	4.856	0.003	59.461932	18.135383
712.496	-1.270181	0.526005	-146.058213	4.857	0.002	59.461932	18.135383
712.508	-1.281732	0.467620	-146.069442	4.858	0.002	59.461932	18.135382
712.520	-1.293271	0.409234	-146.080657	4.859	0.001	59.461931	18.135382
712.532	-1.304799	0.350845	-146.091859	4.860	0.001	59.461931	18.135381
712.544	-1.316315	0.292455	-146.103060	4.861	0.000	59.461930	18.135381
712.556	-1.327821	0.234062	-146.114234	4.862	-0.000	59.461930	18.135380
712.568	-1.339314	0.175666	-146.125409	4.863	-0.001	59.461929	18.135380
712.580	-1.350796	0.117269	-146.136555	4.864	-0.001	59.461929	18.135379
712.592	-1.362267	0.058869	-146.147702	4.864	-0.002	59.461929	18.135378
712.604	-1.373726	0.000467	-146.158849	4.865	-0.002	59.461928	18.135378
712.616	-1.385174	-0.057938	-146.169969	4.866	-0.003	59.461928	18.135377
712.628	-1.396610	-0.116344	-146.181075	4.866	-0.003	59.461927	18.135377
712.640	-1.409624	-0.165803	-146.191361	4.870	-0.003	59.461927	18.135376
712.652	-1.421181	-0.193972	-146.201497	4.880	-0.000	59.461926	18.135376
712.664	-1.433418	-0.212016	-146.213504	4.885	0.000	59.461926	18.135375
712.676	-1.442549	-0.218529	-146.222015	4.892	0.003	59.461926	18.135374
712.688	-1.448670	-0.216265	-146.231987	4.900	0.006	59.461925	18.135374
712.700	-1.452377	-0.207101	-146.242601	4.908	0.008	59.461925	18.135373
712.712	-1.453177	-0.190830	-146.253447	4.923	0.009	59.461924	18.135373
712.724	-1.443470	-0.155496	-146.265632	4.930	0.010	59.461924	18.135372
712.736	-1.430305	-0.115629	-146.278022	4.938	0.009	59.461923	18.135372
712.748	-1.417147	-0.075759	-146.290399	4.946	0.009	59.461923	18.135371
712.760	-1.403999	-0.035886	-146.302761	4.954	0.009	59.461922	18.135370
712.772	-1.390859	0.003990	-146.315124	4.962	0.009	59.461922	18.135370
712.784	-1.377728	0.043868	-146.327459	4.970	0.009	59.461922	18.135369
712.796	-1.364606	0.083750	-146.339795	4.978	0.009	59.461921	18.135369
712.808	-1.351492	0.123634	-146.352130	4.986	0.009	59.461921	18.135368
712.820	-1.338387	0.163521	-146.364452	4.994	0.008	59.461920	18.135367
712.832	-1.325290	0.203411	-146.376760	5.002	0.008	59.461920	18.135367
712.844	-1.312201	0.243304	-146.389068	5.009	0.008	59.461919	18.135366
712.856	-1.299122	0.283199	-146.401362	5.017	0.008	59.461919	18.135366
712.868	-1.286050	0.323097	-146.413643	5.025	0.008	59.461918	18.135365
712.880	-1.272988	0.362998	-146.425923	5.033	0.008	59.461918	18.135365
712.892	-1.259933	0.402902	-146.438177	5.041	0.008	59.461917	18.135364
712.904	-1.246888	0.442809	-146.450444	5.049	0.008	59.461917	18.135363
712.916	-1.233850	0.482719	-146.462683	5.057	0.008	59.461917	18.135363
712.928	-1.220822	0.522631	-146.474923	5.064	0.008	59.461916	18.135362
712.940	-1.207801	0.562546	-146.487149	5.072	0.007	59.461916	18.135362
712.952	-1.194789	0.602464	-146.499375	5.080	0.007	59.461915	18.135361
712.964	-1.181785	0.642384	-146.511588	5.088	0.007	59.461915	18.135360
712.976	-1.168791	0.682308	-146.523800	5.096	0.007	59.461914	18.135360
712.988	-1.158348	0.715055	-146.535903	5.102	0.006	59.461914	18.135359
713.000	-1.152482	0.723994	-146.546613	5.108	0.006	59.461913	18.135359
713.012	-1.145993	0.729678	-146.558074	5.111	0.007	59.461913	18.135358
713.024	-1.139521	0.731302	-146.570382	5.117	0.005	59.461912	18.135357
713.036	-1.132316	0.728213	-146.580477	5.121	0.006	59.461912	18.135357
713.048	-1.125743	0.722242	-146.592225	5.125	0.006	59.461912	18.135356
713.060	-1.127962	0.711189	-146.606022	5.130	0.006	59.461911	18.135356
713.072	-1.140252	0.695940	-146.619286	5.137	0.006	59.461911	18.135355
713.084	-1.152540	0.680688	-146.632523	5.144	0.006	59.461910	18.135354
713.096	-1.164823	0.665433	-146.645773	5.151	0.006	59.461910	18.135354
713.108	-1.177103	0.650175	-146.659024	5.157	0.005	59.461909	18.135353
713.120	-1.189380	0.634915	-146.672261	5.164	0.005	59.461909	18.135353
713.132	-1.201653	0.619652	-146.685498	5.171	0.005	59.461908	18.135352
713.144	-1.213922	0.604386	-146.698735	5.178	0.005	59.461908	18.135351
713.156	-1.226188	0.589117	-146.711958	5.185	0.005	59.461907	18.135351
713.168	-1.238450	0.573845	-146.725181	5.191	0.004	59.461907	18.135350
713.180	-1.250709	0.558571	-146.738404	5.198	0.004	59.461906	18.135350
713.192	-1.262964	0.543293	-146.751628	5.205	0.004	59.461906	18.135349
713.204	-1.275215	0.528013	-146.764851	5.212	0.004	59.461905	18.135349
713.216	-1.287463	0.512730	-146.778061	5.218	0.003	59.461905	18.135348
713.228	-1.299708	0.497444	-146.791270	5.225	0.003	59.461905	18.135347
713.240	-1.311949	0.482155	-146.804480	5.232	0.003	59.461904	18.135347
713.252	-1.324186	0.466864	-146.817676	5.239	0.003	59.461904	18.135346
713.264	-1.336420	0.451570	-146.830885	5.246	0.003	59.461903	18.135346
713.276	-1.348650	0.436273	-146.844081	5.252	0.002	59.461903	18.135345
713.288	-1.360877	0.420973	-146.857277	5.259	0.002	59.461902	18.135344
713.300	-1.373100	0.405670	-146.870459	5.266	0.002	59.461902	18.135344
713.312	-1.385320	0.390364	-146.883655	5.273	0.002	59.461901	18.135343
713.324	-1.397536	0.375056	-146.896824	5.280	0.002	59.461901	18.135343
713.336	-1.409748	0.359745	-146.910020	5.286	0.001	59.461900	18.135342
713.348	-1.425888	0.339862	-146.923530	5.293	0.003	59.461900	18.135341
713.360	-1.446406	0.302007	-146.938324	5.300	0.003	59.461899	18.135341
713.372	-1.458937	0.259447	-146.951247	5.305	0.007	59.461899	18.135340
713.384	-1.474087	0.209607	-146.966492	5.312	0.006	59.461898	18.135339
713.396	-1.483219	0.165352	-146.979934	5.316	0.011	59.461898	18.135339
713.408	-1.487863	0.115874	-146.994414	5.321	0.014	59.461897	18.135338
713.420	-1.494008	0.066295	-147.012131	5.327	0.017	59.461897	18.135338
713.432	-1.488363	0.041944	-147.026311	5.334	0.016	59.461897	18.135337
713.444	-1.485820	0.039448	-147.042198	5.342	0.016	59.461896	18.135337
713.456	-1.483276	0.036952	-147.058098	5.349	0.015	59.461896	18.135336
713.468	-1.480732	0.034457	-147.073985	5.357	0.015	59.461895	18.135335
713.480	-1.478186	0.031963	-147.089886	5.365	0.014	59.461895	18.135335
713.492	-1.475640	0.029470	-147.105773	5.372	0.014	59.461894	18.135334
713.504	-1.473094	0.026977	-147.121660	5.380	0.014	59.461894	18.135333
713.516	-1.470547	0.024485	-147.137561	5.387	0.013	59.461893	18.135333
713.528	-1.467999	0.021994	-147.153461	5.395	0.013	59.461893	18.135332
713.540	-1.465450	0.019503	-147.169348	5.402	0.012	59.461892	18.135332
713.552	-1.462900	0.017013	-147.185235	5.410	0.012	59.461892	18.135331
713.564	-1.460351	0.014524	-147.201136	5.417	0.012	59.461891	18.135330
713.576	-1.457799	0.012036	-147.217023	5.425	0.011	59.461891	18.135330
713.588	-1.455248	0.009548	-147.232937	5.432	0.011	59.461890	18.135329
713.600	-1.452696	0.007061	-147.248811	5.440	0.011	59.461890	18.135329
713.612	-1.450143	0.004574	-147.264711	5.448	0.010	59.461889	18.135328
713.624	-1.447589	0.002089	-147.280599	5.455	0.010	59.461889	18.135327
713.636	-1.445036	-0.000396	-147.296499	5.463	0.010	59.461888	18.135327
713.648	-1.442481	-0.002880	-147.312400	5.470	0.009	59.461888	18.135326
713.660	-1.439925	-0.005364	-147.328287	5.478	0.009	59.461887	18.135325
713.672	-1.437369	-0.007847	-147.344188	5.485	0.008	59.461887	18.135325
713.684	-1.434812	-0.010329	-147.360088	5.493	0.008	59.461886	18.135324
713.696	-1.432254	-0.012810	-147.375975	5.500	0.008	59.461886	18.135324
713.708	-1.428219	0.017226	-147.394567	5.511	0.006	59.461885	18.135323
713.720	-1.422559	0.062545	-147.414183	5.519	0.005	59.461885	18.135322
713.732	-1.413352	0.108028	-147.433854	5.531	0.005	59.461884	18.135322
713.744	-1.402210	0.155389	-147.453716	5.539	0.004	59.461884	18.135321
713.756	-1.391058	0.194450	-147.471844	5.548	0.006	59.461883	18.135320
713.768	-1.379619	0.233706	-147.488974	5.557	0.006	59.461883	18.135320
713.780	-1.368315	0.272626	-147.507347	5.564	0.006	59.461882	18.135319
713.792	-1.373973	0.300830	-147.528275	5.569	0.005	59.461882	18.135319
713.804	-1.379642	0.329032	-147.549230	5.573	0.005	59.461881	18.135318
713.816	-1.385322	0.357232	-147.570171	5.578	0.004	59.461881	18.135317
713.828	-1.391011	0.385429	-147.591113	5.583	0.004	59.461880	18.135317
713.840	-1.396711	0.413625	-147.612068	5.588	0.003	59.461880	18.135316
713.852	-1.402421	0.441818	-147.633009	5.592	0.003	59.461879	18.135315
713.864	-1.408142	0.470010	-147.653964	5.597	0.002	59.461879	18.135315
713.876	-1.413873	0.498199	-147.674933	5.602	0.002	59.461878	18.135314
713.888	-1.419614	0.526386	-147.695888	5.607	0.001	59.461878	18.135313
713.900	-1.425366	0.554571	-147.716856	5.611	0.001	59.461877	18.135313
713.912	-1.431128	0.582754	-147.737825	5.616	0.000	59.461877	18.135312
713.924	-1.436900	0.610935	-147.758780	5.621	-0.000	59.461876	18.135312
713.936	-1.442683	0.639114	-147.779762	5.626	-0.001	59.461876	18.135311
713.948	-1.448475	0.667290	-147.800731	5.630	-0.001	59.461875	18.135310
713.960	-1.454279	0.695465	-147.821713	5.635	-0.002	59.461875	18.135310
713.972	-1.460093	0.723637	-147.842696	5.640	-0.002	59.461874	18.135309
713.984	-1.466403	0.754155	-147.865427	5.645	-0.003	59.461874	18.135308
713.996	-1.489180	0.762745	-147.888868	5.647	0.001	59.461873	18.135308
714.008	-1.518277	0.770438	-147.919467	5.650	0.003	59.461873	18.135307
714.020	-1.548413	0.773108	-147.948987	5.652	0.002	59.461872	18.135306
714.032	-1.579772	0.771815	-147.979969	5.654	0.002	59.461872	18.135306
714.044	-1.608152	0.763285	-148.012002	5.657	0.002	59.461871	18.135305
714.056	-1.631445	0.750664	-148.046181	5.660	0.002	59.461871	18.135305
714.068	-1.616821	0.744460	-148.089662	5.664	0.003	59.461870	18.135304
714.080	-1.602192	0.738267	-148.133143	5.667	0.004	59.461869	18.135303
714.092	-1.587559	0.732085	-148.176624	5.671	0.005	59.461869	18.135303
714.104	-1.572921	0.725914	-148.220118	5.674	0.006	59.461868	18.135302
714.116	-1.558279	0.719754	-148.263599	5.677	0.007	59.461868	18.135301
714.128	-1.543632	0.713606	-148.307080	5.681	0.008	59.461867	18.135301
714.140	-1.528980	0.707468	-148.350575	5.684	0.009	59.461867	18.135300
714.152	-1.514323	0.701342	-148.394070	5.688	0.010	59.461866	18.135300
714.164	-1.499662	0.695226	-148.437564	5.691	0.011	59.461866	18.135299
714.176	-1.484997	0.689122	-148.481045	5.695	0.012	59.461865	18.135298
714.188	-1.470326	0.683029	-148.524540	5.698	0.013	59.461865	18.135298
714.200	-1.455651	0.676947	-148.568035	5.702	0.014	59.461864	18.135297
714.212	-1.440972	0.670876	-148.611529	5.705	0.015	59.461864	18.135296
714.224	-1.426288	0.664817	-148.655037	5.709	0.016	59.461863	18.135296
714.236	-1.411599	0.658768	-148.698532	5.712	0.017	59.461863	18.135295
714.248	-1.396906	0.652731	-148.742040	5.716	0.018	59.461862	18.135295
714.260	-1.382208	0.646705	-148.785549	5.719	0.019	59.461862	18.135294
714.272	-1.367506	0.640690	-148.829043	5.722	0.020	59.461861	18.135293
714.284	-1.352799	0.634686	-148.872552	5.726	0.021	59.461861	18.135293
714.296	-1.338088	0.628693	-148.916060	5.729	0.023	59.461860	18.135292
714.308	-1.323371	0.622712	-148.959568	5.733	0.024	59.461860	18.135291
714.320	-1.308651	0.616742	-149.003077	5.736	0.025	59.461859	18.135291
714.332	-1.293926	0.610782	-149.046585	5.740	0.026	59.461858	18.135290
714.344	-1.279197	0.604834	-149.090107	5.743	0.027	59.461858	18.135290
714.356	-1.264462	0.598898	-149.133615	5.747	0.028	59.461857	18.135289
714.368	-1.249724	0.592972	-149.177137	5.750	0.029	59.461857	18.135288
714.380	-1.234981	0.587058	-149.220659	5.754	0.030	59.461856	18.135288
714.392	-1.212667	0.599890	-149.274467	5.759	0.031	59.461856	18.135287
714.404	-1.183929	0.627481	-149.342387	5.764	0.026	59.461855	18.135286
714.416	-1.165956	0.650710	-149.401823	5.772	0.027	59.461855	18.135286
714.428	-1.148008	0.673115	-149.468158	5.775	0.024	59.461854	18.135285
714.440	-1.130643	0.694260	-149.535654	5.778	0.021	59.461854	18.135285
714.452	-1.109962	0.712557	-149.606824	5.781	0.021	59.461853	18.135284
714.464	-1.086452	0.729963	-149.682120	5.786	0.016	59.461853	18.135283
714.476	-1.068292	0.742746	-149.749316	5.789	0.016	59.461852	18.135283
714.488	-1.069956	0.743562	-149.841305	5.790	0.016	59.461852	18.135282
714.500	-1.071620	0.744375	-149.933307	5.792	0.016	59.461851	18.135281
714.512	-1.073286	0.745185	-150.025296	5.793	0.017	59.461851	18.135281
714.524	-1.074954	0.745993	-150.117299	5.795	0.017	59.461850	18.135280
714.536	-1.076622	0.746797	-150.209302	5.796	0.017	59.461849	18.135280
714.548	-1.078292	0.747600	-150.301304	5.798	0.018	59.461849	18.135279
714.560	-1.079963	0.748399	-150.393293	5.800	0.018	59.461848	18.135278
714.572	-1.081636	0.749196	-150.485296	5.801	0.018	59.461848	18.135278
714.584	-1.083310	0.749990	-150.577285	5.803	0.019	59.461847	18.135277
714.596	-1.084985	0.750782	-150.669288	5.805	0.019	59.461847	18.135277
714.608	-1.086661	0.751571	-150.761290	5.806	0.019	59.461846	18.135276
714.620	-1.088338	0.752357	-150.853293	5.808	0.020	59.461846	18.135275
714.632	-1.090017	0.753140	-150.945296	5.810	0.020	59.461845	18.135275
714.644	-1.091697	0.753921	-151.037298	5.811	0.020	59.461845	18.135274
714.656	-1.093379	0.754699	-151.129287	5.813	0.021	59.461844	18.135273
714.668	-1.095061	0.755474	-151.221290	5.815	0.021	59.461843	18.135273
714.680	-1.096745	0.756247	-151.313279	5.816	0.021	59.461843	18.135272
714.692	-1.098430	0.757017	-151.405281	5.818	0.022	59.461842	18.135272
714.704	-1.100116	0.757784	-151.497284	5.820	0.022	59.461842	18.135271
714.716	-1.101804	0.758549	-151.589287	5.822	0.022	59.461841	18.135270
714.728	-1.103493	0.759311	-151.681276	5.823	0.023	59.461841	18.135270
714.740	-1.105183	0.760070	-151.773278	5.825	0.023	59.461840	18.135269
714.752	-1.106874	0.760826	-151.865281	5.827	0.024	59.461840	18.135269
714.764	-1.108566	0.761580	-151.957284	5.829	0.024	59.461839	18.135268
714.776	-1.121598	0.773816	-152.059900	5.830	0.022	59.461839	18.135267
714.788	-1.148695	0.801876	-152.176423	5.831	0.023	59.461838	18.135267
714.800	-1.172551	0.829660	-152.293165	5.834	0.023	59.461837	18.135266
714.812	-1.194477	0.860872	-152.414811	5.839	0.026	59.461837	18.135266
714.824	-1.211395	0.893332	-152.547631	5.839	0.023	59.461836	18.135265
714.836	-1.221104	0.919861	-152.660165	5.844	0.028	59.461836	18.135265
714.848	-1.225516	0.949085	-152.784706	5.845	0.028	59.461835	18.135264
714.860	-1.214982	0.969770	-152.917690	5.849	0.031	59.461835	18.135263
714.872	-1.202475	0.989552	-153.052108	5.852	0.033	59.461834	18.135263
714.884	-1.190016	1.009365	-153.186526	5.856	0.036	59.461834	18.135262
714.896	-1.177602	1.029206	-153.320945	5.859	0.039	59.461833	18.135262
714.908	-1.165235	1.049076	-153.455335	5.863	0.041	59.461832	18.135261
714.920	-1.152915	1.068976	-153.589754	5.867	0.044	59.461832	18.135261
714.932	-1.140642	1.088904	-153.724158	5.870	0.047	59.461831	18.135260
714.944	-1.128414	1.108861	-153.858549	5.874	0.050	59.461831	18.135259
714.956	-1.116234	1.128846	-153.992940	5.877	0.052	59.461830	18.135259
714.968	-1.104101	1.148860	-154.127330	5.881	0.055	59.461830	18.135258
714.980	-1.092015	1.168903	-154.261721	5.885	0.058	59.461829	18.135258
714.992	-1.071277	1.181016	-154.401043	5.887	0.061	59.461829	18.135257
715.004	-1.037122	1.185409	-154.557427	5.891	0.061	59.461828	18.135257
715.016	-1.005376	1.187263	-154.691231	5.893	0.064	59.461827	18.135256
715.028	-0.965588	1.179422	-154.845388	5.894	0.064	59.461827	18.135256
715.040	-0.921996	1.167005	-155.002660	5.895	0.065	59.461826	18.135255
715.052	-0.878371	1.154708	-155.159946	5.896	0.066	59.461826	18.135254
715.064	-0.834713	1.142530	-155.317231	5.897	0.067	59.461825	18.135254
715.076	-0.791021	1.130472	-155.474531	5.899	0.068	59.461825	18.135253
715.088	-0.747296	1.118535	-155.631830	5.900	0.069	59.461824	18.135253
715.100	-0.703539	1.106717	-155.789143	5.901	0.070	59.461823	18.135252
715.112	-0.659750	1.095019	-155.946469	5.903	0.071	59.461823	18.135252
715.124	-0.612276	1.082483	-156.116910	5.904	0.072	59.461822	18.135251
715.136	-0.576710	1.055823	-156.270138	5.903	0.071	59.461822	18.135251
715.148	-0.537049	1.020700	-156.439882	5.902	0.069	59.461821	18.135250
715.160	-0.531872	0.970016	-156.630540	5.902	0.069	59.461821	18.135250
715.172	-0.534082	0.917614	-156.825228	5.903	0.070	59.461820	18.135249
715.184	-0.536114	0.865205	-157.019902	5.903	0.070	59.461819	18.135249
715.196	-0.537968	0.812788	-157.214590	5.904	0.071	59.461819	18.135248
715.208	-0.539643	0.760366	-157.409264	5.904	0.071	59.461818	18.135248
715.220	-0.541141	0.707938	-157.603924	5.905	0.072	59.461818	18.135247
715.232	-0.542460	0.655506	-157.798598	5.906	0.072	59.461817	18.135247
715.244	-0.543601	0.603069	-157.993258	5.907	0.073	59.461816	18.135246
715.256	-0.544564	0.550629	-158.187932	5.907	0.073	59.461816	18.135246
715.268	-0.545349	0.498186	-158.382579	5.908	0.074	59.461815	18.135246
715.280	-0.545955	0.445741	-158.577240	5.909	0.074	59.461815	18.135245
715.292	-0.546383	0.393294	-158.771900	5.910	0.075	59.461814	18.135245
715.304	-0.546633	0.340845	-158.966547	5.911	0.075	59.461813	18.135244
715.316	-0.546705	0.288396	-159.161207	5.912	0.076	59.461813	18.135244
715.328	-0.546599	0.235947	-159.355854	5.913	0.076	59.461812	18.135243
715.340	-0.546315	0.183499	-159.550501	5.914	0.077	59.461812	18.135243
715.352	-0.545852	0.131052	-159.745161	5.915	0.078	59.461811	18.135242
715.364	-0.545211	0.078607	-159.939808	5.917	0.078	59.461810	18.135242
715.376	-0.544392	0.026164	-160.134454	5.918	0.079	59.461810	18.135241
715.388	-0.543395	-0.026275	-160.329101	5.919	0.079	59.461809	18.135241
715.400	-0.542220	-0.078711	-160.523762	5.921	0.080	59.461809	18.135240
715.412	-0.540866	-0.131142	-160.718408	5.922	0.081	59.461808	18.135240
715.424	-0.539335	-0.183569	-160.913069	5.924	0.081	59.461808	18.135239
715.436	-0.537625	-0.235990	-161.107729	5.925	0.082	59.461807	18.135239
715.448	-0.535737	-0.288405	-161.302389	5.927	0.082	59.461806	18.135238
715.460	-0.533672	-0.340813	-161.497050	5.928	0.083	59.461806	18.135238
715.472	-0.531428	-0.393214	-161.691724	5.930	0.084	59.461805	18.135237
715.484	-0.534651	-0.417251	-161.913896	5.932	0.084	59.461805	18.135237
715.496	-0.547642	-0.387613	-162.118583	5.944	0.091	59.461804	18.135237
715.508	-0.559153	-0.353846	-162.342286	5.950	0.094	59.461803	18.135236
715.520	-0.568583	-0.319456	-162.566944	5.957	0.096	59.461803	18.135236
715.532	-0.568098	-0.283544	-162.793051	5.968	0.100	59.461802	18.135235
715.544	-0.560151	-0.245295	-163.037900	5.970	0.102	59.461801	18.135235
715.556	-0.542958	-0.215779	-163.243570	5.981	0.111	59.461801	18.135235
715.568	-0.518250	-0.184409	-163.467355	5.988	0.115	59.461800	18.135234
715.580	-0.488111	-0.154323	-163.690743	5.994	0.118	59.461800	18.135234
715.592	-0.457261	-0.119439	-163.912860	5.997	0.118	59.461799	18.135233
715.604	-0.426546	-0.084436	-164.134965	6.000	0.117	59.461798	18.135233
715.616	-0.395968	-0.049314	-164.357041	6.004	0.117	59.461798	18.135233
715.628	-0.365525	-0.014074	-164.579104	6.007	0.116	59.461797	18.135232
715.640	-0.335220	0.021284	-164.801140	6.011	0.116	59.461797	18.135232
715.652	-0.305052	0.056760	-165.023162	6.015	0.116	59.461796	18.135232
715.664	-0.275021	0.092352	-165.245171	6.019	0.115	59.461795	18.135231
715.676	-0.245128	0.128059	-165.467152	6.022	0.115	59.461795	18.135231
715.688	-0.215374	0.163883	-165.689119	6.026	0.115	59.461794	18.135231
715.700	-0.185759	0.199821	-165.911060	6.031	0.115	59.461793	18.135230
715.712	-0.156284	0.235874	-166.133000	6.035	0.115	59.461793	18.135230
715.724	-0.126948	0.272041	-166.354913	6.039	0.114	59.461792	18.135230
715.736	-0.097752	0.308321	-166.576798	6.043	0.114	59.461792	18.135230
715.748	-0.068697	0.344714	-166.798684	6.048	0.114	59.461791	18.135229
715.760	-0.039783	0.381219	-167.020542	6.052	0.114	59.461790	18.135229
715.772	-0.011011	0.417836	-167.242386	6.057	0.114	59.461790	18.135229
715.784	0.017620	0.454564	-167.464204	6.062	0.114	59.461789	18.135228
715.796	0.046109	0.491403	-167.686007	6.066	0.115	59.461788	18.135228
715.808	0.074454	0.528351	-167.907797	6.071	0.115	59.461788	18.135228
715.820	0.102657	0.565409	-168.129573	6.076	0.115	59.461787	18.135227
715.832	0.130716	0.602576	-168.351336	6.081	0.115	59.461787	18.135227
715.844	0.125387	0.654872	-168.590912	6.083	0.112	59.461786	18.135227
715.856	0.110947	0.697532	-168.795093	6.086	0.111	59.461785	18.135226
715.868	0.092515	0.738153	-169.015025	6.086	0.108	59.461785	18.135226
715.880	0.071269	0.772272	-169.235299	6.086	0.105	59.461784	18.135226
715.892	0.050636	0.797843	-169.455286	6.087	0.104	59.461783	18.135225
715.904	0.026569	0.819319	-169.692362	6.087	0.101	59.461783	18.135225
715.916	0.009094	0.824780	-169.893579	6.087	0.102	59.461782	18.135225
715.928	-0.006452	0.823368	-170.113060	6.087	0.104	59.461781	18.135225
715.940	-0.021993	0.821897	-170.332542	6.087	0.105	59.461781	18.135224
715.952	-0.037528	0.820365	-170.552023	6.087	0.107	59.461780	18.135224
715.964	-0.053057	0.818775	-170.771491	6.087	0.108	59.461779	18.135224
715.976	-0.068580	0.817125	-170.990972	6.088	0.109	59.461779	18.135224
715.988	-0.082185	0.814342	-171.210822	6.085	0.111	59.461778	18.135223
716.000	-0.090939	0.807135	-171.430126	6.086	0.112	59.461778	18.135223
716.012	-0.084787	0.813860	-171.649798	6.089	0.114	59.461777	18.135223
716.024	-0.073906	0.829471	-171.870045	6.092	0.116	59.461776	18.135223
