Time Stamp	Roll	Pitch	Yaw	X Velocity	Y Velocity	Latitude	Longitude
(s)	(°)	(°)	(°)	(m.s^-1)	(m.s^-1)	(°)	(°)
218.980	-1.804919	0.120232	-146.234528	0.002	0.002	59.462023	18.135511
218.991	-1.804818	0.119463	-146.234774	0.002	0.002	59.462023	18.135511
219.002	-1.804973	0.120289	-146.234719	0.001	0.002	59.462023	18.135511
219.013	-1.805993	0.120385	-146.234336	0.002	0.002	59.462023	18.135511
219.024	-1.805247	0.119400	-146.235033	0.001	0.002	59.462023	18.135511
219.035	-1.804764	0.120808	-146.235429	0.001	0.002	59.462023	18.135511
219.046	-1.805574	0.120128	-146.234910	0.001	0.002	59.462023	18.135511
219.057	-1.805612	0.120101	-146.234938	0.001	0.002	59.462023	18.135511
219.068	-1.805650	0.120073	-146.234951	0.001	0.002	59.462023	18.135511
219.079	-1.805687	0.120046	-146.234979	0.001	0.002	59.462023	18.135511
219.090	-1.805725	0.120018	-146.235006	0.001	0.002	59.462023	18.135511
219.101	-1.805763	0.119991	-146.235033	0.001	0.002	59.462023	18.135511
219.112	-1.805801	0.119963	-146.235060	0.001	0.002	59.462023	18.135511
219.123	-1.805839	0.119935	-146.235088	0.001	0.002	59.462023	18.135511
219.134	-1.805877	0.119908	-146.235101	0.001	0.002	59.462023	18.135511
219.145	-1.805915	0.119880	-146.235129	0.001	0.002	59.462023	18.135511
219.156	-1.805952	0.119853	-146.235156	0.001	0.002	59.462023	18.135511
219.167	-1.805990	0.119825	-146.235183	0.001	0.002	59.462023	18.135511
219.178	-1.806028	0.119798	-146.235211	0.001	0.002	59.462023	18.135511
219.189	-1.806066	0.119770	-146.235224	0.001	0.002	59.462023	18.135511
219.200	-1.806103	0.119743	-146.235252	0.001	0.002	59.462023	18.135511
219.211	-1.806141	0.119715	-146.235265	0.001	0.002	59.462023	18.135511
219.222	-1.806179	0.119687	-146.235293	0.001	0.002	59.462023	18.135511
219.233	-1.806217	0.119660	-146.235320	0.001	0.002	59.462023	18.135511
219.244	-1.806255	0.119632	-146.235347	0.001	0.002	59.462023	18.135511
219.255	-1.806292	0.119605	-146.235361	0.001	0.002	59.462023	18.135511
219.266	-1.806331	0.119577	-146.235402	0.002	0.002	59.462023	18.135511
219.277	-1.806368	0.119550	-146.235416	0.002	0.002	59.462023	18.135511
219.288	-1.806406	0.119522	-146.235443	0.002	0.002	59.462023	18.135511
219.299	-1.806444	0.119494	-146.235470	0.002	0.002	59.462023	18.135511
219.310	-1.806482	0.119467	-146.235498	0.002	0.002	59.462023	18.135511
219.321	-1.806520	0.119439	-146.235525	0.002	0.002	59.462023	18.135511
219.332	-1.806557	0.119412	-146.235539	0.002	0.002	59.462023	18.135511
219.343	-1.806595	0.119384	-146.235566	0.002	0.002	59.462023	18.135511
219.354	-1.806633	0.119357	-146.235593	0.002	0.002	59.462023	18.135511
219.365	-1.806671	0.119329	-146.235621	0.002	0.002	59.462023	18.135511
219.376	-1.806768	0.119324	-146.235607	0.002	0.002	59.462023	18.135511
219.387	-1.806805	0.118633	-146.235306	0.002	0.002	59.462023	18.135511
219.398	-1.805919	0.118820	-146.235265	0.001	0.002	59.462023	18.135511
219.409	-1.806689	0.119187	-146.234992	0.002	0.002	59.462023	18.135511
219.420	-1.806642	0.118184	-146.236099	0.002	0.003	59.462023	18.135511
219.431	-1.805649	0.119022	-146.236577	0.001	0.002	59.462023	18.135511
219.442	-1.806335	0.119192	-146.235989	0.003	0.002	59.462023	18.135511
219.453	-1.806117	0.118267	-146.235948	0.002	0.002	59.462023	18.135511
219.464	-1.805863	0.120480	-146.236181	0.001	0.002	59.462023	18.135511
219.475	-1.805936	0.120430	-146.236208	0.001	0.002	59.462023	18.135511
219.486	-1.806018	0.120375	-146.236222	0.001	0.002	59.462023	18.135511
219.497	-1.806099	0.120320	-146.236249	0.001	0.002	59.462023	18.135511
219.508	-1.806181	0.120265	-146.236276	0.001	0.002	59.462023	18.135511
219.519	-1.806262	0.120210	-146.236290	0.001	0.002	59.462023	18.135511
219.530	-1.806343	0.120155	-146.236317	0.001	0.002	59.462023	18.135511
219.541	-1.806424	0.120100	-146.236345	0.001	0.002	59.462023	18.135511
219.552	-1.806505	0.120045	-146.236358	0.001	0.002	59.462023	18.135511
219.563	-1.806587	0.119990	-146.236386	0.001	0.002	59.462023	18.135511
219.574	-1.806668	0.119935	-146.236399	0.001	0.002	59.462023	18.135511
219.585	-1.806749	0.119880	-146.236427	0.001	0.002	59.462023	18.135511
219.596	-1.806830	0.119825	-146.236454	0.001	0.002	59.462023	18.135511
219.607	-1.806912	0.119770	-146.236467	0.001	0.002	59.462023	18.135511
219.618	-1.806994	0.119715	-146.236495	0.001	0.002	59.462023	18.135511
219.629	-1.807074	0.119660	-146.236522	0.001	0.002	59.462023	18.135511
219.640	-1.807156	0.119605	-146.236536	0.001	0.002	59.462023	18.135511
219.651	-1.807237	0.119550	-146.236563	0.001	0.002	59.462023	18.135511
219.662	-1.807318	0.119495	-146.236577	0.001	0.002	59.462023	18.135511
219.673	-1.807400	0.119440	-146.236604	0.001	0.002	59.462023	18.135511
219.684	-1.807481	0.119385	-146.236631	0.001	0.002	59.462023	18.135511
219.695	-1.807563	0.119330	-146.236645	0.001	0.002	59.462023	18.135511
219.706	-1.807644	0.119275	-146.236672	0.001	0.002	59.462023	18.135511
219.717	-1.807725	0.119220	-146.236700	0.001	0.002	59.462023	18.135511
219.728	-1.807806	0.119165	-146.236713	0.001	0.002	59.462023	18.135511
219.739	-1.807888	0.119110	-146.236741	0.001	0.002	59.462023	18.135511
219.750	-1.807969	0.119055	-146.236754	0.001	0.002	59.462023	18.135511
219.761	-1.808057	0.119017	-146.236809	0.001	0.002	59.462023	18.135511
219.772	-1.807996	0.120228	-146.237000	0.001	0.001	59.462023	18.135511
219.783	-1.808704	0.119078	-146.236413	0.002	0.001	59.462023	18.135511
219.794	-1.808072	0.118223	-146.236590	0.001	0.001	59.462023	18.135511
219.805	-1.808206	0.119811	-146.236768	0.001	0.001	59.462023	18.135511
219.816	-1.808699	0.118473	-146.235743	0.002	0.002	59.462023	18.135510
219.827	-1.807574	0.118324	-146.236153	0.001	0.002	59.462023	18.135510
219.838	-1.807810	0.119562	-146.236222	0.001	0.002	59.462023	18.135510
219.849	-1.808564	0.119282	-146.236153	0.001	0.002	59.462023	18.135510
219.860	-1.808431	0.119221	-146.236058	0.001	0.001	59.462023	18.135510
219.871	-1.808297	0.119160	-146.235962	0.001	0.001	59.462023	18.135510
219.882	-1.808163	0.119100	-146.235866	0.001	0.001	59.462023	18.135510
219.893	-1.808030	0.119039	-146.235784	0.001	0.001	59.462023	18.135510
219.904	-1.807896	0.118979	-146.235689	0.001	0.001	59.462023	18.135510
219.915	-1.807763	0.118918	-146.235607	0.001	0.001	59.462023	18.135510
219.926	-1.807629	0.118858	-146.235511	0.000	0.001	59.462023	18.135510
219.937	-1.807495	0.118797	-146.235416	0.000	0.001	59.462023	18.135510
219.948	-1.807362	0.118737	-146.235334	0.000	0.001	59.462023	18.135510
219.959	-1.807228	0.118676	-146.235238	0.000	0.001	59.462023	18.135510
219.970	-1.807094	0.118615	-146.235142	0.000	0.001	59.462023	18.135510
219.981	-1.806961	0.118555	-146.235060	0.000	0.001	59.462023	18.135510
219.992	-1.807325	0.118511	-146.234801	0.001	0.001	59.462023	18.135510
220.003	-1.807456	0.117562	-146.234377	0.001	0.001	59.462023	18.135510
220.014	-1.806880	0.118019	-146.234364	-0.000	0.001	59.462023	18.135510
220.025	-1.806915	0.119008	-146.234241	-0.000	0.001	59.462023	18.135510
220.036	-1.807031	0.119040	-146.234432	0.000	0.001	59.462023	18.135510
220.047	-1.807146	0.119072	-146.234637	0.000	0.001	59.462023	18.135510
220.058	-1.807261	0.119103	-146.234842	0.000	0.001	59.462023	18.135510
220.069	-1.807377	0.119135	-146.235047	0.000	0.001	59.462023	18.135510
220.080	-1.807492	0.119166	-146.235252	0.001	0.001	59.462023	18.135510
220.091	-1.807607	0.119198	-146.235457	0.001	0.001	59.462023	18.135510
220.102	-1.807722	0.119230	-146.235662	0.001	0.001	59.462023	18.135510
220.113	-1.807838	0.119261	-146.235853	0.001	0.001	59.462023	18.135510
220.124	-1.808839	0.118093	-146.235511	0.001	0.002	59.462023	18.135510
220.135	-1.807075	0.118535	-146.235552	0.000	0.002	59.462023	18.135510
220.146	-1.807100	0.118468	-146.235675	0.000	0.002	59.462023	18.135510
220.157	-1.807125	0.118402	-146.235784	0.000	0.002	59.462023	18.135510
220.168	-1.807150	0.118336	-146.235907	0.000	0.002	59.462023	18.135510
220.179	-1.807175	0.118270	-146.236030	0.001	0.002	59.462023	18.135510
220.190	-1.807200	0.118204	-146.236140	0.001	0.002	59.462023	18.135510
220.201	-1.807226	0.118138	-146.236249	0.001	0.002	59.462023	18.135510
220.212	-1.807251	0.118072	-146.236372	0.001	0.002	59.462023	18.135510
220.223	-1.807276	0.118006	-146.236495	0.001	0.002	59.462023	18.135510
220.234	-1.807301	0.117940	-146.236604	0.001	0.002	59.462023	18.135510
220.245	-1.807325	0.117873	-146.236713	0.001	0.002	59.462023	18.135510
220.256	-1.807351	0.117807	-146.236836	0.001	0.002	59.462023	18.135510
220.267	-1.807376	0.117741	-146.236946	0.001	0.002	59.462023	18.135510
220.278	-1.807401	0.117675	-146.237069	0.001	0.002	59.462023	18.135510
220.289	-1.807426	0.117609	-146.237178	0.001	0.002	59.462023	18.135510
220.300	-1.807451	0.117543	-146.237301	0.002	0.002	59.462023	18.135510
220.311	-1.807476	0.117477	-146.237410	0.002	0.002	59.462023	18.135510
220.322	-1.807502	0.117411	-146.237533	0.002	0.002	59.462023	18.135510
220.333	-1.807527	0.117345	-146.237642	0.002	0.002	59.462023	18.135510
220.344	-1.807552	0.117278	-146.237765	0.002	0.002	59.462023	18.135510
220.355	-1.807577	0.117212	-146.237875	0.002	0.002	59.462023	18.135510
220.366	-1.807602	0.117146	-146.237997	0.002	0.002	59.462023	18.135510
220.377	-1.807627	0.117080	-146.238107	0.002	0.002	59.462023	18.135510
220.388	-1.807653	0.117014	-146.238230	0.002	0.002	59.462023	18.135510
220.399	-1.807678	0.116948	-146.238339	0.002	0.002	59.462023	18.135510
220.410	-1.807703	0.116882	-146.238462	0.002	0.002	59.462023	18.135510
220.421	-1.807728	0.116816	-146.238571	0.002	0.002	59.462023	18.135510
220.432	-1.807753	0.116750	-146.238694	0.003	0.002	59.462023	18.135510
220.443	-1.807778	0.116684	-146.238803	0.003	0.002	59.462023	18.135510
220.454	-1.807803	0.116617	-146.238926	0.003	0.002	59.462023	18.135510
220.465	-1.807829	0.116551	-146.239036	0.003	0.002	59.462023	18.135510
220.476	-1.807749	0.118789	-146.238926	0.003	0.001	59.462023	18.135510
220.487	-1.806192	0.119871	-146.237806	0.007	0.001	59.462023	18.135510
220.498	-1.805920	0.119479	-146.237096	0.011	0.001	59.462023	18.135510
220.509	-1.803159	0.123022	-146.236727	0.015	0.001	59.462023	18.135510
220.520	-1.806798	0.124654	-146.236864	0.020	0.002	59.462023	18.135510
220.531	-1.807198	0.126939	-146.237014	0.024	0.002	59.462023	18.135510
220.542	-1.806561	0.130404	-146.236345	0.031	0.002	59.462023	18.135510
220.553	-1.807680	0.133931	-146.234965	0.038	0.002	59.462023	18.135510
220.564	-1.806240	0.138247	-146.234377	0.045	0.002	59.462023	18.135510
220.575	-1.805889	0.141176	-146.234377	0.053	0.002	59.462023	18.135510
220.586	-1.805503	0.144399	-146.234377	0.061	0.002	59.462023	18.135510
220.597	-1.805117	0.147621	-146.234391	0.069	0.002	59.462023	18.135510
220.608	-1.804730	0.150844	-146.234391	0.077	0.002	59.462023	18.135510
220.619	-1.804344	0.154066	-146.234391	0.085	0.002	59.462023	18.135510
220.630	-1.803958	0.157289	-146.234391	0.093	0.002	59.462023	18.135510
220.641	-1.803572	0.160511	-146.234391	0.101	0.002	59.462023	18.135510
220.652	-1.803186	0.163734	-146.234391	0.109	0.002	59.462023	18.135510
220.663	-1.802799	0.166956	-146.234391	0.117	0.002	59.462023	18.135510
220.674	-1.802413	0.170179	-146.234405	0.125	0.002	59.462023	18.135510
220.685	-1.802027	0.173401	-146.234391	0.133	0.002	59.462023	18.135510
220.696	-1.801641	0.176624	-146.234405	0.141	0.002	59.462023	18.135510
220.707	-1.801255	0.179846	-146.234405	0.149	0.003	59.462023	18.135510
220.718	-1.800869	0.183069	-146.234418	0.157	0.003	59.462023	18.135510
220.729	-1.800482	0.186291	-146.234405	0.165	0.003	59.462023	18.135510
220.740	-1.800096	0.189514	-146.234418	0.173	0.003	59.462023	18.135510
220.751	-1.799710	0.192736	-146.234418	0.181	0.003	59.462023	18.135510
220.762	-1.799324	0.195959	-146.234418	0.189	0.003	59.462023	18.135510
220.773	-1.798938	0.199181	-146.234418	0.197	0.003	59.462023	18.135510
220.784	-1.798551	0.202404	-146.234418	0.205	0.003	59.462023	18.135510
220.795	-1.798165	0.205626	-146.234418	0.213	0.003	59.462023	18.135510
220.806	-1.797779	0.208849	-146.234432	0.221	0.003	59.462023	18.135510
220.817	-1.797393	0.212071	-146.234432	0.229	0.003	59.462023	18.135510
220.828	-1.797227	0.214576	-146.234528	0.237	0.003	59.462023	18.135510
220.839	-1.795397	0.214649	-146.234924	0.246	0.003	59.462023	18.135510
220.850	-1.794244	0.217101	-146.235293	0.254	0.002	59.462023	18.135510
220.861	-1.794000	0.217117	-146.234582	0.264	0.003	59.462023	18.135510
220.872	-1.791899	0.218100	-146.234897	0.272	0.003	59.462023	18.135510
220.883	-1.790615	0.219741	-146.234869	0.281	0.003	59.462023	18.135510
220.894	-1.789923	0.220503	-146.234733	0.291	0.003	59.462023	18.135510
220.905	-1.787391	0.222423	-146.234692	0.299	0.003	59.462023	18.135510
220.916	-1.786052	0.223922	-146.235047	0.307	0.003	59.462023	18.135510
220.927	-1.784713	0.225421	-146.235388	0.316	0.003	59.462023	18.135510
220.938	-1.783375	0.226921	-146.235743	0.324	0.003	59.462023	18.135510
220.949	-1.782036	0.228420	-146.236099	0.333	0.003	59.462023	18.135510
220.960	-1.780698	0.229919	-146.236454	0.341	0.003	59.462023	18.135510
220.971	-1.779359	0.231418	-146.236795	0.350	0.003	59.462023	18.135510
220.982	-1.778020	0.232918	-146.237151	0.358	0.003	59.462023	18.135509
220.993	-1.775466	0.234528	-146.237396	0.366	0.003	59.462023	18.135509
221.004	-1.772498	0.238232	-146.237656	0.375	0.003	59.462023	18.135509
221.015	-1.770330	0.240729	-146.237574	0.384	0.003	59.462023	18.135509
221.026	-1.767945	0.243477	-146.237492	0.393	0.003	59.462023	18.135509
221.037	-1.765560	0.246224	-146.237396	0.401	0.003	59.462023	18.135509
221.048	-1.763175	0.248971	-146.237314	0.410	0.003	59.462023	18.135509
221.059	-1.760790	0.251719	-146.237219	0.419	0.004	59.462023	18.135509
221.070	-1.758406	0.254466	-146.237137	0.428	0.004	59.462023	18.135509
221.081	-1.756020	0.257213	-146.237041	0.437	0.004	59.462023	18.135509
221.092	-1.753636	0.259961	-146.236959	0.446	0.004	59.462023	18.135509
221.103	-1.751250	0.262708	-146.236864	0.455	0.004	59.462022	18.135509
221.114	-1.748865	0.265455	-146.236782	0.464	0.004	59.462022	18.135509
221.125	-1.746480	0.268203	-146.236686	0.473	0.004	59.462022	18.135509
221.136	-1.744096	0.270950	-146.236604	0.482	0.004	59.462022	18.135509
221.147	-1.741711	0.273697	-146.236522	0.491	0.004	59.462022	18.135509
221.158	-1.739326	0.276445	-146.236427	0.500	0.004	59.462022	18.135509
221.169	-1.736941	0.279192	-146.236331	0.509	0.005	59.462022	18.135509
221.180	-1.734556	0.281939	-146.236249	0.518	0.005	59.462022	18.135509
221.191	-1.732118	0.285787	-146.236386	0.526	0.004	59.462022	18.135508
221.202	-1.730155	0.288694	-146.235634	0.535	0.004	59.462022	18.135508
221.213	-1.727086	0.292013	-146.235716	0.544	0.005	59.462022	18.135508
221.224	-1.725384	0.295668	-146.235689	0.553	0.005	59.462022	18.135508
221.235	-1.725395	0.298309	-146.235429	0.562	0.005	59.462022	18.135508
221.246	-1.725407	0.300950	-146.235170	0.571	0.005	59.462022	18.135508
221.257	-1.725418	0.303591	-146.234910	0.580	0.005	59.462022	18.135508
221.268	-1.725430	0.306231	-146.234651	0.588	0.005	59.462022	18.135508
221.279	-1.725441	0.308872	-146.234391	0.597	0.005	59.462022	18.135508
221.290	-1.725452	0.311513	-146.234132	0.606	0.005	59.462022	18.135508
221.301	-1.725463	0.314154	-146.233858	0.615	0.005	59.462022	18.135508
221.312	-1.725475	0.316794	-146.233612	0.624	0.005	59.462022	18.135508
221.323	-1.725486	0.319435	-146.233353	0.633	0.005	59.462022	18.135508
221.334	-1.725497	0.322076	-146.233080	0.642	0.005	59.462021	18.135507
221.345	-1.725509	0.324717	-146.232834	0.651	0.005	59.462021	18.135507
221.356	-1.725520	0.327357	-146.232574	0.660	0.005	59.462021	18.135507
221.367	-1.725531	0.329998	-146.232301	0.669	0.005	59.462021	18.135507
221.378	-1.725543	0.332639	-146.232055	0.678	0.005	59.462021	18.135507
221.389	-1.725554	0.335280	-146.231782	0.687	0.005	59.462021	18.135507
221.400	-1.725565	0.337920	-146.231536	0.696	0.005	59.462021	18.135507
221.411	-1.725576	0.340561	-146.231277	0.705	0.005	59.462021	18.135507
221.422	-1.725587	0.343202	-146.231003	0.714	0.005	59.462021	18.135507
221.433	-1.725599	0.345843	-146.230757	0.723	0.005	59.462021	18.135507
221.444	-1.725610	0.348484	-146.230484	0.732	0.005	59.462021	18.135507
221.455	-1.725621	0.351124	-146.230225	0.741	0.005	59.462021	18.135507
221.466	-1.725632	0.353765	-146.229965	0.750	0.005	59.462021	18.135507
221.477	-1.725644	0.356406	-146.229719	0.759	0.005	59.462021	18.135506
221.488	-1.725655	0.359046	-146.229460	0.768	0.005	59.462021	18.135506
221.499	-1.725666	0.361687	-146.229200	0.777	0.005	59.462021	18.135506
221.510	-1.725676	0.364328	-146.228941	0.786	0.005	59.462021	18.135506
221.521	-1.725688	0.366969	-146.228667	0.795	0.005	59.462021	18.135506
221.532	-1.725699	0.369610	-146.228422	0.804	0.005	59.462021	18.135506
221.543	-1.727347	0.372583	-146.227547	0.814	0.005	59.462020	18.135506
221.554	-1.730307	0.377219	-146.226263	0.827	0.005	59.462020	18.135506
221.565	-1.732724	0.379438	-146.224105	0.837	0.005	59.462020	18.135506
221.576	-1.735735	0.383746	-146.222698	0.849	0.005	59.462020	18.135506
221.587	-1.739931	0.387276	-146.220116	0.862	0.005	59.462020	18.135506
221.598	-1.741902	0.391592	-146.218040	0.873	0.005	59.462020	18.135506
221.609	-1.745927	0.397109	-146.215895	0.889	0.005	59.462020	18.135505
221.620	-1.747422	0.400825	-146.215458	0.902	0.005	59.462020	18.135505
221.631	-1.747992	0.404741	-146.213846	0.917	0.005	59.462020	18.135505
221.642	-1.748563	0.408657	-146.212248	0.931	0.005	59.462020	18.135505
221.653	-1.749133	0.412573	-146.210649	0.946	0.005	59.462020	18.135505
221.664	-1.749703	0.416490	-146.209037	0.961	0.005	59.462020	18.135505
221.675	-1.750273	0.420406	-146.207439	0.975	0.005	59.462020	18.135505
221.686	-1.750844	0.424322	-146.205827	0.990	0.005	59.462019	18.135505
221.697	-1.751413	0.428239	-146.204215	1.005	0.005	59.462019	18.135504
221.708	-1.751983	0.432155	-146.202617	1.019	0.005	59.462019	18.135504
221.719	-1.752552	0.436071	-146.201005	1.034	0.005	59.462019	18.135504
221.730	-1.753123	0.439987	-146.199407	1.049	0.005	59.462019	18.135504
221.741	-1.753692	0.443904	-146.197795	1.063	0.005	59.462019	18.135504
221.752	-1.754262	0.447820	-146.196197	1.078	0.005	59.462019	18.135504
221.763	-1.754830	0.451737	-146.194585	1.093	0.005	59.462019	18.135504
221.774	-1.755400	0.455653	-146.192987	1.107	0.005	59.462019	18.135504
221.785	-1.755969	0.459569	-146.191375	1.122	0.005	59.462019	18.135503
221.796	-1.756537	0.463486	-146.189763	1.136	0.005	59.462019	18.135503
221.807	-1.757106	0.467402	-146.188164	1.151	0.006	59.462018	18.135503
221.818	-1.757675	0.471319	-146.186566	1.166	0.006	59.462018	18.135503
221.829	-1.758244	0.475235	-146.184954	1.180	0.006	59.462018	18.135503
221.840	-1.758812	0.479152	-146.183342	1.195	0.006	59.462018	18.135503
221.851	-1.759381	0.483068	-146.181744	1.210	0.006	59.462018	18.135503
221.862	-1.759949	0.486985	-146.180146	1.224	0.006	59.462018	18.135503
221.873	-1.760517	0.490901	-146.178534	1.239	0.006	59.462018	18.135503
221.884	-1.761085	0.494818	-146.176936	1.254	0.006	59.462018	18.135502
221.895	-1.762172	0.495736	-146.174531	1.268	0.006	59.462018	18.135502
221.906	-1.762932	0.494738	-146.171540	1.281	0.005	59.462018	18.135502
221.917	-1.763758	0.493957	-146.169135	1.294	0.004	59.462018	18.135502
221.928	-1.766085	0.492329	-146.165898	1.307	0.004	59.462017	18.135502
221.939	-1.766343	0.491642	-146.162893	1.323	0.004	59.462017	18.135502
221.950	-1.768126	0.490515	-146.159778	1.336	0.004	59.462017	18.135502
221.961	-1.769439	0.491314	-146.156868	1.350	0.004	59.462017	18.135501
221.972	-1.773466	0.491977	-146.153317	1.364	0.004	59.462017	18.135501
221.983	-1.775316	0.495108	-146.150858	1.378	0.004	59.462017	18.135501
221.994	-1.777168	0.498239	-146.148399	1.393	0.004	59.462017	18.135501
222.005	-1.779018	0.501370	-146.145954	1.407	0.005	59.462017	18.135501
222.016	-1.780868	0.504501	-146.143495	1.421	0.005	59.462016	18.135501
222.027	-1.782719	0.507633	-146.141036	1.435	0.005	59.462016	18.135500
222.038	-1.784569	0.510764	-146.138591	1.450	0.005	59.462016	18.135500
222.049	-1.786420	0.513895	-146.136146	1.464	0.005	59.462016	18.135500
222.060	-1.788269	0.517027	-146.133687	1.478	0.006	59.462016	18.135500
222.071	-1.790120	0.520158	-146.131242	1.492	0.006	59.462016	18.135500
222.082	-1.791969	0.523290	-146.128783	1.507	0.006	59.462016	18.135500
222.093	-1.793819	0.526422	-146.126324	1.521	0.006	59.462016	18.135499
222.104	-1.795668	0.529554	-146.123879	1.535	0.006	59.462015	18.135499
222.115	-1.797518	0.532686	-146.121420	1.549	0.006	59.462015	18.135499
222.126	-1.799367	0.535818	-146.118975	1.564	0.007	59.462015	18.135499
222.137	-1.801216	0.538950	-146.116529	1.578	0.007	59.462015	18.135499
222.148	-1.803065	0.542082	-146.114070	1.592	0.007	59.462015	18.135498
222.159	-1.804914	0.545214	-146.111612	1.606	0.007	59.462015	18.135498
222.170	-1.806763	0.548347	-146.109166	1.621	0.007	59.462015	18.135498
222.181	-1.808611	0.551479	-146.106708	1.635	0.007	59.462015	18.135498
222.192	-1.810460	0.554611	-146.104262	1.649	0.008	59.462014	18.135498
222.203	-1.812308	0.557744	-146.101817	1.664	0.008	59.462014	18.135498
222.214	-1.814157	0.560877	-146.099358	1.678	0.008	59.462014	18.135497
222.225	-1.816005	0.564009	-146.096913	1.692	0.008	59.462014	18.135497
222.236	-1.817852	0.567142	-146.094454	1.706	0.008	59.462014	18.135497
222.247	-1.820053	0.569605	-146.091968	1.720	0.008	59.462014	18.135497
222.258	-1.823208	0.567860	-146.089017	1.733	0.007	59.462014	18.135497
222.269	-1.828415	0.567047	-146.086217	1.748	0.007	59.462014	18.135497
222.280	-1.829950	0.566091	-146.082351	1.761	0.007	59.462013	18.135496
222.291	-1.831836	0.566098	-146.078403	1.775	0.006	59.462013	18.135496
222.302	-1.833343	0.565056	-146.074155	1.788	0.005	59.462013	18.135496
222.313	-1.833235	0.565109	-146.070630	1.802	0.005	59.462013	18.135496
222.324	-1.833764	0.564072	-146.066355	1.816	0.005	59.462013	18.135496
222.335	-1.832141	0.563139	-146.062885	1.830	0.005	59.462013	18.135495
222.346	-1.830518	0.562206	-146.059415	1.844	0.005	59.462013	18.135495
222.357	-1.828896	0.561273	-146.055932	1.858	0.005	59.462012	18.135495
222.368	-1.827272	0.560339	-146.052462	1.873	0.005	59.462012	18.135495
222.379	-1.825649	0.559406	-146.048979	1.887	0.005	59.462012	18.135494
222.390	-1.824026	0.558472	-146.045509	1.901	0.005	59.462012	18.135494
222.401	-1.822404	0.557539	-146.042039	1.915	0.005	59.462012	18.135494
222.412	-1.820781	0.556605	-146.038556	1.929	0.006	59.462012	18.135494
222.423	-1.819159	0.555671	-146.035086	1.943	0.006	59.462011	18.135494
222.434	-1.817536	0.554737	-146.031616	1.957	0.006	59.462011	18.135493
222.445	-1.815914	0.553803	-146.028147	1.971	0.006	59.462011	18.135493
222.456	-1.814290	0.552869	-146.024663	1.985	0.006	59.462011	18.135493
222.467	-1.812668	0.551935	-146.021194	1.999	0.006	59.462011	18.135493
222.478	-1.811046	0.551001	-146.017724	2.014	0.006	59.462011	18.135492
222.489	-1.809424	0.550066	-146.014240	2.028	0.006	59.462010	18.135492
222.500	-1.807801	0.549132	-146.010771	2.042	0.006	59.462010	18.135492
222.511	-1.806179	0.548197	-146.007301	2.056	0.006	59.462010	18.135492
222.522	-1.804557	0.547263	-146.003818	2.070	0.006	59.462010	18.135492
222.533	-1.802935	0.546328	-146.000348	2.084	0.006	59.462010	18.135491
222.544	-1.801312	0.545393	-145.996864	2.098	0.006	59.462010	18.135491
222.555	-1.799691	0.544458	-145.993408	2.112	0.007	59.462009	18.135491
222.566	-1.798068	0.543523	-145.989925	2.126	0.007	59.462009	18.135491
222.577	-1.796447	0.542588	-145.986442	2.140	0.007	59.462009	18.135490
222.588	-1.794825	0.541652	-145.982986	2.155	0.007	59.462009	18.135490
222.599	-1.793055	0.540632	-145.979188	2.170	0.007	59.462009	18.135490
222.610	-1.798125	0.542332	-145.975896	2.184	0.006	59.462009	18.135490
222.621	-1.804193	0.544322	-145.969694	2.201	0.006	59.462008	18.135489
222.632	-1.813265	0.548329	-145.966374	2.216	0.005	59.462008	18.135489
222.643	-1.823031	0.553017	-145.963041	2.230	0.003	59.462008	18.135489
222.654	-1.838216	0.558920	-145.959940	2.244	0.002	59.462008	18.135489
222.665	-1.849799	0.565198	-145.956962	2.258	0.001	59.462008	18.135488
222.676	-1.862971	0.571476	-145.953643	2.273	-0.001	59.462008	18.135488
222.687	-1.872477	0.575949	-145.950406	2.288	-0.001	59.462007	18.135488
222.698	-1.877978	0.577439	-145.946553	2.302	0.000	59.462007	18.135488
222.709	-1.883480	0.578928	-145.942701	2.316	0.001	59.462007	18.135487
222.720	-1.888982	0.580418	-145.938849	2.330	0.002	59.462007	18.135487
222.731	-1.894483	0.581909	-145.934997	2.344	0.003	59.462007	18.135487
222.742	-1.899984	0.583399	-145.931144	2.358	0.004	59.462006	18.135487
222.753	-1.905486	0.584890	-145.927306	2.372	0.005	59.462006	18.135486
222.764	-1.910987	0.586382	-145.923454	2.386	0.006	59.462006	18.135486
222.775	-1.916488	0.587874	-145.919601	2.400	0.006	59.462006	18.135486
222.786	-1.921988	0.589366	-145.915749	2.415	0.007	59.462006	18.135486
222.797	-1.927489	0.590859	-145.911897	2.429	0.008	59.462005	18.135485
222.808	-1.932990	0.592352	-145.908045	2.443	0.009	59.462005	18.135485
222.819	-1.938491	0.593845	-145.904192	2.457	0.010	59.462005	18.135485
222.830	-1.943991	0.595339	-145.900340	2.471	0.011	59.462005	18.135484
222.841	-1.949491	0.596833	-145.896502	2.485	0.012	59.462005	18.135484
222.852	-1.954992	0.598327	-145.892649	2.499	0.013	59.462004	18.135484
222.863	-1.960492	0.599822	-145.888797	2.513	0.013	59.462004	18.135484
222.874	-1.965992	0.601317	-145.884959	2.527	0.014	59.462004	18.135483
222.885	-1.971492	0.602813	-145.881106	2.542	0.015	59.462004	18.135483
222.896	-1.976991	0.604309	-145.877241	2.556	0.016	59.462004	18.135483
222.907	-1.982492	0.605805	-145.873402	2.570	0.017	59.462003	18.135483
222.918	-1.987991	0.607302	-145.869563	2.584	0.018	59.462003	18.135482
222.929	-1.993491	0.608799	-145.865711	2.598	0.019	59.462003	18.135482
222.940	-1.998990	0.610296	-145.861859	2.612	0.020	59.462003	18.135482
222.951	-2.004489	0.611794	-145.858007	2.626	0.020	59.462003	18.135481
222.962	-1.999248	0.596568	-145.853922	2.639	0.021	59.462002	18.135481
222.973	-1.986404	0.572408	-145.849715	2.650	0.022	59.462002	18.135481
222.984	-1.971717	0.544945	-145.844483	2.664	0.022	59.462002	18.135481
222.995	-1.961633	0.521882	-145.839811	2.674	0.021	59.462002	18.135480
223.006	-1.949804	0.497107	-145.834675	2.687	0.020	59.462001	18.135480
223.017	-1.940180	0.471936	-145.830017	2.698	0.017	59.462001	18.135480
223.028	-1.930541	0.449449	-145.826260	2.709	0.016	59.462001	18.135479
223.039	-1.920527	0.434552	-145.822421	2.722	0.015	59.462001	18.135479
223.050	-1.912113	0.433647	-145.819239	2.735	0.014	59.462001	18.135479
223.061	-1.903698	0.432742	-145.816056	2.748	0.014	59.462000	18.135478
223.072	-1.895284	0.431837	-145.812886	2.762	0.014	59.462000	18.135478
223.083	-1.886869	0.430931	-145.809704	2.775	0.013	59.462000	18.135478
223.094	-1.878454	0.430025	-145.806521	2.788	0.013	59.462000	18.135477
223.105	-1.870040	0.429118	-145.803338	2.801	0.012	59.461999	18.135477
223.116	-1.861626	0.428210	-145.800169	2.815	0.012	59.461999	18.135477
223.127	-1.853212	0.427303	-145.796986	2.828	0.012	59.461999	18.135476
223.138	-1.844798	0.426394	-145.793803	2.841	0.011	59.461999	18.135476
223.149	-1.836383	0.425486	-145.790634	2.854	0.011	59.461998	18.135476
223.160	-1.827969	0.424576	-145.787465	2.868	0.010	59.461998	18.135476
223.171	-1.819555	0.423667	-145.784268	2.881	0.010	59.461998	18.135475
223.182	-1.811141	0.422757	-145.781099	2.894	0.010	59.461998	18.135475
223.193	-1.802727	0.421846	-145.777916	2.907	0.009	59.461998	18.135475
223.204	-1.794313	0.420935	-145.774733	2.921	0.009	59.461997	18.135474
223.215	-1.785899	0.420023	-145.771564	2.934	0.008	59.461997	18.135474
223.226	-1.777485	0.419111	-145.768395	2.947	0.008	59.461997	18.135474
223.237	-1.769071	0.418199	-145.765212	2.960	0.008	59.461997	18.135473
223.248	-1.760657	0.417286	-145.762029	2.974	0.007	59.461996	18.135473
223.259	-1.752244	0.416373	-145.758860	2.987	0.007	59.461996	18.135473
223.270	-1.743830	0.415459	-145.755677	3.000	0.006	59.461996	18.135472
223.281	-1.735416	0.414544	-145.752508	3.013	0.006	59.461996	18.135472
223.292	-1.727003	0.413630	-145.749325	3.027	0.006	59.461995	18.135472
223.303	-1.718589	0.412714	-145.746142	3.040	0.005	59.461995	18.135471
223.314	-1.714681	0.416219	-145.741648	3.054	0.004	59.461995	18.135471
223.325	-1.723463	0.428281	-145.739161	3.064	0.004	59.461995	18.135471
223.336	-1.735600	0.441336	-145.735774	3.077	0.003	59.461994	18.135470
223.347	-1.746274	0.454804	-145.732154	3.089	0.002	59.461994	18.135470
223.358	-1.760832	0.468365	-145.728739	3.100	0.001	59.461994	18.135470
223.369	-1.776872	0.483220	-145.724927	3.113	-0.000	59.461994	18.135469
223.380	-1.789513	0.496307	-145.722072	3.124	-0.002	59.461993	18.135469
223.391	-1.800876	0.510629	-145.719846	3.135	-0.001	59.461993	18.135469
223.402	-1.807444	0.525412	-145.718398	3.147	-0.001	59.461993	18.135468
223.413	-1.814012	0.540195	-145.716963	3.158	0.000	59.461993	18.135468
223.424	-1.820580	0.554979	-145.715515	3.170	0.001	59.461992	18.135467
223.435	-1.827148	0.569762	-145.714081	3.181	0.001	59.461992	18.135467
223.446	-1.833714	0.584546	-145.712633	3.193	0.002	59.461992	18.135467
223.457	-1.840282	0.599330	-145.711199	3.204	0.003	59.461992	18.135466
223.468	-1.846848	0.614114	-145.709764	3.216	0.003	59.461991	18.135466
223.479	-1.853414	0.628898	-145.708330	3.227	0.004	59.461991	18.135466
223.490	-1.859979	0.643682	-145.706896	3.239	0.004	59.461991	18.135465
223.501	-1.866545	0.658466	-145.705475	3.251	0.005	59.461990	18.135465
223.512	-1.873110	0.673251	-145.704041	3.262	0.006	59.461990	18.135464
223.523	-1.879675	0.688036	-145.702620	3.274	0.006	59.461990	18.135464
223.534	-1.886239	0.702821	-145.701186	3.285	0.007	59.461990	18.135464
223.545	-1.892803	0.717606	-145.699765	3.297	0.008	59.461989	18.135463
223.556	-1.899367	0.732391	-145.698344	3.308	0.008	59.461989	18.135463
223.567	-1.905930	0.747176	-145.696924	3.320	0.009	59.461989	18.135463
223.578	-1.912493	0.761962	-145.695517	3.331	0.009	59.461989	18.135462
223.589	-1.919056	0.776748	-145.694096	3.343	0.010	59.461988	18.135462
223.600	-1.925618	0.791533	-145.692675	3.354	0.011	59.461988	18.135462
223.611	-1.932180	0.806320	-145.691268	3.366	0.011	59.461988	18.135461
223.622	-1.938742	0.821106	-145.689847	3.377	0.012	59.461988	18.135461
223.633	-1.945303	0.835892	-145.688440	3.389	0.013	59.461987	18.135460
223.644	-1.951863	0.850679	-145.687033	3.400	0.013	59.461987	18.135460
223.655	-1.958424	0.865465	-145.685640	3.412	0.014	59.461987	18.135460
223.666	-1.964985	0.880252	-145.684219	3.424	0.014	59.461987	18.135459
223.677	-1.968558	0.897120	-145.682703	3.434	0.015	59.461986	18.135459
223.688	-1.974813	0.913267	-145.681528	3.444	0.014	59.461986	18.135459
223.699	-1.983323	0.928359	-145.680313	3.455	0.013	59.461986	18.135458
223.710	-1.990322	0.941884	-145.680067	3.464	0.009	59.461985	18.135458
223.721	-1.999489	0.952277	-145.679643	3.475	0.008	59.461985	18.135457
223.732	-2.006603	0.962116	-145.679602	3.487	0.005	59.461985	18.135457
223.743	-2.010731	0.970720	-145.680367	3.496	0.003	59.461985	18.135457
223.754	-2.008183	0.975684	-145.681105	3.506	0.001	59.461984	18.135456
223.765	-1.996552	0.979672	-145.683591	3.516	0.002	59.461984	18.135456
223.776	-1.984921	0.983662	-145.686091	3.526	0.003	59.461984	18.135455
223.787	-1.973290	0.987652	-145.688563	3.536	0.003	59.461983	18.135455
223.798	-1.961660	0.991642	-145.691063	3.546	0.004	59.461983	18.135455
223.809	-1.950030	0.995633	-145.693549	3.556	0.004	59.461983	18.135454
223.820	-1.938399	0.999624	-145.696022	3.566	0.005	59.461983	18.135454
223.831	-1.926769	1.003616	-145.698508	3.576	0.006	59.461982	18.135453
223.842	-1.915139	1.007609	-145.700994	3.586	0.006	59.461982	18.135453
223.853	-1.903509	1.011602	-145.703481	3.596	0.007	59.461982	18.135453
223.864	-1.891879	1.015595	-145.705967	3.606	0.008	59.461981	18.135452
223.875	-1.880250	1.019589	-145.708453	3.616	0.008	59.461981	18.135452
223.886	-1.868620	1.023583	-145.710925	3.626	0.009	59.461981	18.135451
223.897	-1.856991	1.027578	-145.713398	3.635	0.009	59.461980	18.135451
223.908	-1.845362	1.031574	-145.715884	3.645	0.010	59.461980	18.135451
223.919	-1.833733	1.035570	-145.718370	3.655	0.011	59.461980	18.135450
223.930	-1.822105	1.039566	-145.720843	3.665	0.011	59.461980	18.135450
223.941	-1.810476	1.043563	-145.723315	3.675	0.012	59.461979	18.135449
223.952	-1.798847	1.047561	-145.725788	3.685	0.013	59.461979	18.135449
223.963	-1.787219	1.051559	-145.728260	3.695	0.013	59.461979	18.135449
223.974	-1.775591	1.055557	-145.730733	3.705	0.014	59.461978	18.135448
223.985	-1.763963	1.059556	-145.733192	3.715	0.015	59.461978	18.135448
223.996	-1.758442	1.057312	-145.735623	3.724	0.015	59.461978	18.135447
224.007	-1.754602	1.055770	-145.739913	3.733	0.013	59.461978	18.135447
224.018	-1.750438	1.051439	-145.743984	3.744	0.012	59.461977	18.135447
224.029	-1.744986	1.043608	-145.747726	3.755	0.010	59.461977	18.135446
224.040	-1.737487	1.035835	-145.750650	3.763	0.008	59.461977	18.135446
224.051	-1.735730	1.022543	-145.755158	3.772	0.008	59.461976	18.135445
224.062	-1.736031	1.006573	-145.760745	3.781	0.008	59.461976	18.135445
224.073	-1.736329	0.990603	-145.766318	3.790	0.009	59.461976	18.135444
224.084	-1.736628	0.974632	-145.771892	3.799	0.009	59.461975	18.135444
224.095	-1.736924	0.958662	-145.777465	3.808	0.009	59.461975	18.135444
224.106	-1.737219	0.942691	-145.783039	3.817	0.009	59.461975	18.135443
224.117	-1.737512	0.926721	-145.788612	3.826	0.009	59.461974	18.135443
224.128	-1.737804	0.910751	-145.794185	3.835	0.009	59.461974	18.135442
224.139	-1.738094	0.894780	-145.799759	3.844	0.010	59.461974	18.135442
224.150	-1.738383	0.878809	-145.805346	3.853	0.010	59.461973	18.135441
224.161	-1.738669	0.862839	-145.810919	3.862	0.010	59.461973	18.135441
224.172	-1.738955	0.846868	-145.816493	3.871	0.010	59.461973	18.135441
224.183	-1.739239	0.830898	-145.822066	3.880	0.010	59.461972	18.135440
224.194	-1.739521	0.814927	-145.827640	3.889	0.010	59.461972	18.135440
224.205	-1.739802	0.798956	-145.833199	3.898	0.011	59.461972	18.135439
224.216	-1.740081	0.782986	-145.838787	3.907	0.011	59.461972	18.135439
224.227	-1.740359	0.767015	-145.844360	3.916	0.011	59.461971	18.135438
224.238	-1.740635	0.751044	-145.849933	3.925	0.011	59.461971	18.135438
224.249	-1.740910	0.735073	-145.855507	3.933	0.011	59.461971	18.135437
224.260	-1.741182	0.719103	-145.861067	3.942	0.012	59.461970	18.135437
224.271	-1.741454	0.703132	-145.866654	3.951	0.012	59.461970	18.135437
224.282	-1.741724	0.687161	-145.872214	3.960	0.012	59.461970	18.135436
224.293	-1.741992	0.671190	-145.877801	3.969	0.012	59.461969	18.135436
224.304	-1.742259	0.655219	-145.883360	3.978	0.012	59.461969	18.135435
224.315	-1.742524	0.639248	-145.888947	3.987	0.013	59.461969	18.135435
224.326	-1.742788	0.623277	-145.894507	3.996	0.013	59.461968	18.135434
224.337	-1.743050	0.607306	-145.900081	4.005	0.013	59.461968	18.135434
224.348	-1.743310	0.591335	-145.905654	4.014	0.013	59.461968	18.135434
224.359	-1.743570	0.575364	-145.911228	4.023	0.013	59.461967	18.135433
224.370	-1.743827	0.559393	-145.916801	4.032	0.014	59.461967	18.135433
224.381	-1.743730	0.543166	-145.922033	4.041	0.014	59.461967	18.135432
224.392	-1.741388	0.526846	-145.925066	4.047	0.013	59.461966	18.135432
224.403	-1.738458	0.510248	-145.929300	4.052	0.013	59.461966	18.135431
224.414	-1.729600	0.491836	-145.933590	4.061	0.012	59.461966	18.135431
224.425	-1.723180	0.478854	-145.938098	4.068	0.014	59.461965	18.135430
224.436	-1.715152	0.463802	-145.942182	4.075	0.014	59.461965	18.135430
224.447	-1.704152	0.448625	-145.946116	4.082	0.015	59.461965	18.135430
224.458	-1.693375	0.434122	-145.950324	4.087	0.016	59.461964	18.135429
224.469	-1.683809	0.421418	-145.955146	4.092	0.016	59.461964	18.135429
224.480	-1.678856	0.397522	-145.957058	4.099	0.016	59.461964	18.135428
224.491	-1.673406	0.371236	-145.959162	4.106	0.016	59.461963	18.135428
224.502	-1.667956	0.344951	-145.961279	4.113	0.015	59.461963	18.135427
224.513	-1.662505	0.318666	-145.963383	4.120	0.015	59.461963	18.135427
224.524	-1.657053	0.292381	-145.965487	4.126	0.015	59.461962	18.135426
224.535	-1.651600	0.266096	-145.967604	4.133	0.014	59.461962	18.135426
224.546	-1.646146	0.239811	-145.969721	4.140	0.014	59.461962	18.135425
224.557	-1.640690	0.213527	-145.971839	4.147	0.014	59.461961	18.135425
224.568	-1.635235	0.187243	-145.973970	4.153	0.013	59.461961	18.135424
224.579	-1.629777	0.160959	-145.976087	4.160	0.013	59.461961	18.135424
224.590	-1.624320	0.134675	-145.978218	4.167	0.012	59.461960	18.135424
224.601	-1.618860	0.108391	-145.980335	4.174	0.012	59.461960	18.135423
224.612	-1.613400	0.082108	-145.982466	4.181	0.012	59.461960	18.135423
224.623	-1.607940	0.055825	-145.984611	4.187	0.011	59.461959	18.135422
224.634	-1.602478	0.029542	-145.986742	4.194	0.011	59.461959	18.135422
224.645	-1.597015	0.003259	-145.988887	4.201	0.011	59.461959	18.135421
224.656	-1.591551	-0.023024	-145.991018	4.208	0.010	59.461958	18.135421
224.667	-1.586087	-0.049306	-145.993176	4.214	0.010	59.461958	18.135420
224.678	-1.580620	-0.075588	-145.995321	4.221	0.010	59.461958	18.135420
224.689	-1.575154	-0.101870	-145.997466	4.228	0.009	59.461957	18.135419
224.700	-1.569686	-0.128152	-145.999610	4.235	0.009	59.461957	18.135419
224.711	-1.564217	-0.154434	-146.001769	4.242	0.009	59.461957	18.135418
224.722	-1.558748	-0.180715	-146.003927	4.248	0.008	59.461956	18.135418
224.733	-1.553277	-0.206996	-146.006085	4.255	0.008	59.461956	18.135418
224.744	-1.587325	-0.206512	-146.014254	4.273	0.008	59.461956	18.135417
224.755	-1.618350	-0.191360	-146.024499	4.295	0.007	59.461955	18.135417
224.766	-1.647252	-0.166653	-146.034512	4.320	0.006	59.461955	18.135416
224.777	-1.662947	-0.133318	-146.039198	4.336	0.004	59.461954	18.135416
224.788	-1.672258	-0.085345	-146.038474	4.346	0.002	59.461954	18.135415
224.799	-1.691874	-0.020122	-146.037791	4.357	-0.003	59.461954	18.135415
224.810	-1.702766	0.035559	-146.038119	4.367	-0.002	59.461953	18.135414
224.821	-1.716223	0.090445	-146.040304	4.378	-0.002	59.461953	18.135414
224.832	-1.729683	0.145331	-146.042504	4.389	-0.001	59.461953	18.135413
224.843	-1.743143	0.200216	-146.044703	4.400	-0.000	59.461952	18.135413
224.854	-1.756607	0.255100	-146.046943	4.410	0.001	59.461952	18.135412
224.865	-1.770073	0.309984	-146.049184	4.421	0.001	59.461952	18.135412
224.876	-1.783540	0.364868	-146.051424	4.432	0.002	59.461951	18.135411
224.887	-1.797010	0.419751	-146.053692	4.443	0.003	59.461951	18.135411
224.898	-1.810482	0.474634	-146.055959	4.453	0.003	59.461951	18.135410
224.909	-1.823957	0.529516	-146.058254	4.464	0.004	59.461950	18.135410
224.920	-1.837433	0.584397	-146.060549	4.474	0.005	59.461950	18.135409
224.931	-1.850912	0.639278	-146.062871	4.485	0.005	59.461949	18.135409
224.942	-1.864394	0.694159	-146.065194	4.496	0.006	59.461949	18.135408
224.953	-1.877878	0.749038	-146.067530	4.506	0.007	59.461949	18.135408
224.964	-1.891365	0.803918	-146.069879	4.517	0.007	59.461948	18.135407
224.975	-1.904853	0.858797	-146.072242	4.527	0.008	59.461948	18.135407
224.986	-1.917584	0.909218	-146.074660	4.536	0.009	59.461948	18.135406
224.997	-1.920079	0.911440	-146.077228	4.539	0.012	59.461947	18.135406
225.008	-1.915260	0.908534	-146.079237	4.541	0.016	59.461947	18.135405
225.019	-1.908950	0.901969	-146.080739	4.546	0.018	59.461946	18.135405
225.030	-1.897624	0.892907	-146.080821	4.546	0.019	59.461946	18.135404
225.041	-1.881977	0.877508	-146.082747	4.546	0.020	59.461946	18.135404
225.052	-1.866328	0.862110	-146.084701	4.547	0.021	59.461945	18.135403
225.063	-1.850680	0.846712	-146.086640	4.547	0.022	59.461945	18.135403
225.074	-1.835031	0.831314	-146.088594	4.548	0.023	59.461945	18.135402
225.085	-1.819381	0.815917	-146.090547	4.548	0.024	59.461944	18.135402
225.096	-1.800999	0.797839	-146.092473	4.552	0.025	59.461944	18.135401
225.107	-1.783038	0.785235	-146.095328	4.557	0.026	59.461944	18.135401
225.118	-1.769563	0.793309	-146.096831	4.562	0.025	59.461943	18.135400
225.129	-1.756089	0.801383	-146.098334	4.567	0.025	59.461943	18.135400
225.140	-1.742615	0.809458	-146.099836	4.572	0.024	59.461942	18.135399
225.151	-1.729141	0.817533	-146.101339	4.577	0.023	59.461942	18.135399
225.162	-1.715667	0.825608	-146.102828	4.581	0.022	59.461942	18.135398
225.173	-1.702194	0.833684	-146.104317	4.586	0.021	59.461941	18.135398
225.184	-1.688721	0.841760	-146.105806	4.591	0.021	59.461941	18.135397
225.195	-1.675247	0.849836	-146.107295	4.596	0.020	59.461941	18.135397
225.206	-1.661775	0.857913	-146.108784	4.600	0.019	59.461940	18.135396
225.217	-1.648302	0.865990	-146.110273	4.605	0.018	59.461940	18.135396
225.228	-1.634829	0.874067	-146.111748	4.610	0.017	59.461939	18.135395
225.239	-1.621357	0.882145	-146.113237	4.615	0.016	59.461939	18.135395
225.250	-1.607885	0.890223	-146.114726	4.619	0.016	59.461939	18.135394
225.261	-1.594413	0.898302	-146.116202	4.624	0.015	59.461938	18.135394
225.272	-1.580941	0.906381	-146.117663	4.629	0.014	59.461938	18.135393
225.283	-1.567470	0.914460	-146.119138	4.634	0.013	59.461937	18.135393
225.294	-1.553998	0.922539	-146.120614	4.639	0.012	59.461937	18.135392
225.305	-1.540527	0.930619	-146.122089	4.643	0.011	59.461937	18.135392
225.316	-1.527056	0.938699	-146.123551	4.648	0.011	59.461936	18.135391
225.327	-1.513585	0.946780	-146.125026	4.653	0.010	59.461936	18.135391
225.338	-1.500114	0.954861	-146.126488	4.658	0.009	59.461936	18.135390
225.349	-1.486644	0.962942	-146.127949	4.662	0.008	59.461935	18.135390
225.360	-1.473173	0.971024	-146.129411	4.667	0.007	59.461935	18.135389
225.371	-1.459703	0.979105	-146.130873	4.672	0.006	59.461934	18.135389
225.382	-1.446233	0.987188	-146.132334	4.677	0.006	59.461934	18.135388
225.393	-1.432763	0.995270	-146.133782	4.682	0.005	59.461934	18.135387
225.404	-1.419293	1.003353	-146.135230	4.686	0.004	59.461933	18.135387
225.415	-1.405823	1.011437	-146.136692	4.691	0.003	59.461933	18.135386
225.426	-1.392355	1.019520	-146.138140	4.696	0.002	59.461932	18.135386
225.437	-1.378885	1.027604	-146.139574	4.701	0.001	59.461932	18.135385
225.448	-1.370116	1.013450	-146.139834	4.702	0.002	59.461932	18.135385
225.459	-1.379223	0.926271	-146.138003	4.708	0.001	59.461931	18.135384
225.470	-1.381837	0.845360	-146.137539	4.708	0.006	59.461931	18.135384
225.481	-1.387510	0.752118	-146.140257	4.718	0.006	59.461931	18.135383
225.492	-1.396362	0.653405	-146.143632	4.709	0.010	59.461930	18.135383
225.503	-1.401815	0.552142	-146.144479	4.714	0.008	59.461930	18.135382
225.514	-1.402832	0.443987	-146.143782	4.703	0.013	59.461929	18.135382
225.525	-1.406541	0.356758	-146.144069	4.710	0.014	59.461929	18.135381
225.536	-1.415912	0.264142	-146.145353	4.701	0.014	59.461929	18.135381
225.547	-1.421703	0.225498	-146.146773	4.708	0.015	59.461928	18.135380
225.558	-1.427269	0.217321	-146.148413	4.715	0.015	59.461928	18.135380
225.569	-1.432835	0.209144	-146.150066	4.722	0.015	59.461927	18.135379
225.580	-1.438401	0.200966	-146.151705	4.729	0.015	59.461927	18.135379
225.591	-1.443966	0.192788	-146.153344	4.737	0.015	59.461927	18.135378
225.602	-1.449532	0.184610	-146.154997	4.744	0.016	59.461926	18.135378
225.613	-1.455097	0.176432	-146.156636	4.751	0.016	59.461926	18.135377
225.624	-1.460662	0.168254	-146.158275	4.759	0.016	59.461926	18.135377
225.635	-1.466226	0.160076	-146.159915	4.766	0.016	59.461925	18.135376
225.646	-1.471791	0.151898	-146.161568	4.773	0.016	59.461925	18.135376
225.657	-1.477355	0.143719	-146.163207	4.781	0.016	59.461924	18.135375
225.668	-1.482919	0.135540	-146.164832	4.788	0.017	59.461924	18.135375
225.679	-1.488483	0.127361	-146.166485	4.795	0.017	59.461924	18.135374
225.690	-1.494046	0.119182	-146.168125	4.803	0.017	59.461923	18.135374
225.701	-1.499609	0.111003	-146.169750	4.810	0.017	59.461923	18.135373
225.712	-1.505173	0.102823	-146.171389	4.818	0.017	59.461922	18.135372
225.723	-1.510735	0.094644	-146.173029	4.825	0.017	59.461922	18.135372
225.734	-1.516298	0.086464	-146.174654	4.832	0.018	59.461922	18.135371
225.745	-1.521860	0.078284	-146.176294	4.840	0.018	59.461921	18.135371
225.756	-1.527422	0.070104	-146.177933	4.847	0.018	59.461921	18.135370
225.767	-1.532984	0.061924	-146.179558	4.854	0.018	59.461920	18.135370
225.778	-1.538546	0.053743	-146.181184	4.862	0.018	59.461920	18.135369
225.789	-1.544107	0.045563	-146.182810	4.869	0.018	59.461920	18.135369
225.800	-1.549668	0.037382	-146.184449	4.877	0.018	59.461919	18.135368
225.811	-1.543183	0.080313	-146.187031	4.887	0.018	59.461919	18.135368
225.822	-1.531941	0.125165	-146.188834	4.888	0.019	59.461919	18.135367
225.833	-1.518355	0.167316	-146.192768	4.899	0.019	59.461918	18.135367
225.844	-1.499825	0.211811	-146.197412	4.907	0.021	59.461918	18.135366
225.855	-1.480085	0.247677	-146.199666	4.914	0.021	59.461917	18.135366
225.866	-1.458000	0.285702	-146.202207	4.920	0.022	59.461917	18.135365
225.877	-1.436346	0.313837	-146.204475	4.926	0.022	59.461917	18.135365
225.888	-1.416270	0.337932	-146.206647	4.931	0.022	59.461916	18.135364
225.899	-1.396194	0.362029	-146.208805	4.937	0.021	59.461916	18.135364
225.910	-1.376119	0.386125	-146.210950	4.942	0.021	59.461915	18.135363
225.921	-1.356044	0.410223	-146.213095	4.948	0.021	59.461915	18.135362
225.932	-1.335970	0.434321	-146.215226	4.953	0.020	59.461915	18.135362
225.943	-1.315898	0.458421	-146.217343	4.959	0.020	59.461914	18.135361
225.954	-1.295826	0.482520	-146.219460	4.964	0.020	59.461914	18.135361
225.965	-1.275755	0.506621	-146.221564	4.970	0.020	59.461913	18.135360
225.976	-1.255685	0.530722	-146.223654	4.975	0.019	59.461913	18.135360
225.987	-1.237410	0.552196	-146.225785	4.980	0.019	59.461912	18.135359
225.998	-1.225855	0.560211	-146.228121	4.986	0.017	59.461912	18.135359
226.009	-1.219548	0.565556	-146.231154	4.990	0.016	59.461912	18.135358
226.020	-1.218263	0.560723	-146.232970	4.996	0.016	59.461911	18.135358
226.031	-1.216849	0.555407	-146.234965	5.002	0.016	59.461911	18.135357
226.042	-1.215436	0.550090	-146.236973	5.008	0.015	59.461910	18.135357
226.053	-1.214022	0.544774	-146.238967	5.014	0.015	59.461910	18.135356
226.064	-1.212608	0.539458	-146.240975	5.020	0.014	59.461910	18.135355
226.075	-1.211193	0.534141	-146.242970	5.026	0.014	59.461909	18.135355
226.086	-1.209779	0.528825	-146.244978	5.032	0.013	59.461909	18.135354
226.097	-1.208364	0.523509	-146.246972	5.038	0.013	59.461908	18.135354
226.108	-1.206950	0.518193	-146.248980	5.044	0.012	59.461908	18.135353
226.119	-1.205534	0.512877	-146.250975	5.050	0.012	59.461908	18.135353
226.130	-1.204119	0.507561	-146.252969	5.056	0.011	59.461907	18.135352
226.141	-1.202703	0.502245	-146.254977	5.062	0.011	59.461907	18.135352
226.152	-1.201288	0.496929	-146.256985	5.068	0.010	59.461906	18.135351
226.163	-1.201953	0.490849	-146.258980	5.075	0.010	59.461906	18.135350
226.174	-1.208472	0.483670	-146.261179	5.083	0.009	59.461905	18.135350
226.185	-1.218273	0.477920	-146.263378	5.090	0.007	59.461905	18.135349
226.196	-1.226148	0.470421	-146.266971	5.097	0.008	59.461905	18.135349
226.207	-1.235844	0.444873	-146.270209	5.104	0.008	59.461904	18.135348
226.218	-1.245539	0.419324	-146.273446	5.110	0.009	59.461904	18.135348
226.229	-1.255233	0.393775	-146.276670	5.117	0.010	59.461903	18.135347
226.240	-1.264924	0.368225	-146.279894	5.124	0.010	59.461903	18.135347
226.251	-1.274614	0.342675	-146.283104	5.130	0.011	59.461903	18.135346
226.262	-1.284304	0.317124	-146.286328	5.137	0.012	59.461902	18.135345
226.273	-1.293991	0.291572	-146.289538	5.143	0.012	59.461902	18.135345
226.284	-1.303677	0.266020	-146.292735	5.150	0.013	59.461901	18.135344
226.295	-1.313362	0.240468	-146.295945	5.156	0.014	59.461901	18.135344
226.306	-1.323045	0.214915	-146.299141	5.163	0.015	59.461900	18.135343
226.317	-1.332726	0.189361	-146.302338	5.170	0.015	59.461900	18.135343
226.328	-1.342407	0.163807	-146.305521	5.176	0.016	59.461900	18.135342
226.339	-1.352085	0.138252	-146.308704	5.183	0.017	59.461899	18.135341
226.350	-1.361763	0.112697	-146.311886	5.189	0.017	59.461899	18.135341
226.361	-1.371439	0.087141	-146.315069	5.196	0.018	59.461898	18.135340
226.372	-1.381113	0.061585	-146.318239	5.202	0.019	59.461898	18.135340
226.383	-1.390787	0.036028	-146.321408	5.209	0.020	59.461897	18.135339
226.394	-1.400458	0.010471	-146.324563	5.215	0.020	59.461897	18.135339
226.405	-1.410128	-0.015087	-146.327732	5.222	0.021	59.461897	18.135338
226.416	-1.419797	-0.040646	-146.330874	5.228	0.022	59.461896	18.135337
226.427	-1.429464	-0.066205	-146.334016	5.235	0.022	59.461896	18.135337
226.438	-1.439131	-0.091764	-146.337172	5.241	0.023	59.461895	18.135336
226.449	-1.448795	-0.117324	-146.340314	5.248	0.024	59.461895	18.135336
226.460	-1.458459	-0.142885	-146.343456	5.254	0.025	59.461894	18.135335
226.471	-1.468121	-0.168446	-146.346584	5.261	0.025	59.461894	18.135335
226.482	-1.477781	-0.194008	-146.349712	5.267	0.026	59.461894	18.135334
226.493	-1.487440	-0.219570	-146.352827	5.274	0.027	59.461893	18.135333
226.504	-1.497098	-0.245132	-146.355955	5.280	0.028	59.461893	18.135333
226.515	-1.506754	-0.270696	-146.359069	5.286	0.028	59.461892	18.135332
226.526	-1.504723	-0.304924	-146.362785	5.294	0.030	59.461892	18.135332
226.537	-1.501970	-0.334372	-146.366774	5.299	0.031	59.461891	18.135331
226.548	-1.501495	-0.359881	-146.370271	5.305	0.031	59.461891	18.135331
226.559	-1.498633	-0.382363	-146.374164	5.311	0.031	59.461891	18.135330
226.570	-1.498599	-0.394953	-146.377210	5.317	0.032	59.461890	18.135329
226.581	-1.497908	-0.403114	-146.382579	5.324	0.032	59.461890	18.135329
226.592	-1.492695	-0.407653	-146.385926	5.332	0.032	59.461889	18.135328
226.603	-1.487987	-0.398494	-146.388330	5.339	0.032	59.461889	18.135328
226.614	-1.484997	-0.369078	-146.390256	5.347	0.031	59.461888	18.135327
226.625	-1.482008	-0.339662	-146.392182	5.355	0.030	59.461888	18.135327
226.636	-1.479020	-0.310246	-146.394108	5.363	0.029	59.461888	18.135326
226.647	-1.476033	-0.280830	-146.396034	5.371	0.028	59.461887	18.135325
226.658	-1.473047	-0.251414	-146.397960	5.378	0.027	59.461887	18.135325
226.669	-1.470062	-0.221998	-146.399887	5.386	0.025	59.461886	18.135324
226.680	-1.467078	-0.192581	-146.401799	5.394	0.024	59.461886	18.135324
226.691	-1.464095	-0.163165	-146.403739	5.402	0.023	59.461885	18.135323
226.702	-1.461113	-0.133748	-146.405651	5.410	0.022	59.461885	18.135322
226.713	-1.458132	-0.104332	-146.407564	5.418	0.021	59.461884	18.135322
226.724	-1.455151	-0.074915	-146.409476	5.425	0.020	59.461884	18.135321
226.735	-1.452173	-0.045498	-146.411389	5.433	0.019	59.461884	18.135321
226.746	-1.449194	-0.016081	-146.413301	5.441	0.018	59.461883	18.135320
226.757	-1.446217	0.013336	-146.415214	5.449	0.017	59.461883	18.135319
226.768	-1.443241	0.042753	-146.417126	5.457	0.016	59.461882	18.135319
226.779	-1.440266	0.072170	-146.419038	5.464	0.015	59.461882	18.135318
226.790	-1.437292	0.101588	-146.420951	5.472	0.014	59.461881	18.135318
226.801	-1.434319	0.131005	-146.422850	5.480	0.012	59.461881	18.135317
226.812	-1.431347	0.160423	-146.424748	5.487	0.011	59.461880	18.135317
226.823	-1.428375	0.189840	-146.426647	5.495	0.010	59.461880	18.135316
226.834	-1.425405	0.219258	-146.428546	5.503	0.009	59.461880	18.135315
226.845	-1.422436	0.248676	-146.430445	5.510	0.008	59.461879	18.135315
226.856	-1.419467	0.278094	-146.432344	5.518	0.007	59.461879	18.135314
226.867	-1.416499	0.307512	-146.434242	5.526	0.006	59.461878	18.135314
226.878	-1.419780	0.332611	-146.435854	5.531	0.004	59.461878	18.135313
226.889	-1.424449	0.357144	-146.437972	5.535	0.003	59.461877	18.135312
226.900	-1.431228	0.377477	-146.440198	5.540	0.003	59.461877	18.135312
226.911	-1.443888	0.400471	-146.444119	5.544	0.005	59.461876	18.135311
226.922	-1.453764	0.421908	-146.447548	5.550	0.004	59.461876	18.135311
226.933	-1.464078	0.442426	-146.451304	5.554	0.005	59.461875	18.135310
226.944	-1.474493	0.465338	-146.455402	5.559	0.004	59.461875	18.135309
226.955	-1.492003	0.482412	-146.459897	5.563	0.003	59.461875	18.135309
226.966	-1.511266	0.501191	-146.464842	5.568	0.002	59.461874	18.135308
226.977	-1.530531	0.519969	-146.469787	5.573	0.001	59.461874	18.135308
226.988	-1.552257	0.537663	-146.474773	5.579	0.000	59.461873	18.135307
226.999	-1.563669	0.529210	-146.486726	5.582	0.002	59.461873	18.135306
227.010	-1.571326	0.515586	-146.500208	5.585	0.003	59.461872	18.135306
227.021	-1.578981	0.501961	-146.513678	5.588	0.005	59.461872	18.135305
227.032	-1.586632	0.488334	-146.527160	5.591	0.007	59.461871	18.135305
227.043	-1.594280	0.474706	-146.540629	5.594	0.008	59.461871	18.135304
227.054	-1.601925	0.461075	-146.554099	5.597	0.010	59.461870	18.135303
227.065	-1.609567	0.447443	-146.567568	5.600	0.012	59.461870	18.135303
227.076	-1.617205	0.433809	-146.581037	5.602	0.013	59.461870	18.135302
227.087	-1.624840	0.420173	-146.594492	5.605	0.015	59.461869	18.135302
227.098	-1.632473	0.406535	-146.607961	5.608	0.017	59.461869	18.135301
227.109	-1.640102	0.392896	-146.621417	5.611	0.018	59.461868	18.135300
227.120	-1.647727	0.379255	-146.634886	5.614	0.020	59.461868	18.135300
227.131	-1.655350	0.365612	-146.648342	5.616	0.022	59.461867	18.135299
227.142	-1.662969	0.351967	-146.661797	5.619	0.023	59.461867	18.135298
227.153	-1.670585	0.338320	-146.675253	5.622	0.025	59.461866	18.135298
227.164	-1.678198	0.324672	-146.688708	5.625	0.027	59.461866	18.135297
227.175	-1.685807	0.311022	-146.702150	5.628	0.028	59.461865	18.135297
227.186	-1.693414	0.297370	-146.715605	5.630	0.030	59.461865	18.135296
227.197	-1.701017	0.283716	-146.729047	5.633	0.032	59.461865	18.135295
227.208	-1.708617	0.270060	-146.742489	5.636	0.033	59.461864	18.135295
227.219	-1.716214	0.256403	-146.755931	5.639	0.035	59.461864	18.135294
227.230	-1.711625	0.239691	-146.772596	5.639	0.035	59.461863	18.135294
227.241	-1.688134	0.220679	-146.795273	5.643	0.037	59.461863	18.135293
227.252	-1.664872	0.205949	-146.817949	5.643	0.035	59.461862	18.135292
227.263	-1.642164	0.195574	-146.841704	5.644	0.037	59.461862	18.135292
227.274	-1.616716	0.188408	-146.868561	5.645	0.034	59.461861	18.135291
227.285	-1.592017	0.186095	-146.890472	5.648	0.035	59.461861	18.135291
227.296	-1.578800	0.195512	-146.925620	5.649	0.033	59.461860	18.135290
227.307	-1.570584	0.211467	-146.967489	5.650	0.032	59.461860	18.135289
227.318	-1.562379	0.227428	-147.009344	5.651	0.031	59.461859	18.135289
227.329	-1.554186	0.243395	-147.051200	5.651	0.030	59.461859	18.135288
227.340	-1.546004	0.259368	-147.093055	5.652	0.029	59.461858	18.135288
227.351	-1.537834	0.275347	-147.134911	5.653	0.028	59.461858	18.135287
227.362	-1.529676	0.291332	-147.176766	5.654	0.027	59.461858	18.135286
227.373	-1.521529	0.307322	-147.218608	5.655	0.026	59.461857	18.135286
227.384	-1.513395	0.323319	-147.260463	5.656	0.025	59.461857	18.135285
227.395	-1.505272	0.339322	-147.302305	5.657	0.024	59.461856	18.135285
227.406	-1.497160	0.355331	-147.344147	5.658	0.023	59.461856	18.135284
227.417	-1.489061	0.371345	-147.385988	5.658	0.022	59.461855	18.135283
227.428	-1.480972	0.387366	-147.427830	5.659	0.021	59.461855	18.135283
227.439	-1.472896	0.403392	-147.469658	5.660	0.020	59.461854	18.135282
227.450	-1.464831	0.419424	-147.511486	5.661	0.019	59.461854	18.135282
227.461	-1.456778	0.435463	-147.553328	5.662	0.018	59.461853	18.135281
227.472	-1.448736	0.451507	-147.595156	5.663	0.017	59.461853	18.135280
227.483	-1.440707	0.467556	-147.636984	5.664	0.016	59.461852	18.135280
227.494	-1.432689	0.483612	-147.678812	5.665	0.015	59.461852	18.135279
227.505	-1.424683	0.499674	-147.720640	5.665	0.014	59.461851	18.135278
227.516	-1.416688	0.515741	-147.762455	5.666	0.013	59.461851	18.135278
227.527	-1.408705	0.531814	-147.804269	5.667	0.012	59.461850	18.135277
227.538	-1.400734	0.547894	-147.846084	5.668	0.011	59.461850	18.135277
227.549	-1.392775	0.563979	-147.887898	5.669	0.010	59.461850	18.135276
227.560	-1.384827	0.580069	-147.929712	5.670	0.009	59.461849	18.135275
227.571	-1.376891	0.596166	-147.971527	5.671	0.008	59.461849	18.135275
227.582	-1.373150	0.609283	-148.016087	5.672	0.006	59.461848	18.135274
227.593	-1.387023	0.605568	-148.072422	5.669	0.009	59.461848	18.135274
227.604	-1.402104	0.599270	-148.134973	5.669	0.005	59.461847	18.135273
227.615	-1.409514	0.592072	-148.187675	5.662	0.008	59.461847	18.135272
227.626	-1.418198	0.581879	-148.247180	5.659	0.007	59.461846	18.135272
227.637	-1.425601	0.570236	-148.308364	5.654	0.009	59.461846	18.135271
227.648	-1.430242	0.558114	-148.371284	5.652	0.012	59.461845	18.135271
227.659	-1.430516	0.554603	-148.443151	5.650	0.013	59.461845	18.135270
227.670	-1.427068	0.564891	-148.527231	5.647	0.014	59.461844	18.135270
227.681	-1.423634	0.575184	-148.611324	5.645	0.015	59.461844	18.135269
227.692	-1.420216	0.585481	-148.695404	5.643	0.015	59.461843	18.135268
227.703	-1.416813	0.595784	-148.779484	5.640	0.016	59.461843	18.135268
227.714	-1.413424	0.606092	-148.863563	5.638	0.016	59.461842	18.135267
227.725	-1.410051	0.616404	-148.947643	5.636	0.017	59.461842	18.135267
227.736	-1.406693	0.626722	-149.031736	5.633	0.017	59.461842	18.135266
227.747	-1.403351	0.637044	-149.115816	5.631	0.018	59.461841	18.135266
227.758	-1.400023	0.647372	-149.199895	5.629	0.018	59.461841	18.135265
227.769	-1.396711	0.657704	-149.283975	5.627	0.019	59.461840	18.135264
227.780	-1.393414	0.668041	-149.368055	5.624	0.020	59.461840	18.135264
227.791	-1.390131	0.678383	-149.452134	5.622	0.020	59.461839	18.135263
227.802	-1.386864	0.688730	-149.536200	5.620	0.021	59.461839	18.135263
227.813	-1.383612	0.699081	-149.620293	5.618	0.021	59.461838	18.135262
227.824	-1.380376	0.709438	-149.704359	5.615	0.021	59.461838	18.135262
227.835	-1.377154	0.719799	-149.788439	5.613	0.022	59.461837	18.135261
227.846	-1.373949	0.730165	-149.872519	5.611	0.022	59.461837	18.135261
227.857	-1.370757	0.740535	-149.956598	5.609	0.023	59.461836	18.135260
227.868	-1.367582	0.750910	-150.040678	5.607	0.023	59.461836	18.135259
227.879	-1.364421	0.761290	-150.124744	5.604	0.024	59.461835	18.135259
227.890	-1.361276	0.771674	-150.208824	5.602	0.024	59.461835	18.135258
227.901	-1.358146	0.782063	-150.292890	5.600	0.025	59.461834	18.135258
227.912	-1.355031	0.792457	-150.376969	5.598	0.025	59.461834	18.135257
227.923	-1.351931	0.802855	-150.461049	5.596	0.026	59.461833	18.135257
227.934	-1.348567	0.814203	-150.552765	5.594	0.026	59.461833	18.135256
227.945	-1.341032	0.828404	-150.646147	5.593	0.025	59.461833	18.135255
227.956	-1.326699	0.842477	-150.749474	5.592	0.030	59.461832	18.135255
227.967	-1.313237	0.855398	-150.854454	5.591	0.031	59.461832	18.135254
227.978	-1.296951	0.866560	-150.961838	5.588	0.033	59.461831	18.135254
227.989	-1.282123	0.876155	-151.079727	5.585	0.036	59.461831	18.135253
228.000	-1.270644	0.882989	-151.181142	5.584	0.036	59.461830	18.135253
228.011	-1.259634	0.887941	-151.294865	5.582	0.038	59.461830	18.135252
228.022	-1.236220	0.873825	-151.424433	5.578	0.038	59.461829	18.135252
228.033	-1.207980	0.849037	-151.562267	5.575	0.039	59.461829	18.135251
228.044	-1.179682	0.824316	-151.700113	5.572	0.040	59.461828	18.135251
228.055	-1.151324	0.799664	-151.837974	5.568	0.041	59.461828	18.135250
228.066	-1.122908	0.775081	-151.975834	5.565	0.042	59.461827	18.135250
228.077	-1.094432	0.750565	-152.113722	5.561	0.043	59.461827	18.135249
228.088	-1.065897	0.726119	-152.251610	5.558	0.043	59.461826	18.135249
228.099	-1.037304	0.701741	-152.389525	5.555	0.044	59.461826	18.135248
228.110	-1.008653	0.677432	-152.527441	5.552	0.045	59.461825	18.135248
228.121	-0.979943	0.653191	-152.665356	5.548	0.046	59.461825	18.135247
228.132	-0.951175	0.629020	-152.803298	5.545	0.047	59.461824	18.135247
228.143	-0.922349	0.604919	-152.941254	5.542	0.048	59.461824	18.135246
228.154	-0.893466	0.580887	-153.079211	5.539	0.048	59.461823	18.135246
228.165	-0.864524	0.556924	-153.217180	5.536	0.049	59.461823	18.135245
228.176	-0.835525	0.533032	-153.355164	5.532	0.050	59.461822	18.135245
228.187	-0.806469	0.509209	-153.493161	5.529	0.051	59.461822	18.135244
228.198	-0.777355	0.485456	-153.631172	5.526	0.051	59.461821	18.135244
228.209	-0.748185	0.461774	-153.769196	5.523	0.052	59.461821	18.135243
228.220	-0.718957	0.438161	-153.907221	5.520	0.053	59.461821	18.135243
228.231	-0.689673	0.414620	-154.045259	5.517	0.054	59.461820	18.135242
