Time Stamp	Roll	Pitch	Yaw	X Velocity	Y Velocity	Latitude	Longitude
(s)	(°)	(°)	(°)	(m.s^-1)	(m.s^-1)	(°)	(°)
501.980	-1.657459	0.334663	-145.967194	-0.007	-0.000	59.462022	18.135503
501.991	-1.658062	0.334880	-145.967221	-0.007	-0.001	59.462022	18.135503
502.002	-1.658302	0.335302	-145.967344	-0.006	-0.001	59.462022	18.135503
502.013	-1.657041	0.334932	-145.966894	-0.007	-0.000	59.462022	18.135503
502.024	-1.656629	0.334874	-145.967467	-0.008	-0.001	59.462022	18.135503
502.035	-1.656698	0.335019	-145.967317	-0.008	-0.001	59.462022	18.135503
502.046	-1.656768	0.335164	-145.967167	-0.008	-0.001	59.462022	18.135503
502.057	-1.656837	0.335309	-145.967003	-0.008	-0.001	59.462022	18.135503
502.068	-1.656906	0.335455	-145.966853	-0.008	-0.001	59.462022	18.135503
502.079	-1.656976	0.335600	-145.966702	-0.008	-0.001	59.462022	18.135503
502.090	-1.657046	0.335745	-145.966552	-0.007	-0.001	59.462022	18.135503
502.101	-1.657114	0.335890	-145.966388	-0.007	-0.000	59.462022	18.135503
502.112	-1.657185	0.336035	-145.966238	-0.007	-0.000	59.462022	18.135503
502.123	-1.658029	0.336148	-145.966415	-0.007	-0.000	59.462022	18.135503
502.134	-1.657292	0.335586	-145.965951	-0.007	0.000	59.462022	18.135503
502.145	-1.657419	0.335792	-145.966088	-0.007	0.000	59.462022	18.135503
502.156	-1.657412	0.335735	-145.966142	-0.007	0.000	59.462022	18.135503
502.167	-1.657407	0.335677	-145.966197	-0.007	0.000	59.462022	18.135503
502.178	-1.657401	0.335620	-145.966265	-0.007	0.000	59.462022	18.135503
502.189	-1.657395	0.335562	-145.966320	-0.007	0.000	59.462022	18.135503
502.200	-1.657389	0.335504	-145.966388	-0.007	0.000	59.462022	18.135503
502.211	-1.657383	0.335447	-145.966443	-0.007	0.000	59.462022	18.135503
502.222	-1.657378	0.335389	-145.966497	-0.007	0.000	59.462022	18.135503
502.233	-1.657371	0.335332	-145.966566	-0.007	0.000	59.462022	18.135503
502.244	-1.657366	0.335274	-145.966620	-0.007	0.000	59.462022	18.135503
502.255	-1.657360	0.335217	-145.966689	-0.006	0.000	59.462022	18.135503
502.266	-1.657354	0.335159	-145.966743	-0.006	0.000	59.462022	18.135503
502.277	-1.657348	0.335101	-145.966798	-0.006	0.000	59.462022	18.135503
502.288	-1.657343	0.335044	-145.966866	-0.006	0.000	59.462022	18.135503
502.299	-1.657337	0.334986	-145.966921	-0.006	0.000	59.462022	18.135503
502.310	-1.657331	0.334929	-145.966976	-0.006	0.000	59.462022	18.135503
502.321	-1.657325	0.334871	-145.967044	-0.006	0.000	59.462022	18.135503
502.332	-1.657319	0.334813	-145.967098	-0.006	0.000	59.462022	18.135503
502.343	-1.657313	0.334756	-145.967167	-0.006	0.000	59.462022	18.135503
502.354	-1.657307	0.334698	-145.967221	-0.006	0.000	59.462022	18.135503
502.365	-1.657301	0.334641	-145.967276	-0.006	0.000	59.462022	18.135503
502.376	-1.657296	0.334583	-145.967344	-0.006	0.000	59.462022	18.135503
502.387	-1.657290	0.334525	-145.967399	-0.006	0.000	59.462022	18.135503
502.398	-1.657284	0.334468	-145.967454	-0.006	0.000	59.462022	18.135503
502.409	-1.657278	0.334410	-145.967522	-0.006	0.000	59.462022	18.135503
502.420	-1.657272	0.334353	-145.967577	-0.006	0.000	59.462022	18.135503
502.431	-1.657266	0.334295	-145.967645	-0.006	0.000	59.462022	18.135503
502.442	-1.657260	0.334237	-145.967686	-0.006	0.000	59.462022	18.135503
502.453	-1.657255	0.334180	-145.967754	-0.006	0.000	59.462022	18.135503
502.464	-1.657249	0.334122	-145.967822	-0.006	0.000	59.462022	18.135503
502.475	-1.656920	0.333892	-145.967481	-0.006	0.000	59.462022	18.135503
502.486	-1.657583	0.334758	-145.967891	-0.007	0.000	59.462022	18.135503
502.497	-1.658320	0.334823	-145.968055	-0.006	0.001	59.462022	18.135503
502.508	-1.657666	0.334931	-145.967549	-0.007	0.001	59.462022	18.135503
502.519	-1.657363	0.336928	-145.967891	-0.007	0.001	59.462022	18.135503
502.530	-1.657750	0.335224	-145.967768	-0.006	0.001	59.462022	18.135503
502.541	-1.657085	0.334752	-145.966784	-0.007	0.001	59.462022	18.135503
502.552	-1.656708	0.335703	-145.966702	-0.006	0.001	59.462022	18.135503
502.563	-1.656037	0.334756	-145.966074	-0.006	0.001	59.462022	18.135503
502.574	-1.655662	0.334479	-145.966074	-0.006	0.001	59.462022	18.135503
502.585	-1.655660	0.334506	-145.966101	-0.006	0.001	59.462022	18.135503
502.596	-1.655659	0.334533	-145.966115	-0.006	0.001	59.462022	18.135503
502.607	-1.655657	0.334561	-145.966142	-0.006	0.001	59.462022	18.135503
502.618	-1.655655	0.334588	-145.966170	-0.006	0.001	59.462022	18.135503
502.629	-1.655654	0.334615	-145.966197	-0.006	0.001	59.462022	18.135503
502.640	-1.655652	0.334643	-145.966224	-0.006	0.001	59.462022	18.135503
502.651	-1.655650	0.334670	-145.966238	-0.006	0.001	59.462022	18.135503
502.662	-1.655649	0.334697	-145.966265	-0.006	0.001	59.462022	18.135503
502.673	-1.655647	0.334725	-145.966293	-0.006	0.001	59.462022	18.135503
502.684	-1.655645	0.334752	-145.966320	-0.006	0.001	59.462022	18.135503
502.695	-1.655644	0.334779	-145.966347	-0.006	0.001	59.462022	18.135503
502.706	-1.655642	0.334807	-145.966374	-0.007	0.001	59.462022	18.135503
502.717	-1.655641	0.334834	-145.966402	-0.007	0.001	59.462022	18.135503
502.728	-1.655639	0.334861	-145.966415	-0.007	0.000	59.462022	18.135503
502.739	-1.655637	0.334889	-145.966443	-0.007	0.000	59.462022	18.135503
502.750	-1.655635	0.334916	-145.966470	-0.007	0.000	59.462022	18.135503
502.761	-1.655634	0.334943	-145.966497	-0.007	0.000	59.462022	18.135503
502.772	-1.655632	0.334971	-145.966525	-0.007	0.000	59.462022	18.135503
502.783	-1.655630	0.334998	-145.966552	-0.007	0.000	59.462022	18.135503
502.794	-1.655629	0.335025	-145.966579	-0.007	0.000	59.462022	18.135503
502.805	-1.655627	0.335053	-145.966607	-0.007	0.000	59.462022	18.135503
502.816	-1.655625	0.335080	-145.966620	-0.007	0.000	59.462022	18.135503
502.827	-1.655535	0.335292	-145.966812	-0.006	0.000	59.462022	18.135503
502.838	-1.655732	0.334510	-145.966784	-0.006	0.001	59.462022	18.135503
502.849	-1.655083	0.334317	-145.966334	-0.007	0.001	59.462022	18.135503
502.860	-1.654509	0.335673	-145.966347	-0.006	0.001	59.462022	18.135503
502.871	-1.654149	0.334091	-145.966019	-0.006	0.001	59.462022	18.135503
502.882	-1.653630	0.333836	-145.965418	-0.007	0.001	59.462022	18.135503
502.893	-1.653733	0.335092	-145.965965	-0.006	0.001	59.462022	18.135503
502.904	-1.654111	0.334905	-145.966115	-0.006	0.001	59.462022	18.135503
502.915	-1.654091	0.334877	-145.966224	-0.006	0.001	59.462022	18.135503
502.926	-1.654071	0.334850	-145.966347	-0.006	0.000	59.462022	18.135503
502.937	-1.654051	0.334823	-145.966484	-0.006	0.000	59.462022	18.135503
502.948	-1.654030	0.334796	-145.966593	-0.006	0.000	59.462022	18.135503
502.959	-1.654011	0.334768	-145.966730	-0.006	0.000	59.462022	18.135503
502.970	-1.653990	0.334741	-145.966853	-0.006	-0.000	59.462022	18.135503
502.981	-1.653970	0.334714	-145.966976	-0.006	-0.000	59.462022	18.135503
502.992	-1.653679	0.333625	-145.966935	-0.006	0.000	59.462022	18.135503
503.003	-1.653530	0.333153	-145.966443	-0.006	0.000	59.462022	18.135503
503.014	-1.653837	0.333298	-145.966320	-0.006	0.000	59.462022	18.135503
503.025	-1.654224	0.333367	-145.966320	-0.005	-0.000	59.462022	18.135503
503.036	-1.654612	0.333436	-145.966320	-0.005	-0.000	59.462022	18.135503
503.047	-1.654998	0.333505	-145.966320	-0.004	-0.000	59.462022	18.135503
503.058	-1.655386	0.333574	-145.966306	-0.004	-0.000	59.462022	18.135503
503.069	-1.655772	0.333643	-145.966306	-0.003	-0.000	59.462022	18.135503
503.080	-1.656159	0.333712	-145.966306	-0.003	-0.001	59.462022	18.135503
503.091	-1.656547	0.333781	-145.966293	-0.002	-0.001	59.462022	18.135503
503.102	-1.656933	0.333849	-145.966293	-0.002	-0.001	59.462022	18.135503
503.113	-1.657320	0.333918	-145.966279	-0.002	-0.001	59.462022	18.135503
503.124	-1.657707	0.333987	-145.966279	-0.001	-0.001	59.462022	18.135503
503.135	-1.658094	0.334056	-145.966279	-0.001	-0.001	59.462022	18.135503
503.146	-1.658481	0.334125	-145.966265	-0.000	-0.001	59.462022	18.135503
503.157	-1.658868	0.334194	-145.966265	0.000	-0.001	59.462022	18.135503
503.168	-1.659255	0.334263	-145.966252	0.001	-0.001	59.462022	18.135503
503.179	-1.659678	0.334338	-145.966252	0.001	-0.002	59.462022	18.135503
503.190	-1.659316	0.333901	-145.964162	0.002	-0.002	59.462022	18.135503
503.201	-1.656475	0.337423	-145.962727	0.009	-0.001	59.462022	18.135503
503.212	-1.656499	0.338116	-145.960487	0.015	0.000	59.462022	18.135503
503.223	-1.658688	0.342012	-145.960719	0.022	0.000	59.462022	18.135503
503.234	-1.658447	0.344570	-145.960678	0.030	0.000	59.462022	18.135503
503.245	-1.658206	0.347128	-145.960637	0.037	0.000	59.462022	18.135503
503.256	-1.657964	0.349686	-145.960596	0.045	0.000	59.462022	18.135503
503.267	-1.657723	0.352244	-145.960555	0.052	0.000	59.462022	18.135503
503.278	-1.657482	0.354802	-145.960514	0.060	0.000	59.462022	18.135503
503.289	-1.657241	0.357360	-145.960473	0.067	0.000	59.462022	18.135503
503.300	-1.656999	0.359918	-145.960432	0.075	0.000	59.462022	18.135503
503.311	-1.656758	0.362476	-145.960391	0.082	0.000	59.462022	18.135503
503.322	-1.656517	0.365034	-145.960350	0.090	0.000	59.462022	18.135503
503.333	-1.656276	0.367592	-145.960296	0.097	0.000	59.462022	18.135503
503.344	-1.656035	0.370150	-145.960255	0.104	0.000	59.462022	18.135503
503.355	-1.655794	0.372708	-145.960214	0.112	0.000	59.462022	18.135503
503.366	-1.655553	0.375266	-145.960173	0.119	0.000	59.462022	18.135503
503.377	-1.655311	0.377824	-145.960132	0.127	0.000	59.462022	18.135503
503.388	-1.655070	0.380381	-145.960091	0.134	0.000	59.462022	18.135503
503.399	-1.654829	0.382939	-145.960050	0.142	0.000	59.462022	18.135503
503.410	-1.654587	0.385497	-145.960009	0.149	0.000	59.462022	18.135503
503.421	-1.654347	0.388055	-145.959968	0.157	0.000	59.462022	18.135503
503.432	-1.654105	0.390613	-145.959927	0.164	0.000	59.462022	18.135503
503.443	-1.653864	0.393171	-145.959886	0.172	0.000	59.462022	18.135503
503.454	-1.653623	0.395729	-145.959831	0.179	0.000	59.462022	18.135503
503.465	-1.653381	0.398287	-145.959790	0.187	0.000	59.462022	18.135503
503.476	-1.653141	0.400845	-145.959763	0.194	0.000	59.462022	18.135503
503.487	-1.652899	0.403403	-145.959722	0.202	0.000	59.462022	18.135503
503.498	-1.652658	0.405961	-145.959681	0.209	0.000	59.462022	18.135503
503.509	-1.652417	0.408519	-145.959640	0.216	0.000	59.462022	18.135503
503.520	-1.652175	0.411077	-145.959585	0.224	0.000	59.462022	18.135503
503.531	-1.651934	0.413635	-145.959544	0.231	0.000	59.462022	18.135503
503.542	-1.652671	0.414790	-145.958697	0.240	0.000	59.462022	18.135503
503.553	-1.651968	0.414826	-145.957550	0.248	-0.000	59.462022	18.135503
503.564	-1.651940	0.416786	-145.956689	0.258	-0.000	59.462022	18.135503
503.575	-1.653345	0.416917	-145.956102	0.266	-0.000	59.462022	18.135503
503.586	-1.654719	0.417424	-145.955474	0.273	-0.000	59.462022	18.135503
503.597	-1.656500	0.419281	-145.955610	0.282	-0.001	59.462022	18.135503
503.608	-1.658315	0.419303	-145.955050	0.291	-0.001	59.462022	18.135503
503.619	-1.659561	0.419792	-145.954381	0.300	-0.001	59.462022	18.135503
503.630	-1.660593	0.421614	-145.953766	0.309	-0.001	59.462022	18.135503
503.641	-1.661625	0.423435	-145.953165	0.318	-0.001	59.462022	18.135503
503.652	-1.662657	0.425256	-145.952550	0.327	-0.001	59.462022	18.135503
503.663	-1.663689	0.427078	-145.951935	0.335	-0.001	59.462022	18.135503
503.674	-1.664721	0.428899	-145.951321	0.344	-0.000	59.462022	18.135503
503.685	-1.665753	0.430721	-145.950720	0.353	-0.000	59.462022	18.135503
503.696	-1.666784	0.432542	-145.950105	0.362	-0.000	59.462022	18.135503
503.707	-1.667816	0.434363	-145.949504	0.371	-0.000	59.462022	18.135503
503.718	-1.668848	0.436185	-145.948889	0.380	-0.000	59.462022	18.135503
503.729	-1.669879	0.438006	-145.948274	0.389	-0.000	59.462022	18.135503
503.740	-1.670911	0.439828	-145.947660	0.398	-0.000	59.462022	18.135503
503.751	-1.671943	0.441649	-145.947045	0.407	-0.000	59.462022	18.135503
503.762	-1.672975	0.443471	-145.946444	0.415	0.000	59.462022	18.135502
503.773	-1.674006	0.445292	-145.945829	0.424	0.000	59.462022	18.135502
503.784	-1.675038	0.447114	-145.945215	0.433	0.000	59.462022	18.135502
503.795	-1.676070	0.448935	-145.944614	0.442	0.000	59.462021	18.135502
503.806	-1.677101	0.450757	-145.943999	0.451	0.000	59.462021	18.135502
503.817	-1.678132	0.452578	-145.943384	0.460	0.000	59.462021	18.135502
503.828	-1.679164	0.454400	-145.942783	0.469	0.000	59.462021	18.135502
503.839	-1.680196	0.456221	-145.942168	0.478	0.000	59.462021	18.135502
503.850	-1.681227	0.458043	-145.941567	0.487	0.000	59.462021	18.135502
503.861	-1.682259	0.459864	-145.940953	0.495	0.001	59.462021	18.135502
503.872	-1.683290	0.461686	-145.940338	0.504	0.001	59.462021	18.135502
503.883	-1.684322	0.463508	-145.939723	0.513	0.001	59.462021	18.135502
503.894	-1.684911	0.465918	-145.939341	0.523	0.000	59.462021	18.135502
503.905	-1.684993	0.468399	-145.939368	0.533	0.000	59.462021	18.135502
503.916	-1.684124	0.469734	-145.938740	0.543	0.000	59.462021	18.135502
503.927	-1.682911	0.472007	-145.938535	0.552	0.001	59.462021	18.135502
503.938	-1.682587	0.474475	-145.938453	0.562	0.001	59.462021	18.135502
503.949	-1.681484	0.475821	-145.938630	0.572	0.001	59.462021	18.135502
503.960	-1.681047	0.479022	-145.938972	0.581	0.002	59.462021	18.135502
503.971	-1.681960	0.481033	-145.939382	0.593	0.002	59.462021	18.135501
503.982	-1.683237	0.482689	-145.939819	0.604	0.002	59.462021	18.135501
503.993	-1.683801	0.484778	-145.939477	0.616	0.002	59.462021	18.135501
504.004	-1.684096	0.487028	-145.938835	0.628	0.002	59.462021	18.135501
504.015	-1.684392	0.489279	-145.938207	0.640	0.002	59.462021	18.135501
504.026	-1.684688	0.491530	-145.937565	0.652	0.002	59.462021	18.135501
504.037	-1.684984	0.493780	-145.936923	0.663	0.002	59.462020	18.135501
504.048	-1.685280	0.496031	-145.936281	0.675	0.002	59.462020	18.135501
504.059	-1.685575	0.498281	-145.935652	0.687	0.002	59.462020	18.135501
504.070	-1.685870	0.500532	-145.935010	0.699	0.002	59.462020	18.135501
504.081	-1.686166	0.502783	-145.934368	0.711	0.002	59.462020	18.135501
504.092	-1.686462	0.505033	-145.933740	0.722	0.002	59.462020	18.135501
504.103	-1.686757	0.507284	-145.933098	0.734	0.002	59.462020	18.135501
504.114	-1.687053	0.509535	-145.932456	0.746	0.002	59.462020	18.135500
504.125	-1.687348	0.511785	-145.931814	0.758	0.002	59.462020	18.135500
504.136	-1.687644	0.514036	-145.931172	0.770	0.002	59.462020	18.135500
504.147	-1.687939	0.516287	-145.930530	0.781	0.002	59.462020	18.135500
504.158	-1.688235	0.518537	-145.929901	0.793	0.002	59.462020	18.135500
504.169	-1.688530	0.520788	-145.929259	0.805	0.002	59.462020	18.135500
504.180	-1.688825	0.523039	-145.928631	0.817	0.002	59.462020	18.135500
504.191	-1.689121	0.525289	-145.927989	0.829	0.002	59.462020	18.135500
504.202	-1.689416	0.527540	-145.927347	0.841	0.002	59.462020	18.135500
504.213	-1.689712	0.529791	-145.926705	0.852	0.002	59.462020	18.135500
504.224	-1.690007	0.532041	-145.926063	0.864	0.002	59.462019	18.135500
504.235	-1.690302	0.534292	-145.925421	0.876	0.002	59.462019	18.135500
504.246	-1.690296	0.536430	-145.924861	0.888	0.002	59.462019	18.135499
504.257	-1.687552	0.537833	-145.925025	0.900	0.003	59.462019	18.135499
504.268	-1.683427	0.537829	-145.924820	0.912	0.004	59.462019	18.135499
504.279	-1.680154	0.538829	-145.924861	0.925	0.004	59.462019	18.135499
504.290	-1.680669	0.538873	-145.924956	0.936	0.005	59.462019	18.135499
504.301	-1.676932	0.538813	-145.924382	0.948	0.005	59.462019	18.135499
504.312	-1.677329	0.538938	-145.924833	0.962	0.005	59.462019	18.135499
504.323	-1.676935	0.540043	-145.924779	0.977	0.005	59.462019	18.135499
504.334	-1.679128	0.544470	-145.924342	0.992	0.005	59.462019	18.135499
504.345	-1.681320	0.548897	-145.923904	1.007	0.005	59.462019	18.135498
504.356	-1.683513	0.553325	-145.923467	1.022	0.005	59.462019	18.135498
504.367	-1.685706	0.557752	-145.923016	1.037	0.005	59.462018	18.135498
504.378	-1.687899	0.562179	-145.922579	1.052	0.004	59.462018	18.135498
504.389	-1.690091	0.566606	-145.922142	1.066	0.004	59.462018	18.135498
504.400	-1.692283	0.571034	-145.921705	1.081	0.004	59.462018	18.135498
504.411	-1.694476	0.575461	-145.921268	1.096	0.004	59.462018	18.135498
504.422	-1.696668	0.579888	-145.920831	1.111	0.004	59.462018	18.135498
504.433	-1.698861	0.584316	-145.920394	1.126	0.004	59.462018	18.135497
504.444	-1.701053	0.588743	-145.919957	1.141	0.004	59.462018	18.135497
504.455	-1.703245	0.593170	-145.919519	1.156	0.004	59.462018	18.135497
504.466	-1.705438	0.597597	-145.919082	1.171	0.004	59.462018	18.135497
504.477	-1.707630	0.602025	-145.918645	1.186	0.004	59.462017	18.135497
504.488	-1.709822	0.606452	-145.918208	1.201	0.004	59.462017	18.135497
504.499	-1.712015	0.610880	-145.917771	1.216	0.004	59.462017	18.135497
504.510	-1.714207	0.615307	-145.917334	1.231	0.004	59.462017	18.135497
504.521	-1.716398	0.619734	-145.916897	1.246	0.003	59.462017	18.135496
504.532	-1.718591	0.624162	-145.916473	1.261	0.003	59.462017	18.135496
504.543	-1.720783	0.628589	-145.916036	1.276	0.003	59.462017	18.135496
504.554	-1.722975	0.633017	-145.915585	1.291	0.003	59.462017	18.135496
504.565	-1.725167	0.637444	-145.915148	1.306	0.003	59.462017	18.135496
504.576	-1.727359	0.641872	-145.914725	1.321	0.003	59.462017	18.135496
504.587	-1.729551	0.646299	-145.914287	1.336	0.003	59.462017	18.135496
504.598	-1.731743	0.650727	-145.913850	1.351	0.003	59.462016	18.135496
504.609	-1.733562	0.653926	-145.913864	1.367	0.004	59.462016	18.135495
504.620	-1.736410	0.654340	-145.914670	1.382	0.003	59.462016	18.135495
504.631	-1.738484	0.656444	-145.915216	1.396	0.004	59.462016	18.135495
504.642	-1.740590	0.657377	-145.915039	1.412	0.005	59.462016	18.135495
504.653	-1.742631	0.658414	-145.914451	1.427	0.005	59.462016	18.135495
504.664	-1.747346	0.658352	-145.914697	1.445	0.006	59.462016	18.135495
504.675	-1.748425	0.659348	-145.914069	1.458	0.006	59.462016	18.135494
504.686	-1.752299	0.659639	-145.913837	1.473	0.006	59.462015	18.135494
504.697	-1.752613	0.660083	-145.913441	1.489	0.006	59.462015	18.135494
504.708	-1.752928	0.660527	-145.913058	1.505	0.006	59.462015	18.135494
504.719	-1.753243	0.660971	-145.912662	1.520	0.006	59.462015	18.135494
504.730	-1.753557	0.661416	-145.912266	1.536	0.006	59.462015	18.135494
504.741	-1.753872	0.661860	-145.911870	1.551	0.006	59.462015	18.135493
504.752	-1.754187	0.662304	-145.911473	1.567	0.006	59.462015	18.135493
504.763	-1.754502	0.662748	-145.911091	1.583	0.006	59.462015	18.135493
504.774	-1.754816	0.663193	-145.910681	1.598	0.006	59.462014	18.135493
504.785	-1.755131	0.663637	-145.910299	1.614	0.006	59.462014	18.135493
504.796	-1.755445	0.664081	-145.909889	1.630	0.006	59.462014	18.135492
504.807	-1.755760	0.664525	-145.909493	1.645	0.006	59.462014	18.135492
504.818	-1.756075	0.664969	-145.909110	1.661	0.005	59.462014	18.135492
504.829	-1.756390	0.665414	-145.908714	1.677	0.005	59.462014	18.135492
504.840	-1.756704	0.665858	-145.908318	1.692	0.005	59.462014	18.135492
504.851	-1.757019	0.666302	-145.907922	1.708	0.005	59.462013	18.135492
504.862	-1.757334	0.666746	-145.907526	1.723	0.005	59.462013	18.135491
504.873	-1.757648	0.667191	-145.907129	1.739	0.005	59.462013	18.135491
504.884	-1.757963	0.667635	-145.906733	1.755	0.005	59.462013	18.135491
504.895	-1.758278	0.668079	-145.906337	1.770	0.005	59.462013	18.135491
504.906	-1.758592	0.668523	-145.905955	1.786	0.005	59.462013	18.135491
504.917	-1.758907	0.668968	-145.905558	1.802	0.005	59.462013	18.135490
504.928	-1.759222	0.669412	-145.905162	1.817	0.005	59.462013	18.135490
504.939	-1.759536	0.669856	-145.904766	1.833	0.005	59.462012	18.135490
504.950	-1.759851	0.670300	-145.904370	1.848	0.005	59.462012	18.135490
504.961	-1.759338	0.669101	-145.904165	1.864	0.005	59.462012	18.135490
504.972	-1.761333	0.666054	-145.903113	1.880	0.005	59.462012	18.135490
504.983	-1.762336	0.663016	-145.902075	1.897	0.004	59.462012	18.135489
504.994	-1.763743	0.660137	-145.901119	1.915	0.004	59.462012	18.135489
505.005	-1.764915	0.657634	-145.900531	1.931	0.004	59.462011	18.135489
505.016	-1.766205	0.656047	-145.899835	1.947	0.004	59.462011	18.135489
505.027	-1.766907	0.654920	-145.899220	1.963	0.004	59.462011	18.135488
505.038	-1.769775	0.656926	-145.898906	1.981	0.004	59.462011	18.135488
505.049	-1.779164	0.664264	-145.899070	1.998	0.004	59.462011	18.135488
505.060	-1.788553	0.671602	-145.899220	2.016	0.004	59.462011	18.135488
505.071	-1.797942	0.678939	-145.899370	2.033	0.004	59.462010	18.135488
505.082	-1.807331	0.686277	-145.899534	2.051	0.004	59.462010	18.135487
505.093	-1.816721	0.693615	-145.899698	2.068	0.004	59.462010	18.135487
505.104	-1.826110	0.700952	-145.899848	2.086	0.004	59.462010	18.135487
505.115	-1.835500	0.708290	-145.900012	2.103	0.004	59.462010	18.135487
505.126	-1.844889	0.715627	-145.900176	2.120	0.004	59.462010	18.135486
505.137	-1.854279	0.722964	-145.900354	2.138	0.004	59.462009	18.135486
505.148	-1.863668	0.730302	-145.900518	2.155	0.004	59.462009	18.135486
505.159	-1.873058	0.737639	-145.900682	2.173	0.004	59.462009	18.135486
505.170	-1.882447	0.744977	-145.900846	2.190	0.004	59.462009	18.135485
505.181	-1.891836	0.752314	-145.901010	2.208	0.004	59.462009	18.135485
505.192	-1.901226	0.759651	-145.901187	2.225	0.004	59.462008	18.135485
505.203	-1.910616	0.766989	-145.901351	2.243	0.004	59.462008	18.135485
505.214	-1.920005	0.774326	-145.901529	2.260	0.004	59.462008	18.135484
505.225	-1.929395	0.781663	-145.901706	2.277	0.004	59.462008	18.135484
505.236	-1.938785	0.789000	-145.901884	2.295	0.004	59.462008	18.135484
505.247	-1.948175	0.796338	-145.902061	2.312	0.004	59.462008	18.135484
505.258	-1.957565	0.803675	-145.902239	2.330	0.003	59.462007	18.135483
505.269	-1.966954	0.811012	-145.902417	2.347	0.003	59.462007	18.135483
505.280	-1.976344	0.818349	-145.902594	2.365	0.003	59.462007	18.135483
505.291	-1.985734	0.825686	-145.902772	2.382	0.003	59.462007	18.135483
505.302	-1.995124	0.833023	-145.902949	2.400	0.003	59.462007	18.135482
505.313	-2.004514	0.840360	-145.903141	2.417	0.003	59.462006	18.135482
505.324	-2.009118	0.853000	-145.902102	2.434	0.005	59.462006	18.135482
505.335	-2.013660	0.864094	-145.901693	2.450	0.005	59.462006	18.135482
505.346	-2.016645	0.873026	-145.900354	2.467	0.007	59.462006	18.135481
505.357	-2.018849	0.879833	-145.899288	2.485	0.008	59.462006	18.135481
505.368	-2.017977	0.883215	-145.898223	2.502	0.008	59.462005	18.135481
505.379	-2.013668	0.884811	-145.896597	2.521	0.009	59.462005	18.135481
505.390	-2.010361	0.883301	-145.896420	2.535	0.009	59.462005	18.135480
505.401	-2.002651	0.877606	-145.894958	2.549	0.009	59.462005	18.135480
505.412	-1.991694	0.861345	-145.894234	2.564	0.009	59.462005	18.135480
505.423	-1.980739	0.845083	-145.893510	2.579	0.009	59.462004	18.135479
505.434	-1.969783	0.828821	-145.892786	2.593	0.009	59.462004	18.135479
505.445	-1.958828	0.812559	-145.892076	2.608	0.009	59.462004	18.135479
505.456	-1.947873	0.796297	-145.891365	2.622	0.009	59.462004	18.135479
505.467	-1.936918	0.780035	-145.890669	2.637	0.009	59.462004	18.135478
505.478	-1.925963	0.763773	-145.889958	2.652	0.009	59.462003	18.135478
505.489	-1.915009	0.747511	-145.889262	2.666	0.009	59.462003	18.135478
505.500	-1.904054	0.731248	-145.888551	2.681	0.009	59.462003	18.135477
505.511	-1.893101	0.714985	-145.887868	2.695	0.009	59.462003	18.135477
505.522	-1.882147	0.698722	-145.887172	2.710	0.009	59.462002	18.135477
505.533	-1.871194	0.682459	-145.886475	2.725	0.009	59.462002	18.135476
505.544	-1.860240	0.666196	-145.885792	2.739	0.009	59.462002	18.135476
505.555	-1.849288	0.649933	-145.885109	2.754	0.008	59.462002	18.135476
505.566	-1.838335	0.633670	-145.884440	2.768	0.008	59.462002	18.135476
505.577	-1.827383	0.617406	-145.883757	2.783	0.008	59.462001	18.135475
505.588	-1.816430	0.601143	-145.883087	2.797	0.008	59.462001	18.135475
505.599	-1.805479	0.584879	-145.882418	2.812	0.008	59.462001	18.135475
505.610	-1.794527	0.568615	-145.881748	2.827	0.008	59.462001	18.135474
505.621	-1.783575	0.552351	-145.881079	2.841	0.008	59.462000	18.135474
505.632	-1.772624	0.536087	-145.880423	2.856	0.008	59.462000	18.135474
505.643	-1.761672	0.519823	-145.879768	2.870	0.008	59.462000	18.135473
505.654	-1.750722	0.503558	-145.879112	2.885	0.008	59.462000	18.135473
505.665	-1.739771	0.487294	-145.878456	2.899	0.008	59.462000	18.135473
505.676	-1.730214	0.480031	-145.878142	2.914	0.007	59.461999	18.135473
505.687	-1.723986	0.484777	-145.878320	2.929	0.006	59.461999	18.135472
505.698	-1.720324	0.489282	-145.878320	2.945	0.004	59.461999	18.135472
505.709	-1.717448	0.496495	-145.878798	2.965	0.002	59.461999	18.135472
505.720	-1.715768	0.503325	-145.879672	2.978	0.002	59.461998	18.135471
505.731	-1.714005	0.512272	-145.880328	2.994	-0.000	59.461998	18.135471
505.742	-1.712062	0.523139	-145.881339	3.008	0.000	59.461998	18.135471
505.753	-1.716946	0.534835	-145.882268	3.023	0.001	59.461998	18.135470
505.764	-1.724418	0.547167	-145.882992	3.037	0.001	59.461997	18.135470
505.775	-1.731891	0.559498	-145.883716	3.050	0.001	59.461997	18.135470
505.786	-1.739364	0.571830	-145.884440	3.064	0.001	59.461997	18.135469
505.797	-1.746836	0.584161	-145.885164	3.078	0.001	59.461997	18.135469
505.808	-1.754309	0.596493	-145.885901	3.091	0.001	59.461996	18.135469
505.819	-1.761782	0.608824	-145.886625	3.105	0.001	59.461996	18.135468
505.830	-1.769256	0.621155	-145.887349	3.119	0.001	59.461996	18.135468
505.841	-1.776729	0.633486	-145.888087	3.133	0.001	59.461996	18.135467
505.852	-1.784203	0.645817	-145.888838	3.146	0.001	59.461995	18.135467
505.863	-1.791676	0.658148	-145.889562	3.160	0.001	59.461995	18.135467
505.874	-1.799151	0.670479	-145.890300	3.174	0.001	59.461995	18.135466
505.885	-1.806625	0.682809	-145.891038	3.187	0.001	59.461994	18.135466
505.896	-1.814099	0.695140	-145.891789	3.201	0.001	59.461994	18.135466
505.907	-1.821573	0.707470	-145.892526	3.215	0.001	59.461994	18.135465
505.918	-1.829048	0.719801	-145.893264	3.229	0.001	59.461994	18.135465
505.929	-1.836523	0.732131	-145.894015	3.242	0.001	59.461993	18.135465
505.940	-1.843998	0.744461	-145.894767	3.256	0.001	59.461993	18.135464
505.951	-1.851473	0.756791	-145.895518	3.270	0.001	59.461993	18.135464
505.962	-1.858948	0.769121	-145.896269	3.283	0.001	59.461993	18.135464
505.973	-1.866424	0.781451	-145.897021	3.297	0.001	59.461992	18.135463
505.984	-1.874580	0.794902	-145.897840	3.312	0.001	59.461992	18.135463
505.995	-1.881736	0.803656	-145.898537	3.323	-0.000	59.461992	18.135463
506.006	-1.890279	0.813736	-145.900654	3.333	0.001	59.461992	18.135462
506.017	-1.897688	0.823834	-145.902717	3.342	0.001	59.461991	18.135462
506.028	-1.905216	0.833266	-145.904684	3.352	0.002	59.461991	18.135461
506.039	-1.913675	0.845378	-145.907635	3.365	0.003	59.461991	18.135461
506.050	-1.916427	0.854733	-145.908960	3.375	0.003	59.461991	18.135461
506.061	-1.915101	0.866744	-145.910558	3.385	0.003	59.461990	18.135460
506.072	-1.913776	0.878755	-145.912170	3.396	0.004	59.461990	18.135460
506.083	-1.912450	0.890766	-145.913768	3.407	0.004	59.461990	18.135460
506.094	-1.911126	0.902777	-145.915380	3.418	0.005	59.461989	18.135459
506.105	-1.909802	0.914788	-145.916992	3.429	0.005	59.461989	18.135459
506.116	-1.908478	0.926800	-145.918590	3.439	0.005	59.461989	18.135458
506.127	-1.907154	0.938811	-145.920189	3.450	0.006	59.461989	18.135458
506.138	-1.905830	0.950822	-145.921801	3.461	0.006	59.461988	18.135458
506.149	-1.904508	0.962834	-145.923399	3.472	0.007	59.461988	18.135457
506.160	-1.903185	0.974845	-145.925011	3.482	0.007	59.461988	18.135457
506.171	-1.901862	0.986856	-145.926609	3.493	0.007	59.461987	18.135457
506.182	-1.900540	0.998868	-145.928221	3.504	0.008	59.461987	18.135456
506.193	-1.899219	1.010879	-145.929819	3.515	0.008	59.461987	18.135456
506.204	-1.897897	1.022891	-145.931431	3.525	0.009	59.461986	18.135455
506.215	-1.896576	1.034903	-145.933030	3.536	0.009	59.461986	18.135455
506.226	-1.895255	1.046914	-145.934641	3.547	0.009	59.461986	18.135455
506.237	-1.893935	1.058926	-145.936226	3.558	0.010	59.461986	18.135454
506.248	-1.892615	1.070938	-145.937838	3.568	0.010	59.461985	18.135454
506.259	-1.891295	1.082949	-145.939436	3.579	0.011	59.461985	18.135453
506.270	-1.889975	1.094961	-145.941034	3.590	0.011	59.461985	18.135453
506.281	-1.888657	1.106973	-145.942646	3.601	0.012	59.461984	18.135453
506.292	-1.887338	1.118985	-145.944245	3.611	0.012	59.461984	18.135452
506.303	-1.886019	1.130997	-145.945843	3.622	0.012	59.461984	18.135452
506.314	-1.884702	1.143008	-145.947455	3.633	0.013	59.461984	18.135451
506.325	-1.883383	1.155021	-145.949039	3.644	0.013	59.461983	18.135451
506.336	-1.882066	1.167033	-145.950651	3.654	0.014	59.461983	18.135451
506.347	-1.880749	1.179045	-145.952250	3.665	0.014	59.461983	18.135450
506.358	-1.879432	1.191057	-145.953848	3.676	0.014	59.461982	18.135450
506.369	-1.878116	1.203069	-145.955446	3.687	0.015	59.461982	18.135450
506.380	-1.876800	1.215081	-145.957044	3.697	0.015	59.461982	18.135449
506.391	-1.860597	1.220523	-145.961102	3.708	0.014	59.461982	18.135449
506.402	-1.844294	1.226095	-145.964899	3.717	0.018	59.461981	18.135448
506.413	-1.828764	1.230793	-145.967536	3.726	0.018	59.461981	18.135448
506.424	-1.815339	1.234203	-145.971948	3.735	0.019	59.461981	18.135448
506.435	-1.801759	1.236134	-145.976155	3.744	0.019	59.461980	18.135447
506.446	-1.783779	1.236408	-145.979816	3.753	0.019	59.461980	18.135447
506.457	-1.768399	1.233263	-145.983791	3.761	0.019	59.461980	18.135446
506.468	-1.756137	1.224267	-145.985280	3.769	0.019	59.461979	18.135446
506.479	-1.753531	1.204084	-145.987767	3.774	0.018	59.461979	18.135446
506.490	-1.750924	1.183902	-145.990239	3.780	0.018	59.461979	18.135445
506.501	-1.748317	1.163720	-145.992725	3.786	0.018	59.461979	18.135445
506.512	-1.745708	1.143537	-145.995212	3.791	0.017	59.461978	18.135444
506.523	-1.743099	1.123355	-145.997698	3.797	0.017	59.461978	18.135444
506.534	-1.740488	1.103173	-146.000184	3.803	0.017	59.461978	18.135443
506.545	-1.737877	1.082991	-146.002684	3.808	0.016	59.461977	18.135443
506.556	-1.735265	1.062809	-146.005170	3.814	0.016	59.461977	18.135443
506.567	-1.732653	1.042628	-146.007670	3.820	0.016	59.461977	18.135442
506.578	-1.730039	1.022446	-146.010156	3.825	0.015	59.461976	18.135442
506.589	-1.727424	1.002265	-146.012642	3.831	0.015	59.461976	18.135441
506.600	-1.724808	0.982083	-146.015142	3.836	0.015	59.461976	18.135441
506.611	-1.722193	0.961902	-146.017628	3.842	0.014	59.461975	18.135440
506.622	-1.719575	0.941721	-146.020128	3.848	0.014	59.461975	18.135440
506.633	-1.716957	0.921540	-146.022628	3.853	0.014	59.461975	18.135440
506.644	-1.714338	0.901359	-146.025114	3.859	0.013	59.461974	18.135439
506.655	-1.711719	0.881178	-146.027614	3.864	0.013	59.461974	18.135439
506.666	-1.709098	0.860997	-146.030114	3.870	0.013	59.461974	18.135438
506.677	-1.706477	0.840817	-146.032614	3.876	0.012	59.461974	18.135438
506.688	-1.703854	0.820636	-146.035114	3.881	0.012	59.461973	18.135437
506.699	-1.701231	0.800456	-146.037627	3.887	0.012	59.461973	18.135437
506.710	-1.698607	0.780276	-146.040127	3.892	0.011	59.461973	18.135437
506.721	-1.695982	0.760096	-146.042627	3.898	0.011	59.461972	18.135436
506.732	-1.693356	0.739916	-146.045127	3.903	0.011	59.461972	18.135436
506.743	-1.691871	0.718732	-146.047722	3.908	0.010	59.461972	18.135435
506.754	-1.693089	0.697719	-146.050809	3.913	0.013	59.461971	18.135435
506.765	-1.695152	0.680712	-146.053200	3.919	0.013	59.461971	18.135435
506.776	-1.694855	0.664623	-146.055358	3.924	0.014	59.461971	18.135434
506.787	-1.695325	0.649967	-146.057721	3.929	0.015	59.461970	18.135434
506.798	-1.695261	0.635831	-146.059566	3.935	0.015	59.461970	18.135433
506.809	-1.693760	0.621196	-146.059975	3.941	0.015	59.461970	18.135433
506.820	-1.688966	0.616706	-146.060522	3.951	0.015	59.461969	18.135432
506.831	-1.683692	0.611766	-146.061123	3.960	0.014	59.461969	18.135432
506.842	-1.678417	0.606826	-146.061710	3.969	0.014	59.461969	18.135431
506.853	-1.673143	0.601886	-146.062311	3.978	0.014	59.461968	18.135431
506.864	-1.667869	0.596946	-146.062912	3.987	0.014	59.461968	18.135431
506.875	-1.662595	0.592006	-146.063513	3.996	0.014	59.461968	18.135430
506.886	-1.657320	0.587067	-146.064101	4.005	0.013	59.461967	18.135430
506.897	-1.652046	0.582127	-146.064716	4.015	0.013	59.461967	18.135429
506.908	-1.646772	0.577187	-146.065317	4.024	0.013	59.461967	18.135429
506.919	-1.641497	0.572248	-146.065918	4.033	0.013	59.461966	18.135428
506.930	-1.636222	0.567308	-146.066519	4.042	0.013	59.461966	18.135428
506.941	-1.630948	0.562369	-146.067120	4.051	0.012	59.461966	18.135428
506.952	-1.625673	0.557429	-146.067721	4.060	0.012	59.461965	18.135427
506.963	-1.620398	0.552490	-146.068322	4.069	0.012	59.461965	18.135427
506.974	-1.615124	0.547551	-146.068937	4.079	0.012	59.461965	18.135426
506.985	-1.609849	0.542612	-146.069524	4.088	0.012	59.461964	18.135426
506.996	-1.613356	0.542109	-146.072447	4.101	0.010	59.461964	18.135425
507.007	-1.617545	0.541381	-146.074701	4.113	0.008	59.461964	18.135425
507.018	-1.622701	0.541216	-146.077024	4.125	0.006	59.461963	18.135424
507.029	-1.630389	0.540181	-146.079455	4.137	0.005	59.461963	18.135424
507.040	-1.631950	0.529678	-146.081545	4.150	0.005	59.461963	18.135424
507.051	-1.633667	0.518125	-146.083854	4.164	0.005	59.461962	18.135423
507.062	-1.635383	0.506571	-146.086149	4.177	0.005	59.461962	18.135423
507.073	-1.637098	0.495018	-146.088444	4.191	0.004	59.461962	18.135422
507.084	-1.638813	0.483464	-146.090739	4.204	0.004	59.461961	18.135422
507.095	-1.637249	0.461781	-146.092555	4.219	0.004	59.461961	18.135421
507.106	-1.638269	0.454866	-146.093744	4.226	0.003	59.461961	18.135421
507.117	-1.644558	0.472998	-146.095984	4.233	0.003	59.461960	18.135420
507.128	-1.650848	0.491130	-146.098211	4.240	0.003	59.461960	18.135420
507.139	-1.657138	0.509262	-146.100465	4.247	0.002	59.461960	18.135419
507.150	-1.663429	0.527393	-146.102691	4.254	0.002	59.461959	18.135419
507.161	-1.669721	0.545524	-146.104945	4.261	0.001	59.461959	18.135418
507.172	-1.676013	0.563655	-146.107199	4.268	0.001	59.461959	18.135418
507.183	-1.682306	0.581786	-146.109440	4.275	0.001	59.461958	18.135418
507.194	-1.688600	0.599917	-146.111694	4.282	0.000	59.461958	18.135417
507.205	-1.694895	0.618047	-146.113948	4.289	-0.000	59.461958	18.135417
507.216	-1.701191	0.636177	-146.116202	4.296	-0.000	59.461957	18.135416
507.227	-1.707487	0.654307	-146.118455	4.303	-0.001	59.461957	18.135416
507.238	-1.713783	0.672436	-146.120709	4.310	-0.001	59.461957	18.135415
507.249	-1.720081	0.690565	-146.122977	4.317	-0.001	59.461956	18.135415
507.260	-1.726379	0.708694	-146.125245	4.325	-0.002	59.461956	18.135414
507.271	-1.732679	0.726823	-146.127499	4.332	-0.002	59.461955	18.135414
507.282	-1.738978	0.744951	-146.129766	4.339	-0.002	59.461955	18.135413
507.293	-1.745279	0.763080	-146.132034	4.346	-0.003	59.461955	18.135413
507.304	-1.751580	0.781208	-146.134302	4.353	-0.003	59.461954	18.135412
507.315	-1.757882	0.799335	-146.136583	4.360	-0.004	59.461954	18.135412
507.326	-1.764185	0.817463	-146.138850	4.367	-0.004	59.461954	18.135411
507.337	-1.770489	0.835590	-146.141132	4.374	-0.004	59.461953	18.135411
507.348	-1.776793	0.853717	-146.143413	4.381	-0.005	59.461953	18.135410
507.359	-1.783098	0.871844	-146.145694	4.388	-0.005	59.461953	18.135410
507.370	-1.789404	0.889971	-146.147976	4.395	-0.005	59.461952	18.135410
507.381	-1.795711	0.908097	-146.150257	4.402	-0.006	59.461952	18.135409
507.392	-1.802018	0.926223	-146.152538	4.409	-0.006	59.461952	18.135409
507.403	-1.808326	0.944348	-146.154833	4.416	-0.006	59.461951	18.135408
507.414	-1.814635	0.962474	-146.157128	4.423	-0.007	59.461951	18.135408
507.425	-1.820944	0.980599	-146.159423	4.430	-0.007	59.461951	18.135407
507.436	-1.827255	0.998724	-146.161718	4.438	-0.007	59.461950	18.135407
507.447	-1.839331	1.022251	-146.164669	4.441	-0.006	59.461950	18.135406
507.458	-1.850782	1.042986	-146.168753	4.445	-0.003	59.461949	18.135406
507.469	-1.859839	1.057064	-146.173439	4.448	0.001	59.461949	18.135405
507.480	-1.864610	1.061297	-146.177823	4.450	0.003	59.461949	18.135405
507.491	-1.864201	1.059232	-146.183247	4.448	0.007	59.461948	18.135404
507.502	-1.859960	1.051690	-146.187154	4.449	0.011	59.461948	18.135404
507.513	-1.852292	1.041894	-146.191825	4.443	0.014	59.461948	18.135403
507.524	-1.839514	1.026124	-146.195828	4.443	0.019	59.461947	18.135403
507.535	-1.827158	1.010470	-146.198656	4.435	0.023	59.461947	18.135402
507.546	-1.803859	1.007792	-146.201497	4.437	0.022	59.461947	18.135402
507.557	-1.780560	1.005115	-146.204352	4.440	0.022	59.461946	18.135401
507.568	-1.757261	1.002438	-146.207193	4.442	0.021	59.461946	18.135401
507.579	-1.733961	0.999764	-146.210035	4.444	0.021	59.461945	18.135400
507.590	-1.710662	0.997090	-146.212890	4.446	0.020	59.461945	18.135400
507.601	-1.687363	0.994417	-146.215731	4.449	0.020	59.461945	18.135399
507.612	-1.664063	0.991746	-146.218586	4.451	0.019	59.461944	18.135399
507.623	-1.640763	0.989076	-146.221441	4.453	0.018	59.461944	18.135398
507.634	-1.617463	0.986407	-146.224296	4.456	0.018	59.461944	18.135398
507.645	-1.594163	0.983739	-146.227151	4.458	0.017	59.461943	18.135398
507.656	-1.570863	0.981072	-146.230006	4.460	0.017	59.461943	18.135397
507.667	-1.547563	0.978407	-146.232861	4.462	0.017	59.461943	18.135397
507.678	-1.524262	0.975742	-146.235730	4.465	0.016	59.461942	18.135396
507.689	-1.500962	0.973079	-146.238585	4.467	0.016	59.461942	18.135396
507.700	-1.477661	0.970417	-146.241440	4.469	0.015	59.461941	18.135395
507.711	-1.454361	0.967756	-146.244309	4.471	0.015	59.461941	18.135395
507.722	-1.431060	0.965096	-146.247164	4.474	0.014	59.461941	18.135394
507.733	-1.407759	0.962437	-146.250032	4.476	0.014	59.461940	18.135394
507.744	-1.384458	0.959780	-146.252901	4.478	0.013	59.461940	18.135393
507.755	-1.361157	0.957124	-146.255756	4.480	0.013	59.461940	18.135393
507.766	-1.337855	0.954469	-146.258625	4.483	0.012	59.461939	18.135392
507.777	-1.314554	0.951815	-146.261493	4.485	0.012	59.461939	18.135392
507.788	-1.291252	0.949162	-146.264362	4.487	0.011	59.461938	18.135391
507.799	-1.267951	0.946510	-146.267231	4.490	0.011	59.461938	18.135391
507.810	-1.251068	0.985696	-146.272941	4.495	0.009	59.461938	18.135390
507.821	-1.230394	1.054369	-146.278282	4.497	0.009	59.461937	18.135390
507.832	-1.215856	1.123505	-146.284060	4.502	0.010	59.461937	18.135389
507.843	-1.198067	1.191572	-146.288855	4.503	0.012	59.461937	18.135389
507.854	-1.195603	1.251509	-146.290453	4.502	0.008	59.461936	18.135388
507.865	-1.199516	1.286760	-146.287489	4.474	0.006	59.461936	18.135388
507.876	-1.205205	1.321341	-146.283691	4.457	0.000	59.461936	18.135387
507.887	-1.213074	1.299847	-146.283405	4.455	0.001	59.461935	18.135387
507.898	-1.225795	1.246158	-146.284251	4.459	0.001	59.461935	18.135386
507.909	-1.238514	1.192468	-146.285085	4.463	0.000	59.461934	18.135386
507.920	-1.251233	1.138778	-146.285904	4.467	-0.000	59.461934	18.135385
507.931	-1.263951	1.085088	-146.286710	4.471	-0.001	59.461934	18.135385
507.942	-1.276667	1.031398	-146.287503	4.474	-0.001	59.461933	18.135384
507.953	-1.289383	0.977708	-146.288281	4.478	-0.002	59.461933	18.135384
507.964	-1.302098	0.924018	-146.289046	4.482	-0.002	59.461933	18.135383
507.975	-1.314812	0.870327	-146.289811	4.486	-0.002	59.461932	18.135383
507.986	-1.326954	0.812008	-146.290658	4.486	-0.001	59.461932	18.135382
507.997	-1.331201	0.709641	-146.292639	4.475	0.005	59.461932	18.135382
508.008	-1.331371	0.606366	-146.293527	4.477	0.005	59.461931	18.135382
508.019	-1.340074	0.538466	-146.295795	4.478	0.005	59.461931	18.135381
508.030	-1.350250	0.478156	-146.298062	4.479	0.006	59.461930	18.135381
508.041	-1.360423	0.417846	-146.300316	4.480	0.006	59.461930	18.135380
508.052	-1.370594	0.357535	-146.302556	4.482	0.006	59.461930	18.135380
508.063	-1.380762	0.297223	-146.304783	4.483	0.006	59.461929	18.135379
508.074	-1.390928	0.236912	-146.307010	4.484	0.007	59.461929	18.135379
508.085	-1.401092	0.176600	-146.309223	4.485	0.007	59.461929	18.135378
508.096	-1.411253	0.116287	-146.311422	4.487	0.007	59.461928	18.135378
508.107	-1.421412	0.055975	-146.313608	4.488	0.007	59.461928	18.135377
508.118	-1.431569	-0.004339	-146.315793	4.489	0.008	59.461928	18.135377
508.129	-1.441722	-0.064652	-146.317952	4.491	0.008	59.461927	18.135376
508.140	-1.451875	-0.124966	-146.320124	4.492	0.008	59.461927	18.135376
508.151	-1.462024	-0.185280	-146.322268	4.493	0.008	59.461926	18.135375
508.162	-1.471032	-0.234878	-146.323962	4.495	0.009	59.461926	18.135375
508.173	-1.474740	-0.231969	-146.324276	4.505	0.010	59.461926	18.135374
508.184	-1.474969	-0.221041	-146.324044	4.511	0.012	59.461925	18.135374
508.195	-1.477517	-0.206737	-146.324850	4.524	0.013	59.461925	18.135373
508.206	-1.474496	-0.180898	-146.326080	4.532	0.012	59.461925	18.135373
508.217	-1.465725	-0.149046	-146.328265	4.540	0.012	59.461924	18.135372
508.228	-1.456956	-0.117195	-146.330437	4.549	0.012	59.461924	18.135372
508.239	-1.448189	-0.085342	-146.332623	4.557	0.012	59.461923	18.135371
508.250	-1.439422	-0.053490	-146.334781	4.565	0.012	59.461923	18.135371
508.261	-1.430657	-0.021637	-146.336953	4.574	0.012	59.461923	18.135370
508.272	-1.421893	0.010216	-146.339112	4.582	0.012	59.461922	18.135370
508.283	-1.413130	0.042070	-146.341270	4.590	0.012	59.461922	18.135369
508.294	-1.404368	0.073924	-146.343428	4.599	0.012	59.461921	18.135369
508.305	-1.395608	0.105778	-146.345573	4.607	0.012	59.461921	18.135368
508.316	-1.386848	0.137632	-146.347718	4.615	0.012	59.461921	18.135368
508.327	-1.378090	0.169487	-146.349849	4.624	0.012	59.461920	18.135367
508.338	-1.369333	0.201343	-146.351980	4.632	0.012	59.461920	18.135367
508.349	-1.360578	0.233198	-146.354111	4.640	0.011	59.461920	18.135366
508.360	-1.351823	0.265054	-146.356228	4.648	0.011	59.461919	18.135366
508.371	-1.343070	0.296910	-146.358345	4.657	0.011	59.461919	18.135365
508.382	-1.334317	0.328767	-146.360463	4.665	0.011	59.461918	18.135365
508.393	-1.325566	0.360623	-146.362566	4.673	0.011	59.461918	18.135364
508.404	-1.316816	0.392480	-146.364670	4.682	0.011	59.461918	18.135364
508.415	-1.308067	0.424338	-146.366774	4.690	0.011	59.461917	18.135363
508.426	-1.299319	0.456196	-146.368864	4.698	0.011	59.461917	18.135363
508.437	-1.290573	0.488054	-146.370954	4.706	0.011	59.461917	18.135362
508.448	-1.281827	0.519912	-146.373044	4.715	0.011	59.461916	18.135362
508.459	-1.273083	0.551771	-146.375120	4.723	0.011	59.461916	18.135361
508.470	-1.264339	0.583630	-146.377197	4.731	0.011	59.461915	18.135361
508.481	-1.255597	0.615489	-146.379259	4.739	0.011	59.461915	18.135360
508.492	-1.246856	0.647349	-146.381322	4.748	0.011	59.461915	18.135360
508.503	-1.238116	0.679209	-146.383385	4.756	0.011	59.461914	18.135359
508.514	-1.228583	0.713966	-146.385625	4.765	0.011	59.461914	18.135358
508.525	-1.226079	0.715360	-146.387551	4.771	0.009	59.461913	18.135358
508.536	-1.224111	0.715735	-146.389518	4.777	0.010	59.461913	18.135358
508.547	-1.223161	0.713302	-146.392032	4.783	0.009	59.461913	18.135357
508.558	-1.217686	0.709353	-146.393862	4.788	0.009	59.461912	18.135356
508.569	-1.211269	0.703624	-146.395993	4.793	0.011	59.461912	18.135356
508.580	-1.203867	0.697797	-146.397332	4.801	0.010	59.461912	18.135355
508.591	-1.196507	0.690264	-146.399449	4.806	0.011	59.461911	18.135355
508.602	-1.194912	0.682107	-146.401553	4.815	0.011	59.461911	18.135354
508.613	-1.204538	0.673183	-146.404039	4.823	0.011	59.461910	18.135354
508.624	-1.214163	0.664259	-146.406526	4.831	0.011	59.461910	18.135353
508.635	-1.223789	0.655334	-146.409012	4.839	0.011	59.461910	18.135353
508.646	-1.233413	0.646409	-146.411498	4.847	0.011	59.461909	18.135352
508.657	-1.243038	0.637483	-146.413970	4.855	0.011	59.461909	18.135352
508.668	-1.252662	0.628558	-146.416443	4.863	0.010	59.461908	18.135351
508.679	-1.262285	0.619631	-146.418916	4.871	0.010	59.461908	18.135351
508.690	-1.271908	0.610705	-146.421402	4.879	0.010	59.461908	18.135350
508.701	-1.281531	0.601777	-146.423874	4.887	0.010	59.461907	18.135350
508.712	-1.291153	0.592850	-146.426347	4.895	0.010	59.461907	18.135349
508.723	-1.300775	0.583922	-146.428819	4.903	0.010	59.461906	18.135349
508.734	-1.310397	0.574993	-146.431278	4.911	0.010	59.461906	18.135348
508.745	-1.320018	0.566064	-146.433751	4.919	0.010	59.461906	18.135347
508.756	-1.329639	0.557135	-146.436223	4.927	0.010	59.461905	18.135347
508.767	-1.339259	0.548205	-146.438682	4.935	0.009	59.461905	18.135346
508.778	-1.348879	0.539275	-146.441141	4.943	0.009	59.461904	18.135346
508.789	-1.358499	0.530345	-146.443613	4.951	0.009	59.461904	18.135345
508.800	-1.368118	0.521414	-146.446072	4.959	0.009	59.461903	18.135345
508.811	-1.377736	0.512483	-146.448531	4.967	0.009	59.461903	18.135344
508.822	-1.387354	0.503551	-146.450990	4.975	0.009	59.461903	18.135344
508.833	-1.396973	0.494619	-146.453435	4.983	0.009	59.461902	18.135343
508.844	-1.406590	0.485686	-146.455894	4.991	0.009	59.461902	18.135343
508.855	-1.416207	0.476753	-146.458353	4.999	0.008	59.461901	18.135342
508.866	-1.425824	0.467820	-146.460798	5.008	0.008	59.461901	18.135342
508.877	-1.444152	0.446286	-146.463667	5.015	0.009	59.461901	18.135341
508.888	-1.462675	0.416247	-146.466740	5.021	0.009	59.461900	18.135340
508.899	-1.484015	0.379679	-146.469814	5.028	0.008	59.461900	18.135340
508.910	-1.499405	0.346398	-146.473584	5.032	0.009	59.461899	18.135339
508.921	-1.513566	0.308042	-146.476521	5.038	0.009	59.461899	18.135339
508.932	-1.528275	0.266492	-146.480319	5.042	0.011	59.461899	18.135338
508.943	-1.538198	0.222030	-146.483638	5.048	0.012	59.461898	18.135338
508.954	-1.544580	0.175669	-146.487750	5.053	0.014	59.461898	18.135337
508.965	-1.550047	0.128873	-146.492121	5.059	0.016	59.461897	18.135337
508.976	-1.555512	0.082076	-146.496479	5.064	0.018	59.461897	18.135336
508.987	-1.559438	0.034570	-146.500864	5.069	0.020	59.461897	18.135336
508.998	-1.557075	0.015347	-146.504102	5.075	0.020	59.461896	18.135335
509.009	-1.554943	0.007927	-146.506834	5.081	0.020	59.461896	18.135334
509.020	-1.552811	0.000506	-146.509579	5.087	0.020	59.461895	18.135334
509.031	-1.550679	-0.006915	-146.512312	5.093	0.020	59.461895	18.135333
509.042	-1.548547	-0.014335	-146.515057	5.099	0.020	59.461894	18.135333
509.053	-1.546414	-0.021755	-146.517803	5.105	0.020	59.461894	18.135332
509.064	-1.544280	-0.029176	-146.520535	5.111	0.020	59.461894	18.135332
509.075	-1.542146	-0.036596	-146.523281	5.117	0.020	59.461893	18.135331
509.086	-1.540012	-0.044016	-146.526027	5.123	0.020	59.461893	18.135331
509.097	-1.537878	-0.051436	-146.528759	5.129	0.019	59.461892	18.135330
509.108	-1.535743	-0.058856	-146.531504	5.135	0.019	59.461892	18.135329
509.119	-1.533608	-0.066275	-146.534250	5.141	0.019	59.461891	18.135329
509.130	-1.531472	-0.073695	-146.536996	5.147	0.019	59.461891	18.135328
509.141	-1.529336	-0.081115	-146.539728	5.153	0.019	59.461891	18.135328
509.152	-1.527201	-0.088534	-146.542474	5.159	0.019	59.461890	18.135327
509.163	-1.525064	-0.095953	-146.545219	5.165	0.019	59.461890	18.135327
509.174	-1.522927	-0.103373	-146.547965	5.171	0.019	59.461889	18.135326
509.185	-1.520790	-0.110792	-146.550711	5.177	0.019	59.461889	18.135326
509.196	-1.518652	-0.118211	-146.553443	5.182	0.019	59.461888	18.135325
509.207	-1.516514	-0.125630	-146.556202	5.188	0.019	59.461888	18.135324
509.218	-1.514376	-0.133048	-146.558934	5.194	0.019	59.461888	18.135324
509.229	-1.510353	-0.122216	-146.561106	5.206	0.018	59.461887	18.135323
509.240	-1.509153	-0.088858	-146.563497	5.208	0.017	59.461887	18.135323
509.251	-1.508835	-0.050255	-146.565341	5.215	0.015	59.461886	18.135322
509.262	-1.505790	-0.015479	-146.567267	5.217	0.014	59.461886	18.135322
509.273	-1.506177	0.019855	-146.570027	5.224	0.012	59.461885	18.135321
509.284	-1.503592	0.056568	-146.572089	5.227	0.010	59.461885	18.135320
509.295	-1.504814	0.086533	-146.574138	5.229	0.010	59.461885	18.135320
509.306	-1.510801	0.109418	-146.575122	5.232	0.010	59.461884	18.135319
509.317	-1.516789	0.132303	-146.576105	5.234	0.009	59.461884	18.135319
509.328	-1.522777	0.155187	-146.577089	5.237	0.009	59.461883	18.135318
509.339	-1.528766	0.178071	-146.578086	5.240	0.009	59.461883	18.135318
509.350	-1.534755	0.200955	-146.579083	5.242	0.008	59.461882	18.135317
509.361	-1.540744	0.223839	-146.580081	5.245	0.008	59.461882	18.135316
509.372	-1.546734	0.246724	-146.581078	5.247	0.008	59.461882	18.135316
509.383	-1.552724	0.269607	-146.582075	5.250	0.007	59.461881	18.135315
509.394	-1.558714	0.292491	-146.583072	5.253	0.007	59.461881	18.135315
509.405	-1.564706	0.315375	-146.584083	5.255	0.006	59.461880	18.135314
509.416	-1.570697	0.338258	-146.585094	5.258	0.006	59.461880	18.135314
509.427	-1.576689	0.361142	-146.586105	5.260	0.006	59.461879	18.135313
509.438	-1.582681	0.384025	-146.587116	5.263	0.005	59.461879	18.135313
509.449	-1.588673	0.406908	-146.588127	5.266	0.005	59.461879	18.135312
509.460	-1.594667	0.429792	-146.589151	5.268	0.005	59.461878	18.135311
509.471	-1.600660	0.452675	-146.590162	5.271	0.004	59.461878	18.135311
509.482	-1.606654	0.475558	-146.591187	5.273	0.004	59.461877	18.135310
509.493	-1.612648	0.498440	-146.592211	5.276	0.003	59.461877	18.135310
509.504	-1.618643	0.521323	-146.593249	5.279	0.003	59.461876	18.135309
509.515	-1.624638	0.544206	-146.594260	5.281	0.003	59.461876	18.135309
509.526	-1.630634	0.567088	-146.595298	5.284	0.002	59.461876	18.135308
509.537	-1.636631	0.589971	-146.596336	5.286	0.002	59.461875	18.135307
509.548	-1.642627	0.612853	-146.597375	5.289	0.002	59.461875	18.135307
509.559	-1.648624	0.635735	-146.598413	5.291	0.001	59.461874	18.135306
509.570	-1.654621	0.658617	-146.599451	5.294	0.001	59.461874	18.135306
509.581	-1.662509	0.680672	-146.600448	5.296	0.000	59.461873	18.135305
509.592	-1.691753	0.693221	-146.602812	5.299	0.001	59.461873	18.135305
509.603	-1.719202	0.701252	-146.604984	5.300	0.001	59.461872	18.135304
509.614	-1.752634	0.704272	-146.607961	5.304	-0.001	59.461872	18.135303
509.625	-1.776601	0.704556	-146.610489	5.304	-0.001	59.461872	18.135303
509.636	-1.804284	0.700541	-146.612961	5.306	-0.001	59.461871	18.135302
509.647	-1.828681	0.693029	-146.615447	5.306	-0.001	59.461871	18.135302
509.658	-1.841174	0.681882	-146.618876	5.308	0.001	59.461870	18.135301
509.669	-1.831500	0.671058	-146.624067	5.308	0.002	59.461870	18.135300
509.680	-1.821825	0.660235	-146.629244	5.309	0.002	59.461869	18.135300
509.691	-1.812150	0.649414	-146.634449	5.309	0.003	59.461869	18.135299
509.702	-1.802473	0.638593	-146.639626	5.309	0.003	59.461869	18.135299
509.713	-1.792794	0.627773	-146.644817	5.309	0.004	59.461868	18.135298
509.724	-1.783116	0.616953	-146.650008	5.309	0.004	59.461868	18.135298
509.735	-1.773436	0.606135	-146.655199	5.309	0.005	59.461867	18.135297
509.746	-1.763756	0.595318	-146.660404	5.309	0.005	59.461867	18.135296
509.757	-1.754074	0.584501	-146.665595	5.309	0.006	59.461866	18.135296
509.768	-1.744392	0.573686	-146.670786	5.309	0.006	59.461866	18.135295
509.779	-1.734708	0.562871	-146.675990	5.309	0.007	59.461865	18.135295
509.790	-1.725024	0.552057	-146.681195	5.309	0.007	59.461865	18.135294
509.801	-1.715339	0.541244	-146.686399	5.309	0.008	59.461865	18.135294
509.812	-1.705652	0.530432	-146.691604	5.310	0.008	59.461864	18.135293
509.823	-1.695965	0.519620	-146.696822	5.310	0.009	59.461864	18.135292
509.834	-1.686277	0.508810	-146.702027	5.310	0.009	59.461863	18.135292
509.845	-1.676587	0.498001	-146.707245	5.310	0.010	59.461863	18.135291
509.856	-1.666898	0.487192	-146.712450	5.310	0.011	59.461862	18.135291
509.867	-1.657206	0.476384	-146.717668	5.310	0.011	59.461862	18.135290
509.878	-1.647514	0.465577	-146.722886	5.310	0.012	59.461861	18.135290
509.889	-1.637821	0.454771	-146.728105	5.310	0.012	59.461861	18.135289
509.900	-1.628127	0.443966	-146.733323	5.310	0.013	59.461861	18.135288
509.911	-1.618431	0.433162	-146.738541	5.310	0.013	59.461860	18.135288
509.922	-1.608736	0.422359	-146.743773	5.310	0.014	59.461860	18.135287
509.933	-1.599039	0.411556	-146.748991	5.310	0.014	59.461859	18.135287
509.944	-1.575607	0.433770	-146.764400	5.310	0.012	59.461859	18.135286
509.955	-1.551447	0.458566	-146.779700	5.314	0.010	59.461858	18.135286
509.966	-1.524076	0.486733	-146.799384	5.315	0.008	59.461858	18.135285
509.977	-1.497085	0.514664	-146.819984	5.318	0.008	59.461858	18.135284
509.988	-1.467021	0.542683	-146.842018	5.319	0.008	59.461857	18.135284
509.999	-1.435583	0.571793	-146.867659	5.320	0.007	59.461857	18.135283
510.010	-1.411396	0.594660	-146.891510	5.323	0.009	59.461856	18.135283
510.021	-1.397463	0.606286	-146.928188	5.320	0.008	59.461856	18.135282
510.032	-1.393242	0.606732	-146.974415	5.316	0.008	59.461855	18.135282
510.043	-1.389021	0.607182	-147.020642	5.313	0.008	59.461855	18.135281
510.054	-1.384801	0.607635	-147.066868	5.310	0.009	59.461854	18.135280
510.065	-1.380581	0.608091	-147.113095	5.306	0.009	59.461854	18.135280
510.076	-1.376362	0.608551	-147.159322	5.303	0.009	59.461854	18.135279
510.087	-1.372142	0.609014	-147.205548	5.300	0.009	59.461853	18.135279
510.098	-1.367923	0.609481	-147.251775	5.296	0.010	59.461853	18.135278
510.109	-1.363705	0.609951	-147.298002	5.293	0.010	59.461852	18.135278
510.120	-1.359487	0.610425	-147.344229	5.290	0.010	59.461852	18.135277
510.131	-1.355269	0.610901	-147.390455	5.286	0.010	59.461851	18.135277
510.142	-1.351052	0.611382	-147.436682	5.283	0.011	59.461851	18.135276
510.153	-1.346835	0.611865	-147.482909	5.280	0.011	59.461851	18.135275
510.164	-1.342618	0.612352	-147.529135	5.276	0.011	59.461850	18.135275
510.175	-1.338402	0.612843	-147.575348	5.273	0.011	59.461850	18.135274
510.186	-1.334186	0.613337	-147.621575	5.270	0.011	59.461849	18.135274
510.197	-1.329971	0.613834	-147.667802	5.266	0.012	59.461849	18.135273
510.208	-1.325756	0.614335	-147.714029	5.263	0.012	59.461848	18.135273
510.219	-1.321541	0.614839	-147.760255	5.260	0.012	59.461848	18.135272
510.230	-1.317327	0.615346	-147.806482	5.256	0.012	59.461847	18.135271
510.241	-1.313113	0.615857	-147.852695	5.253	0.012	59.461847	18.135271
510.252	-1.308900	0.616371	-147.898936	5.250	0.012	59.461847	18.135270
510.263	-1.304687	0.616889	-147.945149	5.246	0.013	59.461846	18.135270
510.274	-1.300474	0.617410	-147.991375	5.243	0.013	59.461846	18.135269
510.285	-1.296263	0.617935	-148.037602	5.240	0.013	59.461845	18.135269
510.296	-1.290939	0.615130	-148.095344	5.238	0.013	59.461845	18.135268
510.307	-1.286189	0.613638	-148.164070	5.236	0.014	59.461844	18.135267
510.318	-1.281004	0.614130	-148.232372	5.234	0.015	59.461844	18.135267
510.329	-1.277602	0.617489	-148.309607	5.230	0.017	59.461843	18.135266
510.340	-1.275912	0.622586	-148.375164	5.230	0.016	59.461843	18.135266
510.351	-1.272915	0.632869	-148.449326	5.226	0.021	59.461843	18.135265
510.362	-1.270908	0.644636	-148.524950	5.225	0.019	59.461842	18.135265
510.373	-1.270224	0.659590	-148.606912	5.222	0.023	59.461842	18.135264
510.384	-1.268954	0.673493	-148.701455	5.218	0.024	59.461841	18.135264
510.395	-1.267707	0.687397	-148.795999	5.215	0.025	59.461841	18.135263
510.406	-1.266483	0.701304	-148.890542	5.211	0.025	59.461840	18.135263
510.417	-1.265282	0.715213	-148.985086	5.207	0.026	59.461840	18.135262
510.428	-1.264104	0.729124	-149.079629	5.204	0.026	59.461840	18.135262
510.439	-1.262949	0.743037	-149.174186	5.200	0.027	59.461839	18.135261
510.450	-1.261817	0.756952	-149.268730	5.197	0.027	59.461839	18.135261
510.461	-1.260708	0.770868	-149.363273	5.193	0.028	59.461838	18.135260
510.472	-1.259621	0.784787	-149.457817	5.190	0.029	59.461838	18.135259
510.483	-1.258558	0.798707	-149.552374	5.186	0.029	59.461837	18.135259
510.494	-1.257518	0.812629	-149.646918	5.182	0.030	59.461837	18.135258
510.505	-1.256500	0.826552	-149.741461	5.179	0.030	59.461836	18.135258
510.516	-1.255506	0.840477	-149.836005	5.175	0.031	59.461836	18.135257
510.527	-1.254534	0.854404	-149.930548	5.172	0.031	59.461836	18.135257
510.538	-1.253585	0.868333	-150.025091	5.169	0.032	59.461835	18.135256
510.549	-1.252660	0.882263	-150.119649	5.165	0.032	59.461835	18.135256
510.560	-1.251758	0.896194	-150.214192	5.162	0.032	59.461834	18.135255
510.571	-1.250878	0.910127	-150.308749	5.158	0.033	59.461834	18.135255
510.582	-1.250022	0.924061	-150.403293	5.155	0.033	59.461833	18.135254
510.593	-1.249188	0.937997	-150.497836	5.151	0.034	59.461833	18.135254
510.604	-1.248378	0.951934	-150.592380	5.148	0.034	59.461833	18.135253
510.615	-1.247591	0.965873	-150.686937	5.144	0.035	59.461832	18.135253
510.626	-1.246826	0.979813	-150.781480	5.141	0.035	59.461832	18.135252
510.637	-1.246084	0.993754	-150.876024	5.138	0.035	59.461831	18.135252
510.648	-1.241572	1.003018	-150.976318	5.134	0.038	59.461831	18.135251
510.659	-1.226168	1.000740	-151.102390	5.131	0.040	59.461830	18.135251
510.670	-1.214232	0.996375	-151.208026	5.126	0.040	59.461830	18.135250
510.681	-1.197454	0.991003	-151.325751	5.122	0.040	59.461829	18.135250
510.692	-1.177826	0.985185	-151.444610	5.118	0.040	59.461829	18.135249
510.703	-1.156917	0.978029	-151.565354	5.116	0.039	59.461829	18.135249
510.714	-1.132045	0.968697	-151.697012	5.111	0.042	59.461828	18.135248
510.725	-1.111745	0.948966	-151.817729	5.108	0.041	59.461828	18.135248
510.736	-1.091014	0.913076	-151.960398	5.105	0.041	59.461827	18.135247
510.747	-1.070195	0.877237	-152.103081	5.101	0.041	59.461827	18.135247
510.758	-1.049286	0.841450	-152.245764	5.098	0.041	59.461826	18.135246
510.769	-1.028289	0.805715	-152.388474	5.095	0.041	59.461826	18.135246
510.780	-1.007202	0.770033	-152.531183	5.091	0.041	59.461825	18.135245
510.791	-0.986027	0.734403	-152.673907	5.088	0.041	59.461825	18.135245
510.802	-0.964764	0.698826	-152.816644	5.085	0.041	59.461825	18.135244
510.813	-0.943412	0.663302	-152.959395	5.082	0.041	59.461824	18.135244
510.824	-0.921972	0.627832	-153.102160	5.078	0.041	59.461824	18.135244
510.835	-0.900443	0.592415	-153.244925	5.075	0.041	59.461823	18.135243
510.846	-0.878827	0.557052	-153.387717	5.072	0.041	59.461823	18.135243
510.857	-0.857123	0.521743	-153.530522	5.069	0.041	59.461822	18.135242
510.868	-0.835330	0.486488	-153.673328	5.066	0.041	59.461822	18.135242
510.879	-0.813451	0.451287	-153.816161	5.063	0.041	59.461821	18.135241
510.890	-0.791483	0.416141	-153.958994	5.060	0.040	59.461821	18.135241
510.901	-0.769428	0.381050	-154.101840	5.057	0.040	59.461821	18.135240
510.912	-0.747286	0.346014	-154.244714	5.054	0.040	59.461820	18.135240
510.923	-0.725057	0.311034	-154.387588	5.051	0.040	59.461820	18.135239
510.934	-0.702740	0.276109	-154.530475	5.048	0.039	59.461819	18.135239
510.945	-0.680337	0.241240	-154.673377	5.045	0.039	59.461819	18.135238
510.956	-0.657846	0.206426	-154.816292	5.042	0.039	59.461818	18.135238
510.967	-0.635269	0.171669	-154.959220	5.040	0.038	59.461818	18.135237
510.978	-0.612606	0.136968	-155.102162	5.037	0.038	59.461817	18.135237
510.989	-0.607193	0.079790	-155.268669	5.028	0.041	59.461817	18.135237
511.000	-0.626401	0.007496	-155.420640	5.026	0.037	59.461817	18.135236
511.011	-0.651320	-0.071792	-155.589100	5.018	0.037	59.461816	18.135236
511.022	-0.652554	-0.101458	-155.784553	5.016	0.038	59.461816	18.135235
511.033	-0.642258	-0.102329	-155.995018	5.014	0.040	59.461815	18.135235
511.044	-0.631959	-0.103163	-156.205484	5.012	0.042	59.461815	18.135235
511.055	-0.621657	-0.103958	-156.415963	5.010	0.044	59.461814	18.135234
511.066	-0.611352	-0.104715	-156.626428	5.008	0.046	59.461814	18.135234
511.077	-0.601044	-0.105435	-156.836907	5.006	0.048	59.461813	18.135233
511.088	-0.590734	-0.106117	-157.047373	5.004	0.050	59.461813	18.135233
511.099	-0.580422	-0.106760	-157.257838	5.002	0.052	59.461812	18.135233
511.110	-0.570107	-0.107366	-157.468317	5.000	0.054	59.461812	18.135232
511.121	-0.559790	-0.107935	-157.678783	4.998	0.056	59.461812	18.135232
511.132	-0.549470	-0.108465	-157.889262	4.996	0.058	59.461811	18.135231
511.143	-0.539150	-0.108957	-158.099727	4.995	0.060	59.461811	18.135231
511.154	-0.528827	-0.109411	-158.310193	4.993	0.062	59.461810	18.135231
511.165	-0.518503	-0.109828	-158.520672	4.992	0.064	59.461810	18.135230
511.176	-0.508177	-0.110206	-158.731137	4.990	0.066	59.461809	18.135230
511.187	-0.497850	-0.110547	-158.941617	4.989	0.067	59.461809	18.135230
511.198	-0.487521	-0.110849	-159.152082	4.987	0.069	59.461808	18.135229
511.209	-0.477192	-0.111114	-159.362561	4.986	0.071	59.461808	18.135229
