Time Stamp	Roll	Pitch	Yaw	X Velocity	Y Velocity	Latitude	Longitude
(s)	(°)	(°)	(°)	(m.s^-1)	(m.s^-1)	(°)	(°)
1069.910	-1.511684	0.301463	-146.291915	-0.018	0.009	59.462020	18.135503
1069.929	-1.513628	0.301721	-146.292052	-0.017	0.008	59.462020	18.135503
1069.948	-1.513623	0.302501	-146.292243	-0.018	0.008	59.462020	18.135503
1069.967	-1.513758	0.302137	-146.292393	-0.018	0.008	59.462020	18.135503
1069.986	-1.513891	0.301773	-146.292557	-0.017	0.008	59.462020	18.135503
1070.005	-1.514026	0.301409	-146.292707	-0.017	0.008	59.462020	18.135503
1070.024	-1.514160	0.301045	-146.292871	-0.017	0.008	59.462020	18.135503
1070.043	-1.514294	0.300680	-146.293035	-0.017	0.008	59.462020	18.135503
1070.062	-1.514428	0.300316	-146.293185	-0.017	0.008	59.462020	18.135503
1070.081	-1.514562	0.299952	-146.293349	-0.017	0.008	59.462020	18.135503
1070.100	-1.514696	0.299588	-146.293500	-0.017	0.008	59.462020	18.135503
1070.119	-1.514831	0.299224	-146.293663	-0.017	0.008	59.462020	18.135503
1070.138	-1.514965	0.298860	-146.293814	-0.017	0.008	59.462020	18.135503
1070.157	-1.515099	0.298496	-146.293978	-0.017	0.008	59.462020	18.135503
1070.176	-1.515233	0.298132	-146.294128	-0.017	0.008	59.462020	18.135503
1070.195	-1.515367	0.297768	-146.294292	-0.017	0.008	59.462020	18.135503
1070.214	-1.515501	0.297404	-146.294442	-0.016	0.008	59.462020	18.135503
1070.233	-1.516090	0.298183	-146.294893	-0.017	0.009	59.462020	18.135503
1070.252	-1.515300	0.298407	-146.295398	-0.017	0.009	59.462020	18.135503
1070.271	-1.516313	0.298540	-146.295480	-0.016	0.008	59.462020	18.135503
1070.290	-1.514408	0.299714	-146.295385	-0.017	0.010	59.462020	18.135503
1070.309	-1.515299	0.298742	-146.295781	-0.017	0.010	59.462020	18.135503
1070.328	-1.515148	0.298411	-146.296122	-0.017	0.010	59.462020	18.135503
1070.347	-1.514998	0.298079	-146.296478	-0.017	0.010	59.462020	18.135503
1070.366	-1.514847	0.297748	-146.296819	-0.017	0.010	59.462020	18.135503
1070.385	-1.514696	0.297416	-146.297174	-0.016	0.009	59.462020	18.135503
1070.404	-1.514546	0.297085	-146.297529	-0.016	0.009	59.462020	18.135503
1070.423	-1.514395	0.296753	-146.297871	-0.016	0.009	59.462020	18.135503
1070.442	-1.514244	0.296422	-146.298226	-0.016	0.009	59.462020	18.135503
1070.461	-1.514094	0.296090	-146.298581	-0.016	0.009	59.462020	18.135503
1070.480	-1.513943	0.295759	-146.298923	-0.016	0.009	59.462020	18.135503
1070.499	-1.513792	0.295427	-146.299278	-0.016	0.009	59.462020	18.135503
1070.518	-1.513641	0.295096	-146.299633	-0.016	0.009	59.462020	18.135503
1070.537	-1.513491	0.294764	-146.299975	-0.016	0.009	59.462020	18.135503
1070.556	-1.513340	0.294433	-146.300330	-0.016	0.009	59.462020	18.135503
1070.575	-1.513983	0.294098	-146.300863	-0.016	0.009	59.462020	18.135503
1070.594	-1.512612	0.294445	-146.301149	-0.016	0.008	59.462020	18.135503
1070.613	-1.512926	0.293499	-146.301464	-0.015	0.009	59.462020	18.135503
1070.632	-1.512906	0.293839	-146.301914	-0.015	0.009	59.462020	18.135503
1070.651	-1.511881	0.293131	-146.302051	-0.016	0.010	59.462020	18.135503
1070.670	-1.512014	0.293055	-146.302256	-0.016	0.010	59.462020	18.135503
1070.689	-1.512146	0.292980	-146.302447	-0.016	0.009	59.462020	18.135503
1070.708	-1.512278	0.292904	-146.302652	-0.016	0.009	59.462020	18.135503
1070.727	-1.512410	0.292829	-146.302857	-0.015	0.009	59.462020	18.135503
1070.746	-1.512543	0.292753	-146.303062	-0.015	0.009	59.462020	18.135503
1070.765	-1.512675	0.292678	-146.303267	-0.015	0.009	59.462020	18.135503
1070.784	-1.512808	0.292602	-146.303472	-0.015	0.009	59.462020	18.135503
1070.803	-1.512940	0.292527	-146.303663	-0.015	0.009	59.462020	18.135503
1070.822	-1.513073	0.292452	-146.303868	-0.015	0.009	59.462020	18.135503
1070.841	-1.513205	0.292376	-146.304073	-0.015	0.009	59.462020	18.135503
1070.860	-1.513337	0.292301	-146.304278	-0.015	0.009	59.462020	18.135503
1070.879	-1.513470	0.292225	-146.304483	-0.015	0.009	59.462020	18.135503
1070.898	-1.513602	0.292150	-146.304687	-0.015	0.008	59.462020	18.135503
1070.917	-1.513673	0.292201	-146.304906	-0.015	0.009	59.462020	18.135503
1070.936	-1.513494	0.293042	-146.305138	-0.015	0.010	59.462020	18.135503
1070.955	-1.513391	0.292202	-146.305534	-0.016	0.008	59.462020	18.135503
1070.974	-1.513968	0.291913	-146.305357	-0.016	0.009	59.462020	18.135503
1070.993	-1.514334	0.290992	-146.305261	-0.014	0.009	59.462020	18.135503
1071.012	-1.514445	0.291006	-146.305316	-0.014	0.009	59.462020	18.135503
1071.031	-1.514556	0.291019	-146.305370	-0.014	0.009	59.462020	18.135503
1071.050	-1.514668	0.291032	-146.305411	-0.014	0.009	59.462020	18.135503
1071.069	-1.514779	0.291045	-146.305466	-0.014	0.009	59.462020	18.135503
1071.088	-1.514890	0.291059	-146.305521	-0.014	0.009	59.462020	18.135503
1071.107	-1.515002	0.291072	-146.305575	-0.014	0.009	59.462020	18.135503
1071.126	-1.515113	0.291085	-146.305616	-0.014	0.009	59.462020	18.135503
1071.145	-1.515224	0.291099	-146.305671	-0.014	0.009	59.462020	18.135503
1071.164	-1.515336	0.291112	-146.305712	-0.014	0.009	59.462020	18.135503
1071.183	-1.515447	0.291125	-146.305767	-0.014	0.009	59.462020	18.135503
1071.202	-1.515558	0.291138	-146.305821	-0.014	0.009	59.462020	18.135503
1071.221	-1.515670	0.291152	-146.305862	-0.014	0.009	59.462020	18.135503
1071.240	-1.515781	0.291165	-146.305917	-0.013	0.009	59.462020	18.135503
1071.259	-1.515892	0.291178	-146.305971	-0.013	0.009	59.462020	18.135503
1071.278	-1.516004	0.291191	-146.306026	-0.013	0.009	59.462020	18.135503
1071.297	-1.515195	0.291371	-146.305439	-0.015	0.009	59.462020	18.135503
1071.316	-1.516154	0.291543	-146.305425	-0.014	0.009	59.462020	18.135503
1071.335	-1.515764	0.291925	-146.305439	-0.014	0.009	59.462020	18.135503
1071.354	-1.516034	0.289839	-146.305480	-0.013	0.007	59.462020	18.135503
1071.373	-1.516254	0.290882	-146.305343	-0.014	0.007	59.462020	18.135503
1071.392	-1.516191	0.290860	-146.305466	-0.014	0.007	59.462020	18.135503
1071.411	-1.516128	0.290837	-146.305589	-0.014	0.007	59.462020	18.135503
1071.430	-1.516065	0.290815	-146.305726	-0.014	0.007	59.462020	18.135503
1071.449	-1.516001	0.290792	-146.305849	-0.014	0.008	59.462020	18.135503
1071.468	-1.515938	0.290770	-146.305971	-0.014	0.008	59.462020	18.135503
1071.487	-1.515875	0.290747	-146.306094	-0.014	0.008	59.462020	18.135503
1071.506	-1.515812	0.290725	-146.306217	-0.014	0.008	59.462020	18.135503
1071.525	-1.515749	0.290702	-146.306340	-0.014	0.008	59.462020	18.135503
1071.544	-1.515686	0.290680	-146.306477	-0.014	0.008	59.462020	18.135503
1071.563	-1.515623	0.290657	-146.306600	-0.014	0.008	59.462020	18.135503
1071.582	-1.515560	0.290635	-146.306723	-0.014	0.008	59.462020	18.135503
1071.601	-1.515497	0.290612	-146.306846	-0.014	0.008	59.462020	18.135503
1071.620	-1.515434	0.290590	-146.306969	-0.014	0.008	59.462020	18.135503
1071.639	-1.515370	0.290567	-146.307092	-0.014	0.009	59.462020	18.135503
1071.658	-1.516292	0.289686	-146.306573	-0.014	0.010	59.462020	18.135503
1071.677	-1.515798	0.289983	-146.306532	-0.013	0.009	59.462020	18.135503
1071.696	-1.514882	0.288815	-146.307064	-0.014	0.008	59.462020	18.135503
1071.715	-1.516140	0.289074	-146.307775	-0.015	0.008	59.462020	18.135503
1071.734	-1.515452	0.289044	-146.307515	-0.014	0.008	59.462020	18.135503
1071.753	-1.515561	0.289176	-146.307542	-0.014	0.008	59.462020	18.135503
1071.772	-1.515670	0.289308	-146.307570	-0.014	0.009	59.462020	18.135503
1071.791	-1.515779	0.289441	-146.307611	-0.014	0.009	59.462020	18.135503
1071.810	-1.515888	0.289573	-146.307638	-0.014	0.009	59.462020	18.135503
1071.829	-1.515997	0.289705	-146.307665	-0.014	0.009	59.462020	18.135503
1071.848	-1.516106	0.289838	-146.307706	-0.014	0.009	59.462020	18.135503
1071.867	-1.516215	0.289970	-146.307734	-0.014	0.009	59.462020	18.135503
1071.886	-1.516324	0.290102	-146.307761	-0.014	0.009	59.462020	18.135503
1071.905	-1.516433	0.290235	-146.307802	-0.013	0.009	59.462020	18.135503
1071.924	-1.516970	0.289667	-146.307365	-0.013	0.009	59.462020	18.135503
1071.943	-1.516489	0.289220	-146.307911	-0.014	0.011	59.462020	18.135503
1071.962	-1.517386	0.287850	-146.307870	-0.013	0.010	59.462020	18.135503
1071.981	-1.517047	0.287446	-146.307624	-0.013	0.010	59.462020	18.135503
1072.000	-1.516003	0.287045	-146.307215	-0.013	0.010	59.462020	18.135503
1072.019	-1.515998	0.287063	-146.307283	-0.013	0.010	59.462020	18.135503
1072.038	-1.515993	0.287081	-146.307338	-0.013	0.010	59.462020	18.135503
1072.057	-1.515987	0.287098	-146.307406	-0.013	0.010	59.462020	18.135503
1072.076	-1.515982	0.287116	-146.307460	-0.013	0.010	59.462020	18.135503
1072.095	-1.515976	0.287134	-146.307529	-0.013	0.010	59.462020	18.135503
1072.114	-1.515971	0.287151	-146.307583	-0.013	0.010	59.462020	18.135503
1072.133	-1.515965	0.287169	-146.307652	-0.013	0.009	59.462020	18.135503
1072.152	-1.515960	0.287187	-146.307706	-0.013	0.009	59.462020	18.135503
1072.171	-1.515955	0.287204	-146.307775	-0.013	0.009	59.462020	18.135503
1072.190	-1.515949	0.287222	-146.307829	-0.013	0.009	59.462020	18.135503
1072.209	-1.515944	0.287240	-146.307898	-0.013	0.009	59.462020	18.135503
1072.228	-1.515939	0.287257	-146.307966	-0.013	0.009	59.462020	18.135503
1072.247	-1.515933	0.287275	-146.308021	-0.013	0.009	59.462020	18.135503
1072.266	-1.515928	0.287293	-146.308075	-0.013	0.009	59.462020	18.135503
1072.285	-1.515922	0.287310	-146.308143	-0.013	0.009	59.462020	18.135503
1072.304	-1.515917	0.287328	-146.308198	-0.014	0.009	59.462020	18.135503
1072.323	-1.515912	0.287346	-146.308266	-0.014	0.009	59.462020	18.135503
1072.342	-1.516044	0.287911	-146.307338	-0.013	0.009	59.462020	18.135503
1072.361	-1.516013	0.287593	-146.307256	-0.013	0.010	59.462020	18.135503
1072.380	-1.514829	0.287268	-146.306941	-0.012	0.007	59.462020	18.135503
1072.399	-1.513685	0.287348	-146.306941	-0.014	0.008	59.462020	18.135503
1072.418	-1.513395	0.286205	-146.307406	-0.014	0.009	59.462020	18.135503
1072.437	-1.511817	0.286432	-146.307406	-0.014	0.009	59.462020	18.135503
1072.456	-1.512053	0.286371	-146.307474	-0.014	0.009	59.462020	18.135503
1072.475	-1.512288	0.286310	-146.307542	-0.014	0.009	59.462020	18.135503
1072.494	-1.512524	0.286248	-146.307611	-0.014	0.009	59.462020	18.135503
1072.513	-1.512759	0.286187	-146.307679	-0.014	0.009	59.462020	18.135503
1072.532	-1.512995	0.286126	-146.307747	-0.014	0.009	59.462020	18.135503
1072.551	-1.513231	0.286065	-146.307816	-0.014	0.009	59.462020	18.135503
1072.570	-1.513467	0.286004	-146.307884	-0.014	0.009	59.462020	18.135503
1072.589	-1.513702	0.285942	-146.307952	-0.014	0.009	59.462020	18.135503
1072.608	-1.513938	0.285881	-146.308007	-0.014	0.009	59.462020	18.135503
1072.627	-1.514174	0.285820	-146.308089	-0.014	0.009	59.462020	18.135503
1072.646	-1.514409	0.285759	-146.308143	-0.014	0.009	59.462020	18.135503
1072.665	-1.514645	0.285697	-146.308212	-0.014	0.009	59.462020	18.135503
1072.684	-1.514881	0.285636	-146.308280	-0.014	0.009	59.462020	18.135503
1072.703	-1.515116	0.285575	-146.308348	-0.014	0.009	59.462020	18.135503
1072.722	-1.515814	0.286187	-146.309004	-0.012	0.009	59.462020	18.135503
1072.741	-1.513757	0.285518	-146.308963	-0.013	0.007	59.462020	18.135503
1072.760	-1.514288	0.284798	-146.308253	-0.012	0.009	59.462020	18.135503
1072.779	-1.512708	0.285953	-146.307993	-0.012	0.009	59.462020	18.135503
1072.798	-1.512666	0.285752	-146.308198	-0.012	0.008	59.462020	18.135503
1072.817	-1.512635	0.285523	-146.308471	-0.012	0.008	59.462020	18.135503
1072.836	-1.512604	0.285294	-146.308731	-0.012	0.008	59.462020	18.135503
1072.855	-1.512573	0.285064	-146.309004	-0.012	0.008	59.462020	18.135503
1072.874	-1.512542	0.284835	-146.309264	-0.012	0.007	59.462020	18.135503
1072.893	-1.512511	0.284606	-146.309537	-0.012	0.007	59.462020	18.135503
1072.912	-1.512480	0.284377	-146.309796	-0.012	0.007	59.462020	18.135503
1072.931	-1.512429	0.284970	-146.309673	-0.012	0.008	59.462020	18.135503
1072.950	-1.511952	0.283898	-146.309154	-0.012	0.008	59.462020	18.135503
1072.969	-1.512327	0.283856	-146.309291	-0.012	0.008	59.462020	18.135503
1072.988	-1.512701	0.283815	-146.309428	-0.012	0.008	59.462020	18.135503
1073.007	-1.513076	0.283773	-146.309564	-0.011	0.008	59.462020	18.135503
1073.026	-1.513451	0.283731	-146.309701	-0.011	0.008	59.462020	18.135503
1073.045	-1.513825	0.283690	-146.309824	-0.011	0.008	59.462020	18.135503
1073.064	-1.514200	0.283648	-146.309960	-0.011	0.008	59.462020	18.135503
1073.083	-1.513622	0.284449	-146.310234	-0.012	0.008	59.462020	18.135503
1073.102	-1.514458	0.283659	-146.310479	-0.012	0.008	59.462020	18.135503
1073.121	-1.514406	0.283692	-146.310671	-0.012	0.008	59.462020	18.135503
1073.140	-1.514354	0.283725	-146.310862	-0.012	0.008	59.462020	18.135503
1073.159	-1.514302	0.283757	-146.311053	-0.011	0.008	59.462020	18.135503
1073.178	-1.514249	0.283790	-146.311231	-0.011	0.008	59.462020	18.135503
1073.197	-1.514198	0.283822	-146.311436	-0.011	0.008	59.462020	18.135503
1073.216	-1.514146	0.283855	-146.311613	-0.011	0.007	59.462020	18.135503
1073.235	-1.514093	0.283887	-146.311804	-0.011	0.007	59.462020	18.135503
1073.254	-1.514041	0.283920	-146.311996	-0.011	0.007	59.462020	18.135503
1073.273	-1.513989	0.283953	-146.312187	-0.011	0.007	59.462020	18.135503
1073.292	-1.513937	0.283985	-146.312378	-0.011	0.007	59.462020	18.135503
1073.311	-1.513885	0.284018	-146.312569	-0.011	0.007	59.462020	18.135503
1073.330	-1.513833	0.284050	-146.312761	-0.011	0.007	59.462020	18.135503
1073.349	-1.513781	0.284083	-146.312952	-0.011	0.007	59.462020	18.135503
1073.368	-1.513729	0.284115	-146.313143	-0.011	0.007	59.462020	18.135503
1073.387	-1.513677	0.284148	-146.313334	-0.011	0.007	59.462020	18.135503
1073.406	-1.513625	0.284181	-146.313526	-0.011	0.007	59.462020	18.135503
1073.425	-1.514186	0.284084	-146.313239	-0.010	0.007	59.462020	18.135503
1073.444	-1.513218	0.283443	-146.312242	-0.011	0.009	59.462020	18.135503
1073.463	-1.513868	0.283762	-146.312378	-0.009	0.007	59.462020	18.135503
1073.482	-1.512951	0.283836	-146.312597	-0.011	0.006	59.462020	18.135503
1073.501	-1.513182	0.282812	-146.312788	-0.010	0.009	59.462020	18.135503
1073.520	-1.512912	0.283967	-146.312774	-0.010	0.008	59.462020	18.135503
1073.539	-1.512949	0.283835	-146.312870	-0.010	0.008	59.462020	18.135503
1073.558	-1.512986	0.283703	-146.312979	-0.010	0.008	59.462020	18.135503
1073.577	-1.513023	0.283571	-146.313075	-0.010	0.008	59.462020	18.135503
1073.596	-1.513060	0.283439	-146.313171	-0.010	0.008	59.462020	18.135503
1073.615	-1.513098	0.283307	-146.313280	-0.010	0.008	59.462020	18.135503
1073.634	-1.513134	0.283175	-146.313375	-0.010	0.008	59.462020	18.135503
1073.653	-1.513172	0.283043	-146.313485	-0.010	0.008	59.462020	18.135503
1073.672	-1.513209	0.282911	-146.313580	-0.010	0.007	59.462020	18.135503
1073.691	-1.513246	0.282780	-146.313690	-0.010	0.007	59.462020	18.135503
1073.710	-1.513283	0.282648	-146.313785	-0.010	0.007	59.462020	18.135503
1073.729	-1.513320	0.282516	-146.313881	-0.010	0.007	59.462020	18.135503
1073.748	-1.513357	0.282384	-146.313990	-0.010	0.007	59.462020	18.135503
1073.767	-1.513394	0.282252	-146.314086	-0.009	0.007	59.462020	18.135503
1073.786	-1.512215	0.282155	-146.314004	-0.010	0.008	59.462020	18.135503
1073.805	-1.512543	0.281405	-146.314564	-0.008	0.008	59.462020	18.135503
1073.824	-1.511449	0.282581	-146.314250	-0.009	0.007	59.462020	18.135503
1073.843	-1.512009	0.281962	-146.314195	-0.010	0.008	59.462020	18.135503
1073.862	-1.511824	0.281885	-146.314605	-0.010	0.008	59.462020	18.135503
1073.881	-1.511785	0.281759	-146.315028	-0.010	0.008	59.462020	18.135503
1073.900	-1.511746	0.281633	-146.315452	-0.010	0.008	59.462020	18.135503
1073.919	-1.511776	0.281734	-146.315875	-0.009	0.008	59.462020	18.135503
1073.938	-1.511961	0.280778	-146.315821	-0.009	0.008	59.462020	18.135503
1073.957	-1.511750	0.280558	-146.315957	-0.009	0.008	59.462020	18.135503
1073.976	-1.511540	0.280339	-146.316080	-0.009	0.008	59.462020	18.135503
1073.995	-1.511329	0.280119	-146.316217	-0.009	0.008	59.462020	18.135503
1074.014	-1.511119	0.279900	-146.316340	-0.009	0.008	59.462020	18.135503
1074.033	-1.510908	0.279680	-146.316463	-0.009	0.008	59.462020	18.135503
1074.052	-1.510697	0.279461	-146.316599	-0.009	0.008	59.462020	18.135503
1074.071	-1.510486	0.279241	-146.316722	-0.009	0.008	59.462020	18.135503
1074.090	-1.510276	0.279022	-146.316859	-0.009	0.008	59.462020	18.135503
1074.109	-1.510065	0.278802	-146.316982	-0.009	0.008	59.462020	18.135503
1074.128	-1.509855	0.278583	-146.317118	-0.009	0.008	59.462020	18.135503
1074.147	-1.510385	0.277772	-146.316545	-0.007	0.007	59.462020	18.135503
1074.166	-1.510923	0.278796	-146.316203	-0.007	0.006	59.462020	18.135503
1074.185	-1.510112	0.278630	-146.316285	-0.008	0.008	59.462020	18.135503
1074.204	-1.510241	0.278374	-146.316531	-0.008	0.008	59.462020	18.135503
1074.223	-1.510370	0.278118	-146.316791	-0.008	0.008	59.462020	18.135503
1074.242	-1.510498	0.277863	-146.317036	-0.008	0.008	59.462020	18.135503
1074.261	-1.510627	0.277607	-146.317296	-0.008	0.008	59.462020	18.135503
1074.280	-1.510757	0.277352	-146.317542	-0.008	0.008	59.462020	18.135503
1074.299	-1.510885	0.277096	-146.317788	-0.008	0.008	59.462020	18.135503
1074.318	-1.511014	0.276841	-146.318047	-0.008	0.008	59.462020	18.135503
1074.337	-1.511143	0.276585	-146.318293	-0.008	0.008	59.462020	18.135503
1074.356	-1.511271	0.276329	-146.318539	-0.008	0.008	59.462020	18.135503
1074.375	-1.511400	0.276074	-146.318799	-0.008	0.007	59.462020	18.135503
1074.394	-1.511529	0.275818	-146.319044	-0.008	0.007	59.462020	18.135503
1074.413	-1.511658	0.275563	-146.319290	-0.008	0.007	59.462020	18.135503
1074.432	-1.511787	0.275307	-146.319550	-0.008	0.007	59.462020	18.135503
1074.451	-1.511915	0.275051	-146.319796	-0.008	0.007	59.462020	18.135503
1074.470	-1.512044	0.274796	-146.320055	-0.008	0.007	59.462020	18.135503
1074.489	-1.511639	0.275040	-146.320178	-0.008	0.007	59.462020	18.135503
1074.508	-1.512193	0.274983	-146.320479	-0.007	0.007	59.462020	18.135503
1074.527	-1.512214	0.274907	-146.319837	-0.008	0.008	59.462020	18.135503
1074.546	-1.513074	0.273662	-146.320820	-0.007	0.006	59.462020	18.135503
1074.565	-1.513224	0.273437	-146.320629	-0.006	0.006	59.462020	18.135503
1074.584	-1.513758	0.273207	-146.320520	-0.006	0.006	59.462020	18.135503
1074.603	-1.513738	0.272872	-146.320643	-0.006	0.006	59.462020	18.135503
1074.622	-1.513719	0.272537	-146.320766	-0.006	0.006	59.462020	18.135503
1074.641	-1.513700	0.272202	-146.320889	-0.006	0.006	59.462020	18.135503
1074.660	-1.513681	0.271867	-146.321012	-0.006	0.006	59.462020	18.135503
1074.679	-1.513661	0.271532	-146.321135	-0.006	0.006	59.462020	18.135503
1074.698	-1.513642	0.271197	-146.321257	-0.006	0.006	59.462020	18.135503
1074.717	-1.513623	0.270862	-146.321394	-0.006	0.006	59.462020	18.135503
1074.736	-1.513603	0.270527	-146.321503	-0.006	0.006	59.462020	18.135503
1074.755	-1.513584	0.270192	-146.321626	-0.006	0.006	59.462020	18.135503
1074.774	-1.513565	0.269857	-146.321749	-0.006	0.006	59.462020	18.135503
1074.793	-1.513545	0.269522	-146.321886	-0.006	0.006	59.462020	18.135503
1074.812	-1.513526	0.269187	-146.322009	-0.006	0.006	59.462020	18.135503
1074.831	-1.513507	0.268852	-146.322132	-0.006	0.006	59.462020	18.135503
1074.850	-1.512141	0.269607	-146.322487	-0.006	0.007	59.462020	18.135503
1074.869	-1.513197	0.268723	-146.322159	-0.006	0.008	59.462020	18.135503
1074.888	-1.512624	0.267921	-146.321640	-0.006	0.008	59.462020	18.135503
1074.907	-1.511731	0.268060	-146.321940	-0.006	0.008	59.462020	18.135503
1074.926	-1.511785	0.267957	-146.322733	-0.006	0.008	59.462020	18.135503
1074.945	-1.511873	0.268017	-146.322815	-0.006	0.008	59.462020	18.135503
1074.964	-1.511961	0.268077	-146.322897	-0.006	0.008	59.462020	18.135503
1074.983	-1.512049	0.268137	-146.322979	-0.006	0.008	59.462020	18.135503
1075.002	-1.512138	0.268198	-146.323061	-0.006	0.008	59.462020	18.135503
1075.021	-1.512226	0.268258	-146.323156	-0.006	0.008	59.462020	18.135503
1075.040	-1.512314	0.268318	-146.323238	-0.006	0.008	59.462020	18.135503
1075.059	-1.512402	0.268378	-146.323334	-0.005	0.008	59.462020	18.135503
1075.078	-1.512490	0.268438	-146.323416	-0.005	0.008	59.462020	18.135503
1075.097	-1.512579	0.268499	-146.323498	-0.005	0.008	59.462020	18.135503
1075.116	-1.512667	0.268559	-146.323593	-0.005	0.008	59.462020	18.135503
1075.135	-1.512755	0.268619	-146.323675	-0.005	0.008	59.462020	18.135503
1075.154	-1.512843	0.268679	-146.323757	-0.005	0.008	59.462020	18.135503
1075.173	-1.512931	0.268739	-146.323853	-0.005	0.008	59.462020	18.135503
1075.192	-1.513019	0.268800	-146.323935	-0.005	0.008	59.462020	18.135503
1075.211	-1.513269	0.268328	-146.323757	-0.004	0.008	59.462020	18.135503
1075.230	-1.512488	0.267372	-146.324222	-0.004	0.008	59.462020	18.135503
1075.249	-1.513317	0.267064	-146.324591	-0.004	0.008	59.462020	18.135503
1075.268	-1.513468	0.267438	-146.324932	-0.005	0.009	59.462020	18.135503
1075.287	-1.514584	0.267299	-146.324946	-0.005	0.009	59.462020	18.135503
1075.306	-1.514626	0.267270	-146.325069	-0.005	0.009	59.462020	18.135503
1075.325	-1.514666	0.267242	-146.325178	-0.005	0.009	59.462020	18.135503
1075.344	-1.514708	0.267213	-146.325301	-0.005	0.009	59.462020	18.135503
1075.363	-1.514749	0.267184	-146.325424	-0.005	0.009	59.462020	18.135503
1075.382	-1.514790	0.267155	-146.325547	-0.005	0.008	59.462020	18.135503
1075.401	-1.514831	0.267126	-146.325670	-0.005	0.008	59.462020	18.135503
1075.420	-1.514872	0.267097	-146.325793	-0.005	0.008	59.462020	18.135503
1075.439	-1.514913	0.267069	-146.325916	-0.005	0.008	59.462020	18.135503
1075.458	-1.514954	0.267040	-146.326039	-0.005	0.008	59.462020	18.135503
1075.477	-1.514996	0.267011	-146.326162	-0.005	0.008	59.462020	18.135503
1075.496	-1.515037	0.266982	-146.326284	-0.005	0.008	59.462020	18.135503
1075.515	-1.515077	0.266953	-146.326394	-0.005	0.008	59.462020	18.135503
1075.534	-1.515119	0.266924	-146.326530	-0.004	0.008	59.462020	18.135503
1075.553	-1.514725	0.267052	-146.326681	-0.005	0.008	59.462020	18.135503
1075.572	-1.514524	0.266859	-146.326448	-0.004	0.008	59.462020	18.135503
1075.591	-1.513995	0.266489	-146.326257	-0.003	0.008	59.462020	18.135503
1075.610	-1.514095	0.265875	-146.326804	-0.003	0.007	59.462020	18.135503
1075.629	-1.514783	0.264992	-146.326681	-0.004	0.009	59.462020	18.135503
1075.648	-1.514791	0.265224	-146.326571	-0.004	0.009	59.462020	18.135503
1075.667	-1.514799	0.265456	-146.326462	-0.003	0.009	59.462020	18.135503
1075.686	-1.514807	0.265688	-146.326353	-0.003	0.009	59.462020	18.135503
1075.705	-1.514815	0.265920	-146.326257	-0.003	0.009	59.462020	18.135503
1075.724	-1.514823	0.266152	-146.326148	-0.003	0.009	59.462020	18.135503
1075.743	-1.514830	0.266385	-146.326052	-0.003	0.009	59.462020	18.135503
1075.762	-1.514839	0.266617	-146.325957	-0.003	0.009	59.462020	18.135503
1075.781	-1.514846	0.266849	-146.325834	-0.003	0.009	59.462020	18.135503
1075.800	-1.514854	0.267081	-146.325738	-0.003	0.009	59.462020	18.135503
1075.819	-1.514863	0.267313	-146.325642	-0.003	0.009	59.462020	18.135503
1075.838	-1.514870	0.267545	-146.325533	-0.003	0.009	59.462020	18.135503
1075.857	-1.514878	0.267777	-146.325424	-0.003	0.009	59.462020	18.135503
1075.876	-1.514886	0.268009	-146.325328	-0.003	0.009	59.462020	18.135503
1075.895	-1.514894	0.268241	-146.325219	-0.003	0.009	59.462020	18.135503
1075.914	-1.515210	0.268350	-146.325096	-0.003	0.010	59.462020	18.135503
1075.933	-1.514709	0.268349	-146.325506	-0.003	0.010	59.462020	18.135503
1075.952	-1.514256	0.268465	-146.325724	-0.003	0.007	59.462020	18.135503
1075.971	-1.515053	0.269080	-146.326093	-0.003	0.009	59.462020	18.135503
1075.990	-1.514495	0.268695	-146.325902	-0.003	0.009	59.462020	18.135503
1076.009	-1.514353	0.268761	-146.325875	-0.003	0.009	59.462020	18.135503
1076.028	-1.514210	0.268827	-146.325847	-0.003	0.009	59.462020	18.135503
1076.047	-1.514067	0.268893	-146.325820	-0.003	0.010	59.462020	18.135503
1076.066	-1.513924	0.268958	-146.325793	-0.003	0.010	59.462020	18.135503
1076.085	-1.513781	0.269024	-146.325752	-0.003	0.010	59.462020	18.135503
1076.104	-1.513639	0.269090	-146.325738	-0.003	0.010	59.462020	18.135503
1076.123	-1.513496	0.269156	-146.325697	-0.003	0.010	59.462020	18.135503
1076.142	-1.513353	0.269222	-146.325670	-0.003	0.010	59.462020	18.135503
1076.161	-1.513210	0.269288	-146.325642	-0.003	0.010	59.462020	18.135503
1076.180	-1.513068	0.269353	-146.325615	-0.003	0.010	59.462020	18.135503
1076.199	-1.512925	0.269419	-146.325588	-0.003	0.011	59.462020	18.135503
1076.218	-1.512782	0.269485	-146.325560	-0.003	0.011	59.462020	18.135503
1076.237	-1.512639	0.269551	-146.325519	-0.003	0.011	59.462020	18.135503
1076.256	-1.512496	0.269617	-146.325492	-0.003	0.011	59.462020	18.135503
1076.275	-1.512299	0.270396	-146.326025	-0.002	0.011	59.462020	18.135503
1076.294	-1.509018	0.270270	-146.325492	-0.001	0.009	59.462020	18.135503
1076.313	-1.508447	0.269817	-146.325424	-0.001	0.008	59.462020	18.135503
1076.332	-1.508422	0.270134	-146.325711	-0.002	0.010	59.462020	18.135503
1076.351	-1.508958	0.270442	-146.325738	-0.001	0.010	59.462020	18.135503
1076.370	-1.509083	0.270884	-146.325738	0.000	0.010	59.462020	18.135503
1076.389	-1.509207	0.271325	-146.325724	0.002	0.010	59.462020	18.135503
1076.408	-1.509332	0.271767	-146.325738	0.003	0.010	59.462020	18.135503
1076.427	-1.509456	0.272208	-146.325724	0.004	0.009	59.462020	18.135503
1076.446	-1.509581	0.272650	-146.325724	0.006	0.009	59.462020	18.135503
1076.465	-1.509705	0.273091	-146.325724	0.007	0.009	59.462020	18.135503
1076.484	-1.509829	0.273533	-146.325724	0.008	0.009	59.462020	18.135503
1076.503	-1.509954	0.273974	-146.325724	0.010	0.009	59.462020	18.135503
1076.522	-1.510078	0.274416	-146.325724	0.011	0.009	59.462020	18.135503
1076.541	-1.510203	0.274857	-146.325724	0.012	0.009	59.462020	18.135503
1076.560	-1.510327	0.275299	-146.325724	0.013	0.009	59.462020	18.135503
1076.579	-1.510452	0.275740	-146.325711	0.015	0.009	59.462020	18.135503
1076.598	-1.510576	0.276182	-146.325711	0.016	0.009	59.462020	18.135503
1076.617	-1.510821	0.276685	-146.325642	0.018	0.009	59.462020	18.135503
1076.636	-1.511234	0.277675	-146.324918	0.025	0.009	59.462020	18.135503
1076.655	-1.511287	0.280308	-146.324358	0.033	0.009	59.462020	18.135503
1076.674	-1.510764	0.285048	-146.323744	0.040	0.008	59.462020	18.135503
1076.693	-1.510398	0.289942	-146.323634	0.052	0.008	59.462020	18.135503
1076.712	-1.509743	0.300295	-146.322951	0.072	0.008	59.462020	18.135503
1076.731	-1.509907	0.312564	-146.322364	0.094	0.008	59.462020	18.135503
1076.750	-1.510071	0.324832	-146.321790	0.116	0.008	59.462020	18.135503
1076.769	-1.510234	0.337100	-146.321216	0.137	0.008	59.462020	18.135503
1076.788	-1.510398	0.349368	-146.320629	0.159	0.009	59.462020	18.135503
1076.807	-1.510561	0.361636	-146.320055	0.180	0.009	59.462020	18.135503
1076.826	-1.510724	0.373904	-146.319482	0.202	0.009	59.462020	18.135503
1076.845	-1.510887	0.386172	-146.318908	0.223	0.009	59.462020	18.135503
1076.864	-1.511050	0.398441	-146.318334	0.245	0.009	59.462020	18.135503
1076.883	-1.511212	0.410709	-146.317760	0.266	0.009	59.462020	18.135503
1076.902	-1.511375	0.422977	-146.317173	0.288	0.010	59.462020	18.135503
1076.921	-1.511490	0.434031	-146.316394	0.310	0.008	59.462020	18.135503
1076.940	-1.511541	0.449592	-146.315684	0.337	0.011	59.462020	18.135503
1076.959	-1.512455	0.462307	-146.315383	0.364	0.010	59.462020	18.135503
1076.978	-1.514391	0.470467	-146.313676	0.390	0.011	59.462020	18.135502
1076.997	-1.514250	0.471571	-146.311367	0.416	0.011	59.462020	18.135502
1077.016	-1.514108	0.472675	-146.309059	0.441	0.011	59.462020	18.135502
1077.035	-1.513967	0.473779	-146.306750	0.466	0.011	59.462020	18.135502
1077.054	-1.513825	0.474883	-146.304442	0.492	0.011	59.462019	18.135502
1077.073	-1.513684	0.475987	-146.302133	0.517	0.011	59.462019	18.135502
1077.092	-1.513542	0.477091	-146.299838	0.542	0.012	59.462019	18.135502
1077.111	-1.513400	0.478195	-146.297529	0.568	0.012	59.462019	18.135502
1077.130	-1.513258	0.479299	-146.295207	0.593	0.012	59.462019	18.135502
1077.149	-1.513116	0.480403	-146.292899	0.618	0.012	59.462019	18.135501
1077.168	-1.512975	0.481507	-146.290604	0.644	0.012	59.462019	18.135501
1077.187	-1.512833	0.482611	-146.288295	0.669	0.012	59.462019	18.135501
1077.206	-1.512691	0.483715	-146.285986	0.694	0.012	59.462019	18.135501
1077.225	-1.512549	0.484819	-146.283678	0.720	0.013	59.462019	18.135501
1077.244	-1.512407	0.485923	-146.281369	0.745	0.013	59.462019	18.135501
1077.263	-1.512265	0.487027	-146.279061	0.770	0.013	59.462019	18.135501
1077.282	-1.512122	0.488131	-146.276752	0.796	0.013	59.462018	18.135501
1077.301	-1.511981	0.489235	-146.274457	0.821	0.013	59.462018	18.135501
1077.320	-1.515159	0.488431	-146.270810	0.846	0.014	59.462018	18.135500
1077.339	-1.517644	0.488113	-146.266712	0.873	0.014	59.462018	18.135500
1077.358	-1.522034	0.491089	-146.262354	0.899	0.015	59.462018	18.135500
1077.377	-1.525457	0.495190	-146.258174	0.923	0.015	59.462018	18.135500
1077.396	-1.528418	0.500980	-146.254267	0.949	0.015	59.462018	18.135500
1077.415	-1.533167	0.505524	-146.248448	0.973	0.015	59.462018	18.135499
1077.434	-1.537678	0.509841	-146.242929	0.997	0.015	59.462017	18.135499
1077.453	-1.542189	0.514159	-146.237396	1.020	0.015	59.462017	18.135499
1077.472	-1.546700	0.518477	-146.231878	1.044	0.015	59.462017	18.135499
1077.491	-1.551210	0.522796	-146.226359	1.068	0.015	59.462017	18.135499
1077.510	-1.555720	0.527114	-146.220840	1.092	0.015	59.462017	18.135498
1077.529	-1.560229	0.531434	-146.215308	1.116	0.015	59.462017	18.135498
1077.548	-1.564738	0.535754	-146.209789	1.140	0.015	59.462016	18.135498
1077.567	-1.569246	0.540074	-146.204270	1.164	0.015	59.462016	18.135498
1077.586	-1.573754	0.544395	-146.198738	1.188	0.015	59.462016	18.135498
1077.605	-1.578262	0.548716	-146.193219	1.211	0.015	59.462016	18.135497
1077.624	-1.582769	0.553037	-146.187700	1.235	0.015	59.462016	18.135497
1077.643	-1.587276	0.557359	-146.182181	1.259	0.015	59.462016	18.135497
1077.662	-1.591783	0.561682	-146.176662	1.283	0.015	59.462016	18.135497
1077.681	-1.596289	0.566005	-146.171144	1.307	0.016	59.462015	18.135497
1077.700	-1.598657	0.569624	-146.165406	1.332	0.018	59.462015	18.135496
1077.719	-1.603074	0.573569	-146.160215	1.358	0.017	59.462015	18.135496
1077.738	-1.606330	0.574549	-146.155161	1.383	0.016	59.462015	18.135496
1077.757	-1.610385	0.577233	-146.149492	1.408	0.016	59.462015	18.135496
1077.776	-1.610859	0.579020	-146.143031	1.430	0.016	59.462014	18.135495
1077.795	-1.610254	0.579519	-146.136214	1.451	0.016	59.462014	18.135495
1077.814	-1.609648	0.580017	-146.129411	1.473	0.017	59.462014	18.135495
1077.833	-1.609043	0.580515	-146.122595	1.495	0.017	59.462014	18.135494
1077.852	-1.608437	0.581013	-146.115778	1.516	0.017	59.462014	18.135494
1077.871	-1.607831	0.581512	-146.108962	1.538	0.017	59.462013	18.135494
1077.890	-1.607225	0.582010	-146.102159	1.560	0.017	59.462013	18.135494
1077.909	-1.606620	0.582508	-146.095342	1.581	0.017	59.462013	18.135493
1077.928	-1.605864	0.580555	-146.089209	1.601	0.016	59.462013	18.135493
1077.947	-1.605406	0.578489	-146.082624	1.622	0.016	59.462012	18.135493
1077.966	-1.606444	0.573973	-146.075111	1.642	0.016	59.462012	18.135492
1077.985	-1.608771	0.568873	-146.066792	1.663	0.016	59.462012	18.135492
1078.004	-1.611100	0.563773	-146.058459	1.684	0.016	59.462012	18.135492
1078.023	-1.613429	0.558674	-146.050126	1.705	0.015	59.462012	18.135491
1078.042	-1.615759	0.553575	-146.041793	1.726	0.015	59.462011	18.135491
1078.061	-1.619172	0.548579	-146.032887	1.745	0.014	59.462011	18.135491
1078.080	-1.631809	0.551121	-146.022806	1.765	0.014	59.462011	18.135490
1078.099	-1.646274	0.556477	-146.013175	1.784	0.014	59.462011	18.135490
1078.118	-1.660738	0.561834	-146.003558	1.803	0.014	59.462010	18.135490
1078.137	-1.675200	0.567195	-145.993927	1.821	0.014	59.462010	18.135489
1078.156	-1.689662	0.572557	-145.984311	1.840	0.014	59.462010	18.135489
1078.175	-1.704123	0.577922	-145.974694	1.859	0.014	59.462009	18.135489
1078.194	-1.718583	0.583290	-145.965063	1.878	0.013	59.462009	18.135488
1078.213	-1.733043	0.588659	-145.955446	1.896	0.013	59.462009	18.135488
1078.232	-1.747501	0.594032	-145.945829	1.915	0.013	59.462009	18.135488
1078.251	-1.761958	0.599406	-145.936212	1.934	0.013	59.462008	18.135487
1078.270	-1.776415	0.604784	-145.926595	1.953	0.013	59.462008	18.135487
1078.289	-1.790871	0.610163	-145.916992	1.971	0.012	59.462008	18.135486
1078.308	-1.805326	0.615545	-145.907375	1.990	0.012	59.462008	18.135486
1078.327	-1.819780	0.620929	-145.897772	2.009	0.012	59.462007	18.135486
1078.346	-1.834233	0.626316	-145.888169	2.027	0.012	59.462007	18.135485
1078.365	-1.848685	0.631706	-145.878552	2.046	0.012	59.462007	18.135485
1078.384	-1.863136	0.637097	-145.868962	2.065	0.011	59.462006	18.135485
1078.403	-1.877223	0.645483	-145.859222	2.083	0.011	59.462006	18.135484
1078.422	-1.884625	0.666227	-145.849892	2.099	0.011	59.462006	18.135484
1078.441	-1.883764	0.683966	-145.840549	2.112	0.013	59.462006	18.135484
1078.460	-1.883936	0.696498	-145.830290	2.126	0.015	59.462005	18.135483
1078.479	-1.884307	0.702347	-145.819553	2.138	0.015	59.462005	18.135483
1078.498	-1.880305	0.699516	-145.808228	2.150	0.016	59.462005	18.135482
1078.517	-1.865167	0.673244	-145.796166	2.160	0.016	59.462004	18.135482
1078.536	-1.849644	0.644751	-145.783776	2.169	0.016	59.462004	18.135481
1078.555	-1.834127	0.616255	-145.771386	2.179	0.017	59.462004	18.135481
1078.574	-1.818616	0.587756	-145.759010	2.188	0.017	59.462003	18.135481
1078.593	-1.803111	0.559254	-145.746647	2.198	0.017	59.462003	18.135480
1078.612	-1.787612	0.530748	-145.734271	2.207	0.018	59.462003	18.135480
1078.631	-1.772119	0.502239	-145.721922	2.217	0.018	59.462003	18.135479
1078.650	-1.756633	0.473726	-145.709573	2.226	0.018	59.462002	18.135479
1078.669	-1.741153	0.445210	-145.697238	2.236	0.019	59.462002	18.135479
1078.688	-1.725679	0.416691	-145.684902	2.245	0.019	59.462002	18.135478
1078.707	-1.710212	0.388169	-145.672581	2.255	0.019	59.462001	18.135478
1078.726	-1.694750	0.359643	-145.660259	2.264	0.019	59.462001	18.135477
1078.745	-1.679295	0.331114	-145.647951	2.274	0.020	59.462001	18.135477
1078.764	-1.664079	0.309131	-145.636271	2.285	0.018	59.462000	18.135476
1078.783	-1.645754	0.297542	-145.624974	2.295	0.019	59.462000	18.135476
1078.802	-1.629983	0.293106	-145.614429	2.305	0.016	59.462000	18.135476
1078.821	-1.618131	0.293308	-145.605276	2.314	0.013	59.461999	18.135475
1078.840	-1.610673	0.300778	-145.593255	2.325	0.014	59.461999	18.135475
1078.859	-1.610926	0.310438	-145.581329	2.335	0.016	59.461999	18.135474
1078.878	-1.611176	0.320098	-145.569404	2.346	0.017	59.461998	18.135474
1078.897	-1.611424	0.329757	-145.557465	2.357	0.018	59.461998	18.135473
1078.916	-1.611658	0.338909	-145.546168	2.367	0.019	59.461998	18.135473
1078.935	-1.614240	0.352477	-145.534024	2.378	0.020	59.461997	18.135472
1078.954	-1.614838	0.363342	-145.520910	2.389	0.020	59.461997	18.135472
1078.973	-1.615432	0.374208	-145.507796	2.399	0.020	59.461997	18.135472
1078.992	-1.616025	0.385074	-145.494682	2.409	0.021	59.461996	18.135471
1079.011	-1.616615	0.395941	-145.481554	2.420	0.021	59.461996	18.135471
1079.030	-1.617202	0.406807	-145.468440	2.430	0.021	59.461996	18.135470
1079.049	-1.617787	0.417673	-145.455326	2.440	0.021	59.461995	18.135470
1079.068	-1.618369	0.428540	-145.442198	2.450	0.021	59.461995	18.135469
1079.087	-1.618949	0.439407	-145.429084	2.461	0.021	59.461995	18.135469
1079.106	-1.619527	0.450273	-145.415971	2.471	0.022	59.461994	18.135468
1079.125	-1.637161	0.465089	-145.403294	2.483	0.020	59.461994	18.135468
1079.144	-1.651937	0.484722	-145.389743	2.495	0.018	59.461994	18.135468
1079.163	-1.661230	0.505882	-145.382038	2.508	0.017	59.461993	18.135467
1079.182	-1.666565	0.528588	-145.376342	2.521	0.017	59.461993	18.135467
1079.201	-1.671896	0.551295	-145.370645	2.534	0.017	59.461993	18.135466
1079.220	-1.677226	0.574001	-145.364949	2.546	0.017	59.461992	18.135466
1079.239	-1.682553	0.596709	-145.359266	2.559	0.017	59.461992	18.135465
1079.258	-1.687879	0.619416	-145.353570	2.572	0.017	59.461992	18.135465
1079.277	-1.693202	0.642125	-145.347887	2.585	0.017	59.461991	18.135464
1079.296	-1.698522	0.664834	-145.342204	2.598	0.017	59.461991	18.135464
1079.315	-1.703841	0.687543	-145.336522	2.611	0.017	59.461991	18.135463
1079.334	-1.709158	0.710253	-145.330853	2.624	0.017	59.461990	18.135463
1079.353	-1.714471	0.732964	-145.325170	2.637	0.017	59.461990	18.135462
1079.372	-1.719783	0.755675	-145.319501	2.650	0.017	59.461989	18.135462
1079.391	-1.725093	0.778386	-145.313818	2.663	0.017	59.461989	18.135461
1079.410	-1.730400	0.801098	-145.308149	2.675	0.017	59.461989	18.135461
1079.429	-1.735706	0.823811	-145.302480	2.688	0.017	59.461988	18.135460
1079.448	-1.741008	0.846524	-145.296811	2.701	0.017	59.461988	18.135460
1079.467	-1.745584	0.869626	-145.291538	2.714	0.018	59.461988	18.135459
1079.486	-1.747077	0.895638	-145.289735	2.727	0.018	59.461987	18.135459
1079.505	-1.758191	0.923628	-145.288109	2.738	0.017	59.461987	18.135458
1079.524	-1.776894	0.946458	-145.288082	2.750	0.018	59.461987	18.135458
1079.543	-1.796396	0.965143	-145.288806	2.763	0.020	59.461986	18.135457
1079.562	-1.800014	0.976481	-145.290432	2.776	0.021	59.461986	18.135457
1079.581	-1.792199	0.983834	-145.291743	2.789	0.022	59.461985	18.135456
1079.600	-1.784384	0.991187	-145.293054	2.802	0.023	59.461985	18.135455
1079.619	-1.776570	0.998540	-145.294366	2.815	0.023	59.461985	18.135455
1079.638	-1.768756	1.005893	-145.295677	2.828	0.024	59.461984	18.135454
1079.657	-1.760942	1.013246	-145.296989	2.841	0.025	59.461984	18.135454
1079.676	-1.753128	1.020600	-145.298300	2.854	0.026	59.461983	18.135453
1079.695	-1.745314	1.027953	-145.299598	2.866	0.027	59.461983	18.135453
1079.714	-1.737501	1.035307	-145.300909	2.879	0.028	59.461983	18.135452
1079.733	-1.729688	1.042661	-145.302207	2.892	0.029	59.461982	18.135452
1079.752	-1.721874	1.050016	-145.303518	2.905	0.030	59.461982	18.135451
1079.771	-1.714062	1.057370	-145.304830	2.918	0.031	59.461981	18.135451
1079.790	-1.706248	1.064725	-145.306114	2.931	0.031	59.461981	18.135450
1079.809	-1.698436	1.072079	-145.307425	2.944	0.032	59.461981	18.135449
1079.828	-1.684515	1.080633	-145.309215	2.957	0.033	59.461980	18.135449
1079.847	-1.659783	1.087692	-145.311974	2.971	0.028	59.461980	18.135448
1079.866	-1.631674	1.091114	-145.312206	2.982	0.030	59.461979	18.135448
1079.885	-1.605033	1.091209	-145.313859	2.992	0.031	59.461979	18.135447
1079.904	-1.585559	1.086238	-145.316441	3.004	0.030	59.461978	18.135447
1079.923	-1.575283	1.074311	-145.320525	3.016	0.030	59.461978	18.135446
1079.942	-1.575590	1.054604	-145.325976	3.027	0.030	59.461978	18.135445
1079.961	-1.575896	1.034898	-145.331426	3.039	0.029	59.461977	18.135445
1079.980	-1.576200	1.015191	-145.336891	3.050	0.029	59.461977	18.135444
1079.999	-1.576501	0.995484	-145.342327	3.062	0.029	59.461976	18.135444
1080.018	-1.576801	0.975778	-145.347778	3.073	0.028	59.461976	18.135443
1080.037	-1.577100	0.956071	-145.353242	3.085	0.028	59.461975	18.135442
1080.056	-1.577396	0.936364	-145.358679	3.097	0.028	59.461975	18.135442
1080.075	-1.577690	0.916657	-145.364129	3.108	0.028	59.461975	18.135441
1080.094	-1.577982	0.896950	-145.369580	3.120	0.027	59.461974	18.135441
1080.113	-1.578273	0.877243	-145.375030	3.131	0.027	59.461974	18.135440
1080.132	-1.578562	0.857536	-145.380495	3.143	0.027	59.461973	18.135439
1080.151	-1.578849	0.837829	-145.385945	3.154	0.026	59.461973	18.135439
1080.170	-1.579133	0.818122	-145.391382	3.166	0.026	59.461972	18.135438
1080.189	-1.583753	0.795376	-145.394237	3.175	0.029	59.461972	18.135438
1080.208	-1.586395	0.770708	-145.397884	3.185	0.027	59.461971	18.135437
1080.227	-1.586692	0.749026	-145.402624	3.196	0.023	59.461971	18.135436
1080.246	-1.584082	0.729022	-145.405794	3.203	0.027	59.461971	18.135436
1080.265	-1.576273	0.709948	-145.411422	3.213	0.027	59.461970	18.135435
1080.284	-1.568852	0.691829	-145.416776	3.223	0.027	59.461970	18.135435
1080.303	-1.561430	0.673710	-145.422131	3.233	0.027	59.461969	18.135434
1080.322	-1.554006	0.655592	-145.427486	3.244	0.027	59.461969	18.135433
1080.341	-1.546581	0.637474	-145.432855	3.254	0.027	59.461968	18.135433
1080.360	-1.539154	0.619358	-145.438210	3.264	0.027	59.461968	18.135432
1080.379	-1.531725	0.601242	-145.443578	3.274	0.027	59.461967	18.135431
1080.398	-1.524294	0.583126	-145.448933	3.284	0.027	59.461967	18.135431
1080.417	-1.516862	0.565012	-145.454302	3.294	0.027	59.461966	18.135430
1080.436	-1.509428	0.546898	-145.459670	3.304	0.027	59.461966	18.135430
1080.455	-1.501992	0.528785	-145.465052	3.314	0.027	59.461965	18.135429
1080.474	-1.494555	0.510672	-145.470421	3.324	0.027	59.461965	18.135428
1080.493	-1.487116	0.492560	-145.475803	3.334	0.027	59.461965	18.135428
1080.512	-1.479676	0.474449	-145.481185	3.344	0.027	59.461964	18.135427
1080.531	-1.472625	0.457292	-145.486280	3.354	0.027	59.461964	18.135426
1080.550	-1.482639	0.447032	-145.492277	3.364	0.031	59.461963	18.135426
1080.569	-1.494587	0.439667	-145.497824	3.376	0.030	59.461963	18.135425
1080.588	-1.501365	0.432270	-145.501293	3.388	0.026	59.461962	18.135425
1080.607	-1.508341	0.422906	-145.507003	3.401	0.026	59.461962	18.135424
1080.626	-1.505914	0.398814	-145.513984	3.411	0.027	59.461961	18.135423
1080.645	-1.503135	0.372396	-145.521142	3.421	0.029	59.461961	18.135423
1080.664	-1.500353	0.345979	-145.528300	3.431	0.030	59.461960	18.135422
1080.683	-1.497568	0.319562	-145.535458	3.441	0.032	59.461960	18.135421
1080.702	-1.494780	0.293146	-145.542602	3.451	0.033	59.461959	18.135421
1080.721	-1.491988	0.266730	-145.549774	3.460	0.035	59.461959	18.135420
1080.740	-1.489193	0.240314	-145.556932	3.470	0.036	59.461958	18.135419
1080.759	-1.486395	0.213899	-145.564090	3.480	0.038	59.461958	18.135419
1080.778	-1.483593	0.187484	-145.571262	3.490	0.039	59.461957	18.135418
1080.797	-1.480788	0.161070	-145.578420	3.500	0.041	59.461957	18.135417
1080.816	-1.477980	0.134655	-145.585591	3.510	0.042	59.461956	18.135417
1080.835	-1.475168	0.108241	-145.592763	3.520	0.044	59.461956	18.135416
1080.854	-1.472354	0.081828	-145.599921	3.530	0.045	59.461955	18.135415
1080.873	-1.469535	0.055415	-145.607093	3.540	0.047	59.461955	18.135415
1080.892	-1.476086	0.090031	-145.614114	3.553	0.046	59.461954	18.135414
1080.911	-1.493831	0.232187	-145.619059	3.576	0.030	59.461954	18.135413
1080.930	-1.506072	0.401469	-145.624319	3.598	0.027	59.461953	18.135413
1080.949	-1.520675	0.555121	-145.627857	3.621	0.015	59.461953	18.135412
1080.968	-1.536544	0.643512	-145.633102	3.637	0.013	59.461952	18.135411
1080.987	-1.543517	0.660354	-145.639687	3.650	0.015	59.461952	18.135410
1081.006	-1.550493	0.677195	-145.646285	3.663	0.017	59.461951	18.135410
1081.025	-1.557471	0.694035	-145.652869	3.676	0.019	59.461951	18.135409
1081.044	-1.564450	0.710875	-145.659467	3.689	0.021	59.461950	18.135408
1081.063	-1.571432	0.727713	-145.666051	3.702	0.022	59.461950	18.135408
1081.082	-1.578415	0.744551	-145.672649	3.715	0.024	59.461949	18.135407
1081.101	-1.585401	0.761388	-145.679247	3.728	0.026	59.461949	18.135406
1081.120	-1.592388	0.778224	-145.685845	3.741	0.028	59.461948	18.135405
1081.139	-1.599378	0.795059	-145.692457	3.754	0.030	59.461948	18.135405
1081.158	-1.606369	0.811894	-145.699068	3.767	0.032	59.461947	18.135404
1081.177	-1.613362	0.828727	-145.705666	3.781	0.033	59.461947	18.135403
1081.196	-1.620357	0.845560	-145.712278	3.794	0.035	59.461946	18.135403
1081.215	-1.627355	0.862392	-145.718889	3.807	0.037	59.461946	18.135402
1081.234	-1.634354	0.879224	-145.725501	3.820	0.039	59.461945	18.135401
1081.253	-1.612683	0.865682	-145.731484	3.834	0.042	59.461945	18.135400
1081.272	-1.579640	0.840492	-145.737536	3.853	0.043	59.461944	18.135400
1081.291	-1.548119	0.818194	-145.743260	3.872	0.046	59.461943	18.135399
1081.310	-1.507222	0.795811	-145.748396	3.891	0.044	59.461943	18.135398
1081.329	-1.475810	0.807924	-145.754844	3.903	0.043	59.461942	18.135397
1081.348	-1.449050	0.852923	-145.761578	3.916	0.042	59.461942	18.135397
1081.367	-1.422296	0.897924	-145.768299	3.928	0.041	59.461941	18.135396
1081.386	-1.395547	0.942928	-145.774993	3.941	0.040	59.461941	18.135395
1081.405	-1.368802	0.987936	-145.781673	3.953	0.040	59.461940	18.135394
1081.424	-1.342062	1.032947	-145.788325	3.966	0.039	59.461939	18.135394
1081.443	-1.315328	1.077961	-145.794950	3.978	0.038	59.461939	18.135393
1081.462	-1.288597	1.122978	-145.801562	3.991	0.037	59.461938	18.135392
1081.481	-1.261872	1.167998	-145.808160	4.003	0.037	59.461938	18.135391
1081.500	-1.235152	1.213021	-145.814731	4.016	0.036	59.461937	18.135390
1081.519	-1.208436	1.258047	-145.821274	4.028	0.035	59.461937	18.135390
1081.538	-1.181725	1.303076	-145.827804	4.041	0.035	59.461936	18.135389
1081.557	-1.155018	1.348108	-145.834306	4.053	0.034	59.461935	18.135388
1081.576	-1.128317	1.393143	-145.840808	4.066	0.033	59.461935	18.135387
1081.595	-1.101619	1.438182	-145.847270	4.078	0.033	59.461934	18.135386
1081.614	-1.126621	1.406500	-145.858553	4.112	0.033	59.461934	18.135386
1081.633	-1.170273	1.304476	-145.863157	4.103	0.037	59.461933	18.135385
1081.652	-1.197532	1.178210	-145.863689	4.077	0.044	59.461933	18.135384
1081.671	-1.213403	1.035288	-145.865848	4.069	0.059	59.461932	18.135383
1081.690	-1.228863	0.925307	-145.871544	4.085	0.057	59.461931	18.135383
1081.709	-1.240824	0.840957	-145.876735	4.102	0.055	59.461931	18.135382
1081.728	-1.252777	0.756606	-145.881912	4.118	0.053	59.461930	18.135381
1081.747	-1.264723	0.672254	-145.887062	4.134	0.051	59.461930	18.135380
1081.766	-1.276661	0.587901	-145.892199	4.150	0.048	59.461929	18.135379
1081.785	-1.288591	0.503547	-145.897321	4.167	0.046	59.461928	18.135379
1081.804	-1.300513	0.419192	-145.902430	4.183	0.044	59.461928	18.135378
1081.823	-1.312428	0.334836	-145.907512	4.200	0.042	59.461927	18.135377
1081.842	-1.324335	0.250479	-145.912580	4.217	0.039	59.461927	18.135376
1081.861	-1.336235	0.166121	-145.917621	4.233	0.037	59.461926	18.135375
1081.880	-1.348127	0.081761	-145.922661	4.250	0.035	59.461926	18.135375
1081.899	-1.360012	-0.002599	-145.927675	4.267	0.033	59.461925	18.135374
1081.918	-1.369791	-0.066651	-145.933030	4.288	0.030	59.461924	18.135373
1081.937	-1.371089	-0.014715	-145.941089	4.307	0.032	59.461924	18.135372
1081.956	-1.371495	0.040413	-145.949545	4.326	0.036	59.461923	18.135371
1081.975	-1.374115	0.104690	-145.958055	4.346	0.039	59.461923	18.135371
1081.994	-1.359245	0.138575	-145.965814	4.360	0.040	59.461922	18.135370
1082.013	-1.339790	0.165681	-145.974106	4.373	0.040	59.461921	18.135369
1082.032	-1.320338	0.192789	-145.982398	4.386	0.041	59.461921	18.135368
1082.051	-1.300890	0.219901	-145.990676	4.399	0.042	59.461920	18.135367
1082.070	-1.281447	0.247015	-145.998954	4.412	0.043	59.461919	18.135366
1082.089	-1.262007	0.274132	-146.007219	4.425	0.043	59.461919	18.135365
1082.108	-1.242571	0.301251	-146.015470	4.438	0.044	59.461918	18.135365
1082.127	-1.223139	0.328374	-146.023707	4.451	0.045	59.461917	18.135364
1082.146	-1.203710	0.355499	-146.031944	4.465	0.046	59.461917	18.135363
1082.165	-1.184286	0.382627	-146.040168	4.478	0.047	59.461916	18.135362
1082.184	-1.164865	0.409758	-146.048391	4.491	0.047	59.461916	18.135361
1082.203	-1.145448	0.436892	-146.056588	4.504	0.048	59.461915	18.135360
1082.222	-1.126035	0.464028	-146.064798	4.517	0.049	59.461914	18.135359
1082.241	-1.106626	0.491167	-146.072980	4.531	0.050	59.461914	18.135359
1082.260	-1.087221	0.518309	-146.081163	4.544	0.050	59.461913	18.135358
1082.279	-1.067819	0.545454	-146.089345	4.557	0.051	59.461912	18.135357
1082.298	-1.048421	0.572601	-146.097487	4.570	0.052	59.461912	18.135356
1082.317	-1.034117	0.592467	-146.105178	4.583	0.052	59.461911	18.135355
1082.336	-1.028214	0.599079	-146.113224	4.599	0.050	59.461911	18.135354
1082.355	-1.017911	0.602201	-146.120914	4.620	0.049	59.461910	18.135353
1082.374	-1.009288	0.607034	-146.130258	4.635	0.045	59.461909	18.135352
1082.393	-1.004208	0.614285	-146.140654	4.650	0.044	59.461908	18.135351
1082.412	-1.019468	0.605531	-146.153303	4.665	0.044	59.461908	18.135350
1082.431	-1.036626	0.595093	-146.166403	4.680	0.045	59.461907	18.135349
1082.450	-1.053782	0.584651	-146.179490	4.695	0.045	59.461906	18.135349
1082.469	-1.070936	0.574204	-146.192577	4.710	0.046	59.461906	18.135348
1082.488	-1.088087	0.563754	-146.205663	4.725	0.047	59.461905	18.135347
1082.507	-1.105236	0.553300	-146.218736	4.740	0.047	59.461904	18.135346
1082.526	-1.122382	0.542842	-146.231823	4.756	0.048	59.461904	18.135345
1082.545	-1.139526	0.532380	-146.244896	4.771	0.048	59.461903	18.135344
1082.564	-1.156667	0.521914	-146.257969	4.786	0.049	59.461902	18.135343
1082.583	-1.173806	0.511444	-146.271028	4.801	0.050	59.461902	18.135342
1082.602	-1.190943	0.500970	-146.284101	4.816	0.050	59.461901	18.135341
1082.621	-1.208078	0.490493	-146.297147	4.831	0.051	59.461900	18.135340
1082.640	-1.225209	0.480011	-146.310220	4.847	0.051	59.461900	18.135340
1082.659	-1.242339	0.469526	-146.323266	4.862	0.052	59.461899	18.135339
1082.678	-1.259354	0.427516	-146.340027	4.873	0.053	59.461898	18.135338
1082.697	-1.275563	0.365383	-146.357717	4.887	0.051	59.461898	18.135337
1082.716	-1.290032	0.300435	-146.375216	4.900	0.049	59.461897	18.135336
1082.735	-1.305406	0.225687	-146.397797	4.912	0.054	59.461896	18.135335
1082.754	-1.302233	0.173480	-146.420828	4.926	0.055	59.461896	18.135334
1082.773	-1.299039	0.121275	-146.443859	4.941	0.057	59.461895	18.135333
1082.792	-1.295823	0.069070	-146.466891	4.955	0.058	59.461894	18.135332
1082.811	-1.292587	0.016868	-146.489922	4.969	0.059	59.461893	18.135331
1082.830	-1.289330	-0.035334	-146.512967	4.984	0.061	59.461893	18.135330
1082.849	-1.286052	-0.087534	-146.535999	4.998	0.062	59.461892	18.135329
1082.868	-1.282752	-0.139733	-146.559057	5.013	0.063	59.461891	18.135328
1082.887	-1.279432	-0.191931	-146.582102	5.027	0.065	59.461891	18.135327
1082.906	-1.276091	-0.244127	-146.605147	5.041	0.066	59.461890	18.135326
1082.925	-1.270557	-0.265049	-146.629080	5.058	0.066	59.461889	18.135325
1082.944	-1.255757	-0.243501	-146.655773	5.076	0.062	59.461888	18.135324
1082.963	-1.238149	-0.205831	-146.684815	5.099	0.060	59.461888	18.135324
1082.982	-1.225440	-0.154947	-146.715182	5.120	0.060	59.461887	18.135322
1083.001	-1.212757	-0.104056	-146.745535	5.141	0.060	59.461886	18.135321
1083.020	-1.200102	-0.053159	-146.775889	5.162	0.060	59.461885	18.135320
1083.039	-1.203486	-0.003323	-146.809985	5.176	0.058	59.461885	18.135319
1083.058	-1.213307	0.035228	-146.847168	5.190	0.058	59.461884	18.135318
1083.077	-1.223153	0.073773	-146.884352	5.205	0.058	59.461883	18.135317
1083.096	-1.233023	0.112312	-146.921549	5.219	0.058	59.461882	18.135316
1083.115	-1.242919	0.150844	-146.958746	5.234	0.057	59.461882	18.135315
1083.134	-1.252839	0.189369	-146.995957	5.248	0.057	59.461881	18.135314
1083.153	-1.262785	0.227889	-147.033168	5.262	0.057	59.461880	18.135313
1083.172	-1.272756	0.266401	-147.070393	5.277	0.057	59.461879	18.135312
1083.191	-1.282752	0.304908	-147.107617	5.291	0.057	59.461879	18.135311
1083.210	-1.292773	0.343407	-147.144855	5.306	0.057	59.461878	18.135310
1083.229	-1.302819	0.381900	-147.182094	5.320	0.056	59.461877	18.135309
1083.248	-1.312890	0.420387	-147.219345	5.335	0.056	59.461876	18.135309
1083.267	-1.322986	0.458867	-147.256611	5.349	0.056	59.461876	18.135308
1083.286	-1.333107	0.497341	-147.293863	5.363	0.056	59.461875	18.135307
1083.305	-1.343253	0.535808	-147.331142	5.378	0.056	59.461874	18.135306
1083.324	-1.353424	0.574268	-147.368407	5.392	0.056	59.461873	18.135305
1083.343	-1.363621	0.612722	-147.405687	5.407	0.056	59.461873	18.135304
1083.362	-1.373843	0.651169	-147.442993	5.421	0.056	59.461872	18.135303
1083.381	-1.407207	0.669749	-147.491214	5.432	0.060	59.461871	18.135302
1083.400	-1.451307	0.677747	-147.551579	5.441	0.058	59.461870	18.135301
1083.419	-1.493496	0.674924	-147.611630	5.451	0.058	59.461869	18.135300
1083.438	-1.527105	0.663587	-147.675001	5.461	0.060	59.461869	18.135299
1083.457	-1.547194	0.642145	-147.741117	5.470	0.063	59.461868	18.135298
1083.476	-1.529442	0.622046	-147.822069	5.481	0.065	59.461867	18.135297
1083.495	-1.494427	0.609139	-147.912828	5.493	0.065	59.461866	18.135296
1083.514	-1.459391	0.596287	-148.003601	5.505	0.066	59.461866	18.135295
1083.533	-1.424334	0.583490	-148.094375	5.518	0.067	59.461865	18.135294
1083.552	-1.389258	0.570749	-148.185148	5.530	0.067	59.461864	18.135293
1083.571	-1.354161	0.558064	-148.275935	5.542	0.068	59.461863	18.135292
1083.590	-1.319045	0.545434	-148.366735	5.555	0.069	59.461862	18.135291
1083.609	-1.283909	0.532860	-148.457536	5.567	0.070	59.461861	18.135290
1083.628	-1.248753	0.520342	-148.548350	5.580	0.071	59.461861	18.135289
1083.647	-1.213577	0.507879	-148.639164	5.592	0.072	59.461860	18.135287
1083.666	-1.178382	0.495472	-148.729992	5.604	0.073	59.461859	18.135286
1083.685	-1.143166	0.483121	-148.820820	5.617	0.074	59.461858	18.135285
1083.704	-1.107932	0.470826	-148.911661	5.629	0.075	59.461857	18.135284
1083.723	-1.072678	0.458586	-149.002517	5.642	0.076	59.461857	18.135283
1083.742	-1.032731	0.483506	-149.113179	5.660	0.084	59.461856	18.135282
1083.761	-0.992504	0.529891	-149.233240	5.670	0.084	59.461855	18.135281
1083.780	-0.955671	0.581181	-149.370445	5.682	0.087	59.461854	18.135280
1083.799	-0.928196	0.627475	-149.507035	5.690	0.085	59.461853	18.135279
1083.818	-0.926635	0.656177	-149.652669	5.697	0.084	59.461852	18.135278
1083.837	-0.932847	0.677733	-149.801580	5.705	0.083	59.461852	18.135277
1083.856	-0.939116	0.699274	-149.950506	5.713	0.083	59.461851	18.135276
1083.875	-0.945441	0.720797	-150.099431	5.721	0.083	59.461850	18.135275
1083.894	-0.951821	0.742305	-150.248357	5.729	0.082	59.461849	18.135274
1083.913	-0.958258	0.763796	-150.397282	5.737	0.082	59.461848	18.135273
1083.932	-0.989723	0.765679	-150.555346	5.746	0.081	59.461847	18.135272
1083.951	-1.001147	0.758115	-150.721689	5.755	0.081	59.461847	18.135271
1083.970	-0.999214	0.747821	-150.893564	5.764	0.081	59.461846	18.135270
1083.989	-0.997251	0.737532	-151.065439	5.773	0.082	59.461845	18.135269
1084.008	-0.995256	0.727249	-151.237327	5.782	0.083	59.461844	18.135268
1084.027	-0.993231	0.716973	-151.409216	5.790	0.084	59.461843	18.135267
1084.046	-0.991174	0.706702	-151.581091	5.799	0.085	59.461842	18.135266
1084.065	-0.989087	0.696438	-151.752965	5.808	0.086	59.461841	18.135265
1084.084	-0.986969	0.686179	-151.924854	5.818	0.087	59.461841	18.135264
1084.103	-0.962021	0.699174	-152.113558	5.826	0.093	59.461840	18.135264
1084.122	-0.949338	0.721473	-152.309380	5.835	0.098	59.461839	18.135263
1084.141	-0.938541	0.740675	-152.532071	5.842	0.098	59.461838	18.135262
1084.160	-0.926553	0.758744	-152.758752	5.848	0.099	59.461837	18.135261
1084.179	-0.914638	0.776860	-152.985418	5.855	0.101	59.461836	18.135260
1084.198	-0.902793	0.795023	-153.212085	5.862	0.102	59.461835	18.135259
1084.217	-0.891021	0.813233	-153.438752	5.869	0.103	59.461834	18.135258
1084.236	-0.879321	0.831489	-153.665405	5.876	0.105	59.461833	18.135257
1084.255	-0.867693	0.849791	-153.892058	5.883	0.106	59.461832	18.135256
1084.274	-0.856137	0.868139	-154.118724	5.891	0.108	59.461832	18.135255
1084.293	-0.844654	0.886533	-154.345377	5.898	0.109	59.461831	18.135254
1084.312	-0.833245	0.904972	-154.572030	5.905	0.111	59.461830	18.135254
1084.331	-0.821908	0.923456	-154.798670	5.913	0.112	59.461829	18.135253
1084.350	-0.810644	0.941985	-155.025309	5.920	0.114	59.461828	18.135252
1084.369	-0.799453	0.960558	-155.251962	5.928	0.116	59.461827	18.135251
1084.388	-0.788336	0.979175	-155.478601	5.936	0.118	59.461826	18.135250
1084.407	-0.777292	0.997837	-155.705241	5.943	0.120	59.461825	18.135249
1084.426	-0.766323	1.016541	-155.931866	5.951	0.122	59.461824	18.135248
1084.445	-0.742967	1.027768	-156.166251	5.960	0.122	59.461823	18.135247
1084.464	-0.692005	1.017091	-156.428981	5.967	0.124	59.461822	18.135246
1084.483	-0.632204	1.001472	-156.691219	5.974	0.126	59.461822	18.135246
1084.502	-0.575077	0.979492	-156.956367	5.983	0.126	59.461821	18.135245
1084.521	-0.528053	0.949362	-157.210778	5.987	0.124	59.461820	18.135244
1084.540	-0.522381	0.858150	-157.505228	5.993	0.124	59.461819	18.135243
1084.559	-0.531125	0.755452	-157.789801	5.999	0.123	59.461818	18.135242
1084.578	-0.539360	0.652712	-158.074346	6.005	0.122	59.461817	18.135242
1084.597	-0.547083	0.549932	-158.358878	6.012	0.121	59.461816	18.135241
1084.616	-0.554296	0.447116	-158.643397	6.018	0.120	59.461815	18.135240
1084.635	-0.560998	0.344264	-158.927902	6.024	0.119	59.461814	18.135239
1084.654	-0.567190	0.241381	-159.212379	6.031	0.118	59.461813	18.135238
1084.673	-0.572870	0.138468	-159.496856	6.037	0.118	59.461812	18.135238
1084.692	-0.578040	0.035529	-159.781306	6.044	0.117	59.461811	18.135237
1084.711	-0.582698	-0.067436	-160.065756	6.050	0.117	59.461810	18.135236
1084.730	-0.586845	-0.170421	-160.350206	6.057	0.116	59.461809	18.135235
1084.749	-0.590481	-0.273427	-160.634643	6.064	0.116	59.461808	18.135235
1084.768	-0.593605	-0.376449	-160.919079	6.071	0.116	59.461807	18.135234
1084.787	-0.596218	-0.479485	-161.203516	6.078	0.115	59.461806	18.135233
1084.806	-0.597036	-0.550000	-161.480316	6.085	0.116	59.461805	18.135232
1084.825	-0.579674	-0.536417	-161.810187	6.105	0.123	59.461804	18.135232
1084.844	-0.556045	-0.501583	-162.129416	6.126	0.126	59.461803	18.135231
1084.863	-0.533786	-0.451472	-162.454533	6.141	0.132	59.461802	18.135230
1084.882	-0.508636	-0.386690	-162.786002	6.149	0.134	59.461801	18.135230
1084.901	-0.480017	-0.319836	-163.118318	6.158	0.134	59.461800	18.135229
1084.920	-0.449110	-0.252514	-163.451481	6.168	0.135	59.461799	18.135228
1084.939	-0.394180	-0.202871	-163.783743	6.178	0.136	59.461798	18.135228
1084.958	-0.339538	-0.152910	-164.115949	6.188	0.136	59.461797	18.135227
1084.977	-0.285187	-0.102633	-164.448115	6.198	0.137	59.461796	18.135227
1084.996	-0.231129	-0.052041	-164.780226	6.208	0.138	59.461795	18.135226
1085.015	-0.177365	-0.001138	-165.112296	6.218	0.140	59.461794	18.135226
1085.034	-0.123896	0.050077	-165.444312	6.229	0.141	59.461793	18.135225
1085.053	-0.070726	0.101600	-165.776286	6.240	0.143	59.461792	18.135224
1085.072	-0.017854	0.153431	-166.108220	6.251	0.144	59.461791	18.135224
1085.091	0.034716	0.205567	-166.440099	6.262	0.146	59.461790	18.135223
1085.110	0.086984	0.258006	-166.771923	6.273	0.148	59.461789	18.135223
1085.129	0.138947	0.310748	-167.103706	6.284	0.151	59.461788	18.135222
1085.148	0.190604	0.363789	-167.435449	6.296	0.153	59.461787	18.135221
1085.167	0.198549	0.426175	-167.768598	6.306	0.158	59.461786	18.135221
1085.186	0.169840	0.488371	-168.086489	6.311	0.156	59.461785	18.135220
1085.205	0.125687	0.549819	-168.435306	6.315	0.158	59.461784	18.135220
1085.224	0.065557	0.596335	-168.763142	6.320	0.152	59.461783	18.135219
1085.243	0.077812	0.619387	-169.095540	6.325	0.152	59.461782	18.135219
1085.262	0.094459	0.641389	-169.428102	6.331	0.153	59.461781	18.135219
1085.281	0.110978	0.663488	-169.760650	6.337	0.153	59.461779	18.135218
1085.300	0.127369	0.685683	-170.093198	6.344	0.154	59.461778	18.135218
1085.319	0.143631	0.707972	-170.425746	6.350	0.154	59.461777	18.135218
1085.338	0.159763	0.730355	-170.758281	6.357	0.155	59.461776	18.135217
1085.357	0.175765	0.752831	-171.090816	6.364	0.156	59.461775	18.135217
1085.376	0.191636	0.775400	-171.423350	6.371	0.156	59.461774	18.135217
1085.395	0.207377	0.798061	-171.755871	6.379	0.157	59.461773	18.135216
1085.414	0.222985	0.820812	-172.088392	6.386	0.158	59.461772	18.135216
1085.433	0.238462	0.843654	-172.420913	6.394	0.160	59.461771	18.135215
1085.452	0.253805	0.866585	-172.753420	6.402	0.161	59.461770	18.135215
1085.471	0.269015	0.889605	-173.085941	6.410	0.162	59.461769	18.135215
1085.490	0.284092	0.912713	-173.418435	6.419	0.164	59.461768	18.135214
1085.509	0.299034	0.935908	-173.750942	6.427	0.165	59.461767	18.135214
1085.528	0.337781	0.985085	-174.092916	6.436	0.177	59.461766	18.135214
1085.547	0.350793	1.020793	-174.434343	6.452	0.176	59.461764	18.135213
1085.566	0.346379	1.048729	-174.758818	6.455	0.179	59.461763	18.135213
1085.585	0.328771	1.067313	-175.117362	6.457	0.176	59.461762	18.135213
1085.604	0.325556	1.047180	-175.459486	6.462	0.174	59.461761	18.135213
