time	gps_long	gps_lat	long	lat	vel_x	vel_y	vel_z	roll	pitch	yaw	acc_x	acc_y	acc_z	gyr_x	gyr_y	gyr_z
42133.4243	N/A	N/A	18.1354887736	59.4620136303	0.0201499999998	0.0	-0.0	N/A	N/A	0.7405781082072498	N/A	N/A	N/A	N/A	N/A	N/A
42133.4293	N/A	N/A	18.1354887704	59.4620136213	0.0226500000016	0.0	-0.0	N/A	N/A	0.7266154741811361	N/A	N/A	N/A	N/A	N/A	N/A
42133.4343	N/A	N/A	18.1354887606	59.4620136117	0.0221400000001	0.00429999999964	-0.00429999999964	N/A	N/A	0.7458996170937677	N/A	N/A	N/A	N/A	N/A	N/A
42133.4393	N/A	N/A	18.1354887497	59.462013602	0.0211400000008	0.009299999996	-0.009299999996	N/A	N/A	0.7705960259915184	N/A	N/A	N/A	N/A	N/A	N/A
42133.4443	N/A	N/A	18.1354887543	59.4620136053	0.0192799999989	0.00569999999724	-0.00569999999724	N/A	N/A	0.7519140216837016	N/A	N/A	N/A	N/A	N/A	N/A
42133.4493	N/A	N/A	18.1354887613	59.4620136106	0.0172799999989	0.000699999997235	-0.000699999997235	N/A	N/A	0.7261704152167852	N/A	N/A	N/A	N/A	N/A	N/A
42133.4543	N/A	N/A	18.1354887644	59.462013607	0.0191499999998	0.0	-0.0	N/A	N/A	0.7248928342183639	N/A	N/A	N/A	N/A	N/A	N/A
42133.4593	N/A	N/A	18.1354887668	59.4620136019	0.0216500000016	0.0	-0.0	N/A	N/A	0.7275980945609236	N/A	N/A	N/A	N/A	N/A	N/A
42133.4643	N/A	N/A	18.1354887657	59.4620136014	0.02157	0.00429999999964	-0.00429999999964	N/A	N/A	0.7528931514061978	N/A	N/A	N/A	N/A	N/A	N/A
42133.4693	N/A	N/A	18.1354887641	59.4620136016	0.0210700000004	0.009299999996	-0.009299999996	N/A	N/A	0.7818656169682235	N/A	N/A	N/A	N/A	N/A	N/A
42133.4743	N/A	N/A	18.1354887613	59.4620136024	0.0192800000001	0.00570000000036	-0.00570000000036	N/A	N/A	0.7676097676626713	N/A	N/A	N/A	N/A	N/A	N/A
42133.4793	N/A	N/A	18.1354887584	59.4620136032	0.0172800000016	0.000700000004002	-0.000700000004002	N/A	N/A	0.7463167508038333	N/A	N/A	N/A	N/A	N/A	N/A
42133.4843	N/A	N/A	18.1354887783	59.462013615	0.0191499999977	0.0	-0.0	N/A	N/A	0.7243482915118582	N/A	N/A	N/A	N/A	N/A	N/A
42133.4893	N/A	N/A	18.1354888019	59.4620136286	0.0216500000014	0.0	-0.0	N/A	N/A	0.7022698764420016	N/A	N/A	N/A	N/A	N/A	N/A
42133.4943	N/A	N/A	18.1354888053	59.462013621	0.0211400000001	0.00429999999964	-0.00429999999964	N/A	N/A	0.7056331259222574	N/A	N/A	N/A	N/A	N/A	N/A
42133.4993	N/A	N/A	18.1354888055	59.46201361	0.0201399999993	0.00930000000327	-0.00930000000327	N/A	N/A	0.7131380417112936	N/A	N/A	N/A	N/A	N/A	N/A
42133.5043	N/A	N/A	18.1354887947	59.4620136046	0.0182800000001	0.00570000000036	-0.00570000000036	N/A	N/A	0.7156897130726677	N/A	N/A	N/A	N/A	N/A	N/A
42133.5093	N/A	N/A	18.1354887821	59.4620136001	0.0162800000016	0.000700000004002	-0.000700000004002	N/A	N/A	0.7174350423233921	N/A	N/A	N/A	N/A	N/A	N/A
42133.5143	N/A	N/A	18.1354887773	59.4620135964	0.0177200000011	0.0	0.0	N/A	N/A	0.6904365441081718	N/A	N/A	N/A	N/A	N/A	N/A
42133.5193	N/A	N/A	18.1354887737	59.4620135928	0.0197200000011	0.0	0.0	N/A	N/A	0.6587588181844749	N/A	N/A	N/A	N/A	N/A	N/A
42133.5243	N/A	N/A	18.1354887655	59.4620136015	0.02	0.00429999999964	-0.00429999999964	N/A	N/A	0.6519974126799626	N/A	N/A	N/A	N/A	N/A	N/A
42133.5293	N/A	N/A	18.1354887566	59.4620136122	0.02	0.00930000000327	-0.00930000000327	N/A	N/A	0.6492921523374029	N/A	N/A	N/A	N/A	N/A	N/A
42133.5343	N/A	N/A	18.1354887343	59.4620135978	0.0187100000001	0.00570000000036	-0.00570000000036	N/A	N/A	0.634954272535222	N/A	N/A	N/A	N/A	N/A	N/A
42133.5393	N/A	N/A	18.1354887099	59.4620135794	0.0172100000012	0.000700000004002	-0.000700000004002	N/A	N/A	0.6187227105034848	N/A	N/A	N/A	N/A	N/A	N/A
42133.5443	N/A	N/A	18.1354887152	59.4620135931	0.0187199999999	0.0	0.0	N/A	N/A	0.6132231780177326	N/A	N/A	N/A	N/A	N/A	N/A
42133.5493	N/A	N/A	18.1354887253	59.462013612	0.0207199999984	0.0	0.0	N/A	N/A	0.6094707201286751	N/A	N/A	N/A	N/A	N/A	N/A
42133.5543	N/A	N/A	18.1354887186	59.4620136105	0.021	0.00430000000276	-0.00430000000276	N/A	N/A	0.6157748493882667	N/A	N/A	N/A	N/A	N/A	N/A
42133.5593	N/A	N/A	18.1354887092	59.4620136057	0.021	0.00930000000276	-0.00930000000276	N/A	N/A	0.6237160974848407	N/A	N/A	N/A	N/A	N/A	N/A
42133.5643	N/A	N/A	18.1354887025	59.4620136029	0.0192800000001	0.00570000000036	-0.00570000000036	N/A	N/A	0.6140207934865353	N/A	N/A	N/A	N/A	N/A	N/A
42133.5693	N/A	N/A	18.1354886964	59.4620136004	0.0172799999987	0.000699999996726	-0.000699999996726	N/A	N/A	0.601454422863033	N/A	N/A	N/A	N/A	N/A	N/A
42133.5743	N/A	N/A	18.1354886804	59.4620135935	0.0178599999999	0.0	0.0	N/A	N/A	0.5869367741542525	N/A	N/A	N/A	N/A	N/A	N/A
42133.5793	N/A	N/A	18.1354886629	59.4620135859	0.0188599999992	0.0	0.0	N/A	N/A	0.5721014755230948	N/A	N/A	N/A	N/A	N/A	N/A
42133.5843	N/A	N/A	18.1354886616	59.4620135823	0.0194300000003	0.00430000000276	-0.00430000000276	N/A	N/A	0.5818072514891378	N/A	N/A	N/A	N/A	N/A	N/A
42133.5893	N/A	N/A	18.1354886628	59.4620135793	0.0199300000003	0.00930000000276	-0.00930000000276	N/A	N/A	0.5955080861172933	N/A	N/A	N/A	N/A	N/A	N/A
42133.5943	N/A	N/A	18.135488663	59.4620135811	0.0187100000001	0.00570000000036	-0.00570000000036	N/A	N/A	0.6141621651536167	N/A	N/A	N/A	N/A	N/A	N/A
42133.5993	N/A	N/A	18.135488663	59.4620135838	0.017209999999	0.000699999996726	-0.000699999996726	N/A	N/A	0.6336225863275128	N/A	N/A	N/A	N/A	N/A	N/A
42133.6043	N/A	N/A	18.1354886629	59.4620135895	0.0178599999999	0.0	0.0	N/A	N/A	0.5993478104672351	N/A	N/A	N/A	N/A	N/A	N/A
42133.6093	N/A	N/A	18.1354886628	59.4620135958	0.0188599999992	0.0	0.0	N/A	N/A	0.5563254444368777	N/A	N/A	N/A	N/A	N/A	N/A
42133.6143	N/A	N/A	18.1354886466	59.4620136036	0.01943	0.00429999999964	-0.00429999999964	N/A	N/A	0.5489514283128827	N/A	N/A	N/A	N/A	N/A	N/A
42133.6193	N/A	N/A	18.1354886278	59.4620136117	0.0199299999996	0.009299999996	-0.009299999996	N/A	N/A	0.5473806319872307	N/A	N/A	N/A	N/A	N/A	N/A
42133.6243	N/A	N/A	18.1354886189	59.4620136148	0.0187099999992	0.00569999999724	-0.00569999999724	N/A	N/A	0.5766550395486391	N/A	N/A	N/A	N/A	N/A	N/A
42133.6293	N/A	N/A	18.1354886115	59.4620136172	0.0172099999992	0.000699999997235	-0.000699999997235	N/A	N/A	0.6109507593503277	N/A	N/A	N/A	N/A	N/A	N/A
42133.6343	N/A	N/A	18.135488622	59.4620136162	0.0178599999999	0.0	0.0	N/A	N/A	0.5816047932912194	N/A	N/A	N/A	N/A	N/A	N/A
42133.6393	N/A	N/A	18.1354886353	59.4620136147	0.0188600000007	0.0	0.0	N/A	N/A	0.5418985527794583	N/A	N/A	N/A	N/A	N/A	N/A
42133.6443	N/A	N/A	18.1354886304	59.4620136344	0.01943	0.0	0.0	N/A	N/A	0.5274838785139874	N/A	N/A	N/A	N/A	N/A	N/A
42133.6493	N/A	N/A	18.1354886226	59.4620136574	0.0199299999996	0.0	0.0	N/A	N/A	0.5171864359347133	N/A	N/A	N/A	N/A	N/A	N/A
42133.6543	N/A	N/A	18.1354886251	59.4620136537	0.0187100000001	0.0	-0.0	N/A	N/A	0.5300041339519117	N/A	N/A	N/A	N/A	N/A	N/A
42133.6593	N/A	N/A	18.1354886292	59.4620136456	0.0172100000012	0.0	-0.0	N/A	N/A	0.5465847618337939	N/A	N/A	N/A	N/A	N/A	N/A
42133.6643	N/A	N/A	18.1354886357	59.4620136335	0.0178599999991	0.0	0.0	N/A	N/A	0.5206875664355761	N/A	N/A	N/A	N/A	N/A	N/A
42133.6693	N/A	N/A	18.1354886425	59.4620136208	0.0188600000006	0.0	0.0	N/A	N/A	0.4878753764503347	N/A	N/A	N/A	N/A	N/A	N/A
42133.6743	N/A	N/A	18.1354886131	59.4620136154	0.0198599999999	0.0	0.0	N/A	N/A	0.4865087836638944	N/A	N/A	N/A	N/A	N/A	N/A
42133.6793	N/A	N/A	18.1354885778	59.4620136113	0.0208600000007	0.0	0.0	N/A	N/A	0.49026124155841244	N/A	N/A	N/A	N/A	N/A	N/A
42133.6843	N/A	N/A	18.1354885783	59.4620136218	0.0192800000001	0.0	-0.0	N/A	N/A	0.4888353075572409	N/A	N/A	N/A	N/A	N/A	N/A
42133.6893	N/A	N/A	18.1354885846	59.4620136347	0.0172800000016	0.0	-0.0	N/A	N/A	0.4865663795312991	N/A	N/A	N/A	N/A	N/A	N/A
42133.6943	N/A	N/A	18.1354885751	59.4620136237	0.017	0.0	0.0	N/A	N/A	0.44287031634866114	N/A	N/A	N/A	N/A	N/A	N/A
42133.6993	N/A	N/A	18.135488563	59.4620136089	0.017	0.0	0.0	N/A	N/A	0.39243030096602505	N/A	N/A	N/A	N/A	N/A	N/A
42133.7043	N/A	N/A	18.1354885666	59.4620136042	0.0182899999999	0.0	0.0	N/A	N/A	0.41583865691908695	N/A	N/A	N/A	N/A	N/A	N/A
42133.7093	N/A	N/A	18.1354885726	59.4620136011	0.019790000001	0.0	0.0	N/A	N/A	0.45126884076035084	N/A	N/A	N/A	N/A	N/A	N/A
42133.7143	N/A	N/A	18.1354885716	59.4620136035	0.0191400000001	0.0	-0.0	N/A	N/A	0.4894758433897448	N/A	N/A	N/A	N/A	N/A	N/A
42133.7193	N/A	N/A	18.1354885695	59.4620136067	0.0181400000008	0.0	-0.0	N/A	N/A	0.5281348862932912	N/A	N/A	N/A	N/A	N/A	N/A
42133.7243	N/A	N/A	18.1354885558	59.4620136	0.018	0.0	0.0	N/A	N/A	0.4789864145926879	N/A	N/A	N/A	N/A	N/A	N/A
42133.7293	N/A	N/A	18.1354885403	59.4620135917	0.018	0.0	0.0	N/A	N/A	0.4155436963288547	N/A	N/A	N/A	N/A	N/A	N/A
42133.7343	N/A	N/A	18.1354885412	59.462013611	0.0188599999991	0.0	0.0	N/A	N/A	0.40943853455168866	N/A	N/A	N/A	N/A	N/A	N/A
42133.7393	N/A	N/A	18.1354885447	59.4620136348	0.0198600000006	0.0	0.0	N/A	N/A	0.4126673936725767	N/A	N/A	N/A	N/A	N/A	N/A
42133.7443	N/A	N/A	18.1354885531	59.4620136365	0.0182800000001	0.0	-0.0	N/A	N/A	0.4532707333857904	N/A	N/A	N/A	N/A	N/A	N/A
42133.7493	N/A	N/A	18.1354885624	59.4620136346	0.0162799999987	0.0	-0.0	N/A	N/A	0.49995829091060834	N/A	N/A	N/A	N/A	N/A	N/A
42133.7543	N/A	N/A	18.1354885769	59.4620136305	0.01557	0.0	0.0	N/A	N/A	0.4675440360152923	N/A	N/A	N/A	N/A	N/A	N/A
42133.7593	N/A	N/A	18.1354885923	59.4620136261	0.0150700000004	0.0	0.0	N/A	N/A	0.42225274195899326	N/A	N/A	N/A	N/A	N/A	N/A
42133.7643	N/A	N/A	18.1354885758	59.4620136128	0.0162900000008	0.0	0.0	N/A	N/A	0.4155367149608287	N/A	N/A	N/A	N/A	N/A	N/A
42133.7693	N/A	N/A	18.135488554	59.4620135981	0.0177900000008	0.0	0.0	N/A	N/A	0.4151003826478301	N/A	N/A	N/A	N/A	N/A	N/A
42133.7743	N/A	N/A	18.1354885513	59.4620135961	0.01757	0.0	-0.0	N/A	N/A	0.45008725283058454	N/A	N/A	N/A	N/A	N/A	N/A
42133.7793	N/A	N/A	18.1354885516	59.4620135963	0.0170699999997	0.0	-0.0	N/A	N/A	0.49084069089430415	N/A	N/A	N/A	N/A	N/A	N/A
42133.7843	N/A	N/A	18.1354885713	59.4620136198	0.01657	0.0	0.0	N/A	N/A	0.48596424093844043	N/A	N/A	N/A	N/A	N/A	N/A
42133.7893	N/A	N/A	18.1354885941	59.4620136472	0.0160700000004	0.0	0.0	N/A	N/A	0.47365966972083323	N/A	N/A	N/A	N/A	N/A	N/A
42133.7943	N/A	N/A	18.1354886107	59.4620136473	0.0172899999999	-0.0	0.0	N/A	N/A	0.48401994414980126	N/A	N/A	N/A	N/A	N/A	N/A
42133.7993	N/A	N/A	18.1354886262	59.4620136431	0.0187899999988	-0.0	0.0	N/A	N/A	0.49806984461813286	N/A	N/A	N/A	N/A	N/A	N/A
42133.8043	N/A	N/A	18.1354886182	59.4620136157	0.0177099999992	0.0	0.0	N/A	N/A	0.5157221046941339	N/A	N/A	N/A	N/A	N/A	N/A
42133.8093	N/A	N/A	18.1354886065	59.4620135845	0.0162099999992	0.0	0.0	N/A	N/A	0.5339607953774748	N/A	N/A	N/A	N/A	N/A	N/A
42133.8143	N/A	N/A	18.1354885816	59.4620135798	0.0147100000001	0.0	0.0	N/A	N/A	0.4707711498044967	N/A	N/A	N/A	N/A	N/A	N/A
42133.8193	N/A	N/A	18.1354885546	59.4620135794	0.013209999999	0.0	0.0	N/A	N/A	0.39432572851152364	N/A	N/A	N/A	N/A	N/A	N/A
42133.8243	N/A	N/A	18.1354885696	59.4620135885	0.0151499999998	-0.0	0.0	N/A	N/A	0.4213730959765452	N/A	N/A	N/A	N/A	N/A	N/A
42133.8293	N/A	N/A	18.1354885914	59.4620135992	0.017649999998	-0.0	0.0	N/A	N/A	0.4652681266322648	N/A	N/A	N/A	N/A	N/A	N/A
42133.8343	N/A	N/A	18.135488605	59.4620136012	0.0171399999994	0.0	0.0	N/A	N/A	0.49693014464423263	N/A	N/A	N/A	N/A	N/A	N/A
42133.8393	N/A	N/A	18.1354886173	59.4620136018	0.0161399999994	0.0	0.0	N/A	N/A	0.5266007419281362	N/A	N/A	N/A	N/A	N/A	N/A
42133.8443	N/A	N/A	18.1354886235	59.4620136137	0.0147100000001	0.0	0.0	N/A	N/A	0.4648614649572565	N/A	N/A	N/A	N/A	N/A	N/A
42133.8493	N/A	N/A	18.1354886288	59.4620136276	0.013209999999	0.0	0.0	N/A	N/A	0.388241510738957	N/A	N/A	N/A	N/A	N/A	N/A
42133.8543	N/A	N/A	18.1354886218	59.462013631	0.0147199999999	-0.0	0.0	N/A	N/A	0.40205579181658946	N/A	N/A	N/A	N/A	N/A	N/A
42133.8593	N/A	N/A	18.1354886129	59.4620136328	0.0167199999984	-0.0	0.0	N/A	N/A	0.43059192506593397	N/A	N/A	N/A	N/A	N/A	N/A
42133.8643	N/A	N/A	18.1354886217	59.4620136112	0.0161400000001	0.0	0.0	N/A	N/A	0.4204777420746596	N/A	N/A	N/A	N/A	N/A	N/A
42133.8693	N/A	N/A	18.1354886334	59.4620135859	0.0151400000008	0.0	0.0	N/A	N/A	0.40407164711784993	N/A	N/A	N/A	N/A	N/A	N/A
42133.8743	N/A	N/A	18.1354886731	59.4620136008	0.0141399999994	0.0	0.0	N/A	N/A	0.3750572936023863	N/A	N/A	N/A	N/A	N/A	N/A
42133.8793	N/A	N/A	18.1354887173	59.4620136223	0.0131399999994	0.0	0.0	N/A	N/A	0.3439904329168873	N/A	N/A	N/A	N/A	N/A	N/A
42133.8843	N/A	N/A	18.135488715	59.4620136227	0.0147199999999	-0.0	0.0	N/A	N/A	0.34196759633080814	N/A	N/A	N/A	N/A	N/A	N/A
42133.8893	N/A	N/A	18.1354887052	59.4620136196	0.0167200000013	-0.0	0.0	N/A	N/A	0.34467285667336767	N/A	N/A	N/A	N/A	N/A	N/A
42133.8943	N/A	N/A	18.135488697	59.462013623	0.0161400000001	0.0	0.0	N/A	N/A	0.3555584752153959	N/A	N/A	N/A	N/A	N/A	N/A
42133.8993	N/A	N/A	18.1354886891	59.4620136275	0.0151400000008	0.0	0.0	N/A	N/A	0.36777577997046695	N/A	N/A	N/A	N/A	N/A	N/A
42133.9043	N/A	N/A	18.1354886734	59.462013625	0.0141400000001	0.0	0.0	N/A	N/A	0.35425122360783007	N/A	N/A	N/A	N/A	N/A	N/A
42133.9093	N/A	N/A	18.1354886564	59.4620136213	0.0131400000008	0.0	0.0	N/A	N/A	0.33653613171297697	N/A	N/A	N/A	N/A	N/A	N/A
42133.9143	N/A	N/A	18.1354886766	59.4620136186	0.0151499999977	-0.0	0.0	N/A	N/A	0.33503165788255596	N/A	N/A	N/A	N/A	N/A	N/A
42133.9193	N/A	N/A	18.135488703	59.462013616	0.0176500000014	-0.0	0.0	N/A	N/A	0.3361661218980031	N/A	N/A	N/A	N/A	N/A	N/A
42133.9243	N/A	N/A	18.1354887049	59.4620136117	0.01757	0.0	0.0	N/A	N/A	0.33677524180628376	N/A	N/A	N/A	N/A	N/A	N/A
42133.9293	N/A	N/A	18.1354887028	59.4620136071	0.0170699999997	0.0	0.0	N/A	N/A	0.337298840582263	N/A	N/A	N/A	N/A	N/A	N/A
42133.9343	N/A	N/A	18.1354887027	59.4620135984	0.0157100000001	0.0	0.0	N/A	N/A	0.2744809501494611	N/A	N/A	N/A	N/A	N/A	N/A
42133.9393	N/A	N/A	18.135488703	59.462013589	0.0142100000012	0.0	0.0	N/A	N/A	0.20135165454410722	N/A	N/A	N/A	N/A	N/A	N/A
42133.9443	N/A	N/A	18.1354886967	59.4620135993	0.0152900000008	-0.00430000000276	0.00430000000276	N/A	N/A	0.2141536445637708	N/A	N/A	N/A	N/A	N/A	N/A
42133.9493	N/A	N/A	18.1354886894	59.4620136128	0.0167900000008	-0.00930000000276	0.00930000000276	N/A	N/A	0.24094444858188374	N/A	N/A	N/A	N/A	N/A	N/A
42133.9543	N/A	N/A	18.1354886777	59.4620136239	0.017	-0.00570000000036	0.00570000000036	N/A	N/A	0.28507160804182574	N/A	N/A	N/A	N/A	N/A	N/A
42133.9593	N/A	N/A	18.1354886652	59.4620136347	0.017	-0.000699999996726	0.000699999996726	N/A	N/A	0.3320209649546334	N/A	N/A	N/A	N/A	N/A	N/A
42133.9643	N/A	N/A	18.1354886603	59.4620136206	0.0157100000001	0.0	0.0	N/A	N/A	0.28110621998957436	N/A	N/A	N/A	N/A	N/A	N/A
42133.9693	N/A	N/A	18.1354886567	59.4620136025	0.0142100000012	0.0	0.0	N/A	N/A	0.21426010968682854	N/A	N/A	N/A	N/A	N/A	N/A
42133.9743	N/A	N/A	18.1354886613	59.4620135974	0.0152899999999	-0.0	0.0	N/A	N/A	0.21218142249358674	N/A	N/A	N/A	N/A	N/A	N/A
42133.9793	N/A	N/A	18.1354886672	59.4620135944	0.0167899999988	-0.0	0.0	N/A	N/A	0.22064626935960027	N/A	N/A	N/A	N/A	N/A	N/A
42133.9843	N/A	N/A	18.1354886628	59.4620135898	0.0174299999995	0.0	0.0	N/A	N/A	0.24704786493483893	N/A	N/A	N/A	N/A	N/A	N/A
42133.9893	N/A	N/A	18.1354886568	59.4620135849	0.0179300000003	0.0	0.0	N/A	N/A	0.2763693964110121	N/A	N/A	N/A	N/A	N/A	N/A
42133.9943	N/A	N/A	18.1354886463	59.4620136078	0.0162800000001	0.0	0.0	N/A	N/A	0.2654645792296074	N/A	N/A	N/A	N/A	N/A	N/A
42133.9993	N/A	N/A	18.1354886351	59.4620136353	0.0142799999987	0.0	0.0	N/A	N/A	0.2480112866969652	N/A	N/A	N/A	N/A	N/A	N/A
42134.0043	N/A	N/A	18.1354886429	59.4620136333	0.0152899999999	-0.00429999999964	0.00429999999964	N/A	N/A	0.23626173018475569	N/A	N/A	N/A	N/A	N/A	N/A
42134.0093	N/A	N/A	18.1354886538	59.4620136265	0.0167899999988	-0.009299999996	0.009299999996	N/A	N/A	0.22544068883026425	N/A	N/A	N/A	N/A	N/A	N/A
42134.0143	N/A	N/A	18.1354886472	59.4620136099	0.0174300000003	-0.00569999999724	0.00569999999724	N/A	N/A	0.23203105208234578	N/A	N/A	N/A	N/A	N/A	N/A
42134.0193	N/A	N/A	18.1354886378	59.4620135917	0.0179300000003	-0.000699999997235	0.000699999997235	N/A	N/A	0.24145583004311513	N/A	N/A	N/A	N/A	N/A	N/A
42134.0243	N/A	N/A	18.1354886361	59.4620135756	0.0167100000001	0.0	0.0	N/A	N/A	0.24074897169101728	N/A	N/A	N/A	N/A	N/A	N/A
42134.0293	N/A	N/A	18.1354886356	59.4620135597	0.015209999999	0.0	0.0	N/A	N/A	0.23839277719911053	N/A	N/A	N/A	N/A	N/A	N/A
42134.0343	N/A	N/A	18.1354886488	59.4620135683	0.0158599999999	-0.00429999999964	0.00429999999964	N/A	N/A	0.23160868239869753	N/A	N/A	N/A	N/A	N/A	N/A
42134.0393	N/A	N/A	18.1354886642	59.4620135809	0.0168599999992	-0.009299999996	0.009299999996	N/A	N/A	0.2241037666205825	N/A	N/A	N/A	N/A	N/A	N/A
42134.0443	N/A	N/A	18.1354886979	59.4620136057	0.01743	-0.00570000000036	0.00570000000036	N/A	N/A	0.23828805744424486	N/A	N/A	N/A	N/A	N/A	N/A
42134.0493	N/A	N/A	18.1354887347	59.4620136324	0.0179299999996	-0.000700000004002	0.000700000004002	N/A	N/A	0.2560031493390979	N/A	N/A	N/A	N/A	N/A	N/A
42134.0543	N/A	N/A	18.1354887164	59.46201361	0.0162799999989	0.0	-0.0	N/A	N/A	0.23904553032840106	N/A	N/A	N/A	N/A	N/A	N/A
42134.0593	N/A	N/A	18.1354886891	59.4620135796	0.0142799999989	0.0	-0.0	N/A	N/A	0.21644351651507449	N/A	N/A	N/A	N/A	N/A	N/A
42134.0643	N/A	N/A	18.1354886815	59.4620135807	0.01443	0.0	0.0	N/A	N/A	0.18183363746318565	N/A	N/A	N/A	N/A	N/A	N/A
42134.0693	N/A	N/A	18.1354886771	59.462013587	0.0149300000003	0.0	0.0	N/A	N/A	0.1452689896073002	N/A	N/A	N/A	N/A	N/A	N/A
42134.0743	N/A	N/A	18.1354886676	59.4620135966	0.0158599999999	0.0	0.0	N/A	N/A	0.19388513594099985	N/A	N/A	N/A	N/A	N/A	N/A
42134.0793	N/A	N/A	18.1354886573	59.4620136069	0.0168599999992	0.0	0.0	N/A	N/A	0.2563679231169346	N/A	N/A	N/A	N/A	N/A	N/A
42134.0843	N/A	N/A	18.1354886583	59.462013611	0.0161399999994	0.0	-0.0	N/A	N/A	0.2853787860066219	N/A	N/A	N/A	N/A	N/A	N/A
42134.0893	N/A	N/A	18.1354886613	59.4620136141	0.0151399999994	0.0	-0.0	N/A	N/A	0.30894073090854535	N/A	N/A	N/A	N/A	N/A	N/A
42134.0943	N/A	N/A	18.1354886613	59.4620135988	0.015	0.0	0.0	N/A	N/A	0.24251873555826675	N/A	N/A	N/A	N/A	N/A	N/A
42134.0993	N/A	N/A	18.1354886609	59.4620135806	0.015	0.0	0.0	N/A	N/A	0.16144819174414352	N/A	N/A	N/A	N/A	N/A	N/A
42134.1043	N/A	N/A	18.135488699	59.4620136029	0.0158599999999	0.0	0.0	N/A	N/A	0.1863470589031158	N/A	N/A	N/A	N/A	N/A	N/A
42134.1093	N/A	N/A	18.1354887433	59.4620136319	0.0168599999992	0.0	0.0	N/A	N/A	0.22849676030811092	N/A	N/A	N/A	N/A	N/A	N/A
42134.1143	N/A	N/A	18.1354887268	59.4620136266	0.0157100000001	0.0	-0.0	N/A	N/A	0.28355491692109985	N/A	N/A	N/A	N/A	N/A	N/A
42134.1193	N/A	N/A	18.1354887004	59.4620136157	0.0142100000012	0.0	-0.0	N/A	N/A	0.34071444988232513	N/A	N/A	N/A	N/A	N/A	N/A
42134.1243	N/A	N/A	18.1354886838	59.46201361	0.014	0.0	0.0	N/A	N/A	0.26286054792915714	N/A	N/A	N/A	N/A	N/A	N/A
42134.1293	N/A	N/A	18.1354886689	59.4620136052	0.014	0.0	0.0	N/A	N/A	0.16302771471508148	N/A	N/A	N/A	N/A	N/A	N/A
42134.1343	N/A	N/A	18.1354887152	59.462013615	0.0152899999999	0.0	0.0	N/A	N/A	0.1756935691497551	N/A	N/A	N/A	N/A	N/A	N/A
42134.1393	N/A	N/A	18.1354887715	59.4620136273	0.016790000001	0.0	0.0	N/A	N/A	0.2066731633951951	N/A	N/A	N/A	N/A	N/A	N/A
42134.1443	N/A	N/A	18.1354887916	59.4620136223	0.0157100000001	0.0	-0.0	N/A	N/A	0.25476396558065856	N/A	N/A	N/A	N/A	N/A	N/A
42134.1493	N/A	N/A	18.1354888058	59.4620136144	0.0142100000012	0.0	-0.0	N/A	N/A	0.3056403132392759	N/A	N/A	N/A	N/A	N/A	N/A
42134.1543	N/A	N/A	18.135488786	59.4620136109	0.01357	0.0	0.0	N/A	N/A	0.2533991181143232	N/A	N/A	N/A	N/A	N/A	N/A
42134.1593	N/A	N/A	18.1354887606	59.4620136081	0.0130700000004	0.0	0.0	N/A	N/A	0.18437134624817175	N/A	N/A	N/A	N/A	N/A	N/A
42134.1643	N/A	N/A	18.1354887512	59.4620136064	0.0147199999982	0.0	0.0	N/A	N/A	0.20667839932912407	N/A	N/A	N/A	N/A	N/A	N/A
42134.1693	N/A	N/A	18.1354887444	59.4620136049	0.0167200000011	0.0	0.0	N/A	N/A	0.2438539124507008	N/A	N/A	N/A	N/A	N/A	N/A
42134.1743	N/A	N/A	18.1354887429	59.4620136039	0.0161400000001	0.00429999999964	-0.00429999999964	N/A	N/A	0.25483726941245516	N/A	N/A	N/A	N/A	N/A	N/A
42134.1793	N/A	N/A	18.1354887423	59.462013603	0.0151399999993	0.00930000000327	-0.00930000000327	N/A	N/A	0.2615567870375224	N/A	N/A	N/A	N/A	N/A	N/A
42134.1843	N/A	N/A	18.1354887511	59.4620136058	0.0141400000001	0.00570000000036	-0.00570000000036	N/A	N/A	0.20193284913161597	N/A	N/A	N/A	N/A	N/A	N/A
42134.1893	N/A	N/A	18.1354887614	59.4620136092	0.0131400000008	0.000700000004002	-0.000700000004002	N/A	N/A	0.13150881386488497	N/A	N/A	N/A	N/A	N/A	N/A
42134.1943	N/A	N/A	18.1354887709	59.4620136155	0.0142900000008	-0.0	0.0	N/A	N/A	0.1947473286430326	N/A	N/A	N/A	N/A	N/A	N/A
42134.1993	N/A	N/A	18.1354887803	59.4620136222	0.0157900000008	-0.0	0.0	N/A	N/A	0.27974486321515646	N/A	N/A	N/A	N/A	N/A	N/A
42134.2043	N/A	N/A	18.1354887688	59.4620136201	0.0151400000001	0.0	0.0	N/A	N/A	0.3259419831362913	N/A	N/A	N/A	N/A	N/A	N/A
42134.2093	N/A	N/A	18.1354887539	59.4620136165	0.0141399999993	0.0	0.0	N/A	N/A	0.3658227565733788	N/A	N/A	N/A	N/A	N/A	N/A
42134.2143	N/A	N/A	18.1354887558	59.4620136097	0.0131400000001	0.0	0.0	N/A	N/A	0.291253564262587	N/A	N/A	N/A	N/A	N/A	N/A
42134.2193	N/A	N/A	18.1354887605	59.4620136024	0.0121400000008	0.0	0.0	N/A	N/A	0.1980529822739021	N/A	N/A	N/A	N/A	N/A	N/A
42134.2243	N/A	N/A	18.1354887777	59.4620136087	0.0137199999999	-0.0	0.0	N/A	N/A	0.24016603171601283	N/A	N/A	N/A	N/A	N/A	N/A
42134.2293	N/A	N/A	18.135488797	59.4620136173	0.0157199999984	-0.0	0.0	N/A	N/A	0.3043068816801358	N/A	N/A	N/A	N/A	N/A	N/A
42134.2343	N/A	N/A	18.1354888196	59.4620136128	0.0155700000005	0.0	0.0	N/A	N/A	0.35651491560102727	N/A	N/A	N/A	N/A	N/A	N/A
42134.2393	N/A	N/A	18.1354888428	59.4620136063	0.0150699999997	0.0	0.0	N/A	N/A	0.4067803981316099	N/A	N/A	N/A	N/A	N/A	N/A
42134.2443	N/A	N/A	18.1354888205	59.4620136192	0.0132800000001	0.0	0.0	N/A	N/A	0.35753069727580056	N/A	N/A	N/A	N/A	N/A	N/A
42134.2493	N/A	N/A	18.1354887908	59.4620136352	0.0112799999987	0.0	0.0	N/A	N/A	0.29208085027839215	N/A	N/A	N/A	N/A	N/A	N/A
42134.2543	N/A	N/A	18.1354887856	59.4620136403	0.0131499999998	-0.0	0.0	N/A	N/A	0.3017552103634619	N/A	N/A	N/A	N/A	N/A	N/A
42134.2593	N/A	N/A	18.1354887843	59.4620136435	0.015649999998	-0.0	0.0	N/A	N/A	0.32365909246005353	N/A	N/A	N/A	N/A	N/A	N/A
42134.2643	N/A	N/A	18.1354887938	59.4620136394	0.0155699999997	0.0	0.0	N/A	N/A	0.34233586081321304	N/A	N/A	N/A	N/A	N/A	N/A
42134.2693	N/A	N/A	18.1354888051	59.4620136341	0.0150699999997	0.0	0.0	N/A	N/A	0.36048728503395405	N/A	N/A	N/A	N/A	N/A	N/A
42134.2743	N/A	N/A	18.1354888103	59.4620136319	0.0141400000001	0.0	0.0	N/A	N/A	0.31462177761485327	N/A	N/A	N/A	N/A	N/A	N/A
42134.2793	N/A	N/A	18.1354888146	59.4620136302	0.0131399999993	0.0	0.0	N/A	N/A	0.258334909197082	N/A	N/A	N/A	N/A	N/A	N/A
42134.2843	N/A	N/A	18.1354888181	59.4620136202	0.0151499999998	-0.0	0.0	N/A	N/A	0.2921820794143364	N/A	N/A	N/A	N/A	N/A	N/A
42134.2893	N/A	N/A	18.1354888215	59.4620136088	0.017649999998	-0.0	0.0	N/A	N/A	0.34070223258447574	N/A	N/A	N/A	N/A	N/A	N/A
42134.2943	N/A	N/A	18.1354887961	59.4620135996	0.01757	0.0	0.0	N/A	N/A	0.33743846692293056	N/A	N/A	N/A	N/A	N/A	N/A
42134.2993	N/A	N/A	18.1354887659	59.4620135909	0.0170700000004	0.0	0.0	N/A	N/A	0.32574476094307675	N/A	N/A	N/A	N/A	N/A	N/A
42134.3043	N/A	N/A	18.1354887812	59.4620135981	0.0152799999989	0.0	0.0	N/A	N/A	0.23307301358204027	N/A	N/A	N/A	N/A	N/A	N/A
42134.3093	N/A	N/A	18.135488804	59.4620136078	0.0132799999989	0.0	0.0	N/A	N/A	0.12721879444858417	N/A	N/A	N/A	N/A	N/A	N/A
42134.3143	N/A	N/A	18.1354888302	59.462013619	0.0147199999999	-0.0	0.0	N/A	N/A	0.15742869852607885	N/A	N/A	N/A	N/A	N/A	N/A
42134.3193	N/A	N/A	18.1354888569	59.4620136304	0.0167200000013	-0.0	0.0	N/A	N/A	0.2097885761240055	N/A	N/A	N/A	N/A	N/A	N/A
42134.3243	N/A	N/A	18.1354888428	59.4620136377	0.017	0.0	0.0	N/A	N/A	0.24466199987148687	N/A	N/A	N/A	N/A	N/A	N/A
42134.3293	N/A	N/A	18.1354888219	59.4620136442	0.017	0.0	0.0	N/A	N/A	0.2766887916222803	N/A	N/A	N/A	N/A	N/A	N/A
42134.3343	N/A	N/A	18.1354888308	59.4620136334	0.0157099999992	0.0	0.0	N/A	N/A	0.2168554141896881	N/A	N/A	N/A	N/A	N/A	N/A
42134.3393	N/A	N/A	18.1354888444	59.4620136197	0.0142099999992	0.0	0.0	N/A	N/A	0.14206805574173106	N/A	N/A	N/A	N/A	N/A	N/A
42134.3443	N/A	N/A	18.1354888462	59.4620136063	0.0152899999999	-0.0	0.0	N/A	N/A	0.15996640725988817	N/A	N/A	N/A	N/A	N/A	N/A
42134.3493	N/A	N/A	18.135488846	59.4620135929	0.016790000001	-0.0	0.0	N/A	N/A	0.19295313014658202	N/A	N/A	N/A	N/A	N/A	N/A
42134.3543	N/A	N/A	18.1354888446	59.4620135969	0.01743	0.0	0.0	N/A	N/A	0.22406362403953872	N/A	N/A	N/A	N/A	N/A	N/A
42134.3593	N/A	N/A	18.1354888431	59.4620136039	0.0179299999996	0.0	0.0	N/A	N/A	0.254868685314825	N/A	N/A	N/A	N/A	N/A	N/A
42134.3643	N/A	N/A	18.1354888497	59.4620136078	0.0162800000001	0.0	0.0	N/A	N/A	0.1989919693419738	N/A	N/A	N/A	N/A	N/A	N/A
42134.3693	N/A	N/A	18.1354888577	59.4620136112	0.0142800000016	0.0	0.0	N/A	N/A	0.12900426638792392	N/A	N/A	N/A	N/A	N/A	N/A
42134.3743	N/A	N/A	18.1354888712	59.4620136018	0.0157200000011	-0.0	0.0	N/A	N/A	0.13609204843511544	N/A	N/A	N/A	N/A	N/A	N/A
42134.3793	N/A	N/A	18.1354888855	59.4620135903	0.0177200000011	-0.0	0.0	N/A	N/A	0.15572700252005164	N/A	N/A	N/A	N/A	N/A	N/A
42134.3843	N/A	N/A	18.1354888866	59.4620136044	0.01843	0.0	0.0	N/A	N/A	0.17558710406618983	N/A	N/A	N/A	N/A	N/A	N/A
42134.3893	N/A	N/A	18.1354888855	59.4620136228	0.0189300000003	0.0	0.0	N/A	N/A	0.19548385755340197	N/A	N/A	N/A	N/A	N/A	N/A
42134.3943	N/A	N/A	18.1354888835	59.4620136229	0.0177100000001	0.0	0.0	N/A	N/A	0.18513580040640965	N/A	N/A	N/A	N/A	N/A	N/A
42134.3993	N/A	N/A	18.1354888813	59.4620136201	0.0162100000012	0.0	0.0	N/A	N/A	0.16986416946257085	N/A	N/A	N/A	N/A	N/A	N/A
42134.4043	N/A	N/A	18.1354888609	59.4620136122	0.0172899999999	-0.00429999999964	0.00429999999964	N/A	N/A	0.17282948384905472	N/A	N/A	N/A	N/A	N/A	N/A
42134.4093	N/A	N/A	18.1354888376	59.4620136035	0.0187899999988	-0.009299999996	0.009299999996	N/A	N/A	0.17876360330151778	N/A	N/A	N/A	N/A	N/A	N/A
42134.4143	N/A	N/A	18.1354888538	59.4620136046	0.0194299999995	-0.00570000000451	0.00570000000451	N/A	N/A	0.2033849630391927	N/A	N/A	N/A	N/A	N/A	N/A
42134.4193	N/A	N/A	18.1354888765	59.4620136071	0.0199300000003	-0.000699999997235	0.000699999997235	N/A	N/A	0.23104843172355846	N/A	N/A	N/A	N/A	N/A	N/A
42134.4243	N/A	N/A	18.1354888981	59.462013605	0.0182800000001	0.0	-0.0	N/A	N/A	0.2097048002877561	N/A	N/A	N/A	N/A	N/A	N/A
42134.4293	N/A	N/A	18.1354889195	59.4620136021	0.0162799999987	0.0	-0.0	N/A	N/A	0.18038326883291714	N/A	N/A	N/A	N/A	N/A	N/A
42134.4343	N/A	N/A	18.1354889217	59.4620136058	0.0168599999999	0.0	0.0	N/A	N/A	0.1945151998039731	N/A	N/A	N/A	N/A	N/A	N/A
42134.4393	N/A	N/A	18.1354889208	59.4620136107	0.0178599999992	0.0	0.0	N/A	N/A	0.21572095020027504	N/A	N/A	N/A	N/A	N/A	N/A
42134.4443	N/A	N/A	18.1354889299	59.4620136163	0.0184300000003	0.0	0.0	N/A	N/A	0.2570398749536197	N/A	N/A	N/A	N/A	N/A	N/A
42134.4493	N/A	N/A	18.1354889407	59.4620136222	0.0189300000003	0.0	0.0	N/A	N/A	0.3016330373420748	N/A	N/A	N/A	N/A	N/A	N/A
42134.4543	N/A	N/A	18.1354889397	59.4620136251	0.0172800000001	0.0	-0.0	N/A	N/A	0.31508079920342275	N/A	N/A	N/A	N/A	N/A	N/A
42134.4593	N/A	N/A	18.1354889369	59.4620136275	0.0152799999987	0.0	-0.0	N/A	N/A	0.3234583796190911	N/A	N/A	N/A	N/A	N/A	N/A
42134.4643	N/A	N/A	18.1354889637	59.4620136231	0.0158599999999	0.0	0.0	N/A	N/A	0.30616914804491124	N/A	N/A	N/A	N/A	N/A	N/A
42134.4693	N/A	N/A	18.1354889952	59.4620136176	0.0168599999992	0.0	0.0	N/A	N/A	0.28470159826100067	N/A	N/A	N/A	N/A	N/A	N/A
42134.4743	N/A	N/A	18.1354889871	59.4620136056	0.0178599999999	0.0	0.0	N/A	N/A	0.31336688587589445	N/A	N/A	N/A	N/A	N/A	N/A
42134.4793	N/A	N/A	18.1354889725	59.4620135925	0.0188599999992	0.0	0.0	N/A	N/A	0.35019333306618	N/A	N/A	N/A	N/A	N/A	N/A
42134.4843	N/A	N/A	18.135488942	59.4620135834	0.0177100000014	0.0	-0.0	N/A	N/A	0.39347400784661307	N/A	N/A	N/A	N/A	N/A	N/A
42134.4893	N/A	N/A	18.135488909	59.4620135749	0.0162099999992	0.0	-0.0	N/A	N/A	0.4378053709117796	N/A	N/A	N/A	N/A	N/A	N/A
42134.4943	N/A	N/A	18.13548891	59.4620135846	0.016	0.0	0.0	N/A	N/A	0.40806321510707166	N/A	N/A	N/A	N/A	N/A	N/A
42134.4993	N/A	N/A	18.1354889166	59.4620135972	0.016	0.0	0.0	N/A	N/A	0.3662625794913934	N/A	N/A	N/A	N/A	N/A	N/A
42134.5043	N/A	N/A	18.1354889271	59.4620136069	0.0168599999999	0.0	0.0	N/A	N/A	0.3636376043234935	N/A	N/A	N/A	N/A	N/A	N/A
42134.5093	N/A	N/A	18.1354889383	59.4620136161	0.0178599999992	0.0	0.0	N/A	N/A	0.367390062212551	N/A	N/A	N/A	N/A	N/A	N/A
42134.5143	N/A	N/A	18.1354889555	59.4620136017	0.0171399999994	0.0	-0.0	N/A	N/A	0.39275667758001265	N/A	N/A	N/A	N/A	N/A	N/A
42134.5193	N/A	N/A	18.1354889738	59.4620135835	0.0161399999994	0.0	-0.0	N/A	N/A	0.4216418767005188	N/A	N/A	N/A	N/A	N/A	N/A
42134.5243	N/A	N/A	18.1354889627	59.4620136072	0.01643	0.0	0.0	N/A	N/A	0.40151997574034803	N/A	N/A	N/A	N/A	N/A	N/A
42134.5293	N/A	N/A	18.1354889469	59.4620136377	0.0169300000003	0.0	0.0	N/A	N/A	0.37342017476279404	N/A	N/A	N/A	N/A	N/A	N/A
42134.5343	N/A	N/A	18.1354889407	59.4620136396	0.0187199999999	0.0	0.0	N/A	N/A	0.39012472105028645	N/A	N/A	N/A	N/A	N/A	N/A
42134.5393	N/A	N/A	18.135488936	59.4620136369	0.0207199999984	0.0	0.0	N/A	N/A	0.4141229982477474	N/A	N/A	N/A	N/A	N/A	N/A
42134.5443	N/A	N/A	18.1354889462	59.4620136318	0.0192800000001	0.0	-0.0	N/A	N/A	0.4334682276947073	N/A	N/A	N/A	N/A	N/A	N/A
42134.5493	N/A	N/A	18.1354889587	59.4620136263	0.0172800000016	0.0	-0.0	N/A	N/A	0.4520559842149225	N/A	N/A	N/A	N/A	N/A	N/A
42134.5543	N/A	N/A	18.1354889655	59.4620136193	0.0165699999997	0.0	0.0	N/A	N/A	0.4142818232029243	N/A	N/A	N/A	N/A	N/A	N/A
42134.5593	N/A	N/A	18.1354889714	59.462013612	0.0160699999997	0.0	0.0	N/A	N/A	0.36733246632427685	N/A	N/A	N/A	N/A	N/A	N/A
42134.5643	N/A	N/A	18.1354889822	59.4620136212	0.0177199999999	0.0	0.0	N/A	N/A	0.38297410710473234	N/A	N/A	N/A	N/A	N/A	N/A
42134.5693	N/A	N/A	18.1354889939	59.462013633	0.0197200000013	0.0	0.0	N/A	N/A	0.4088049800530428	N/A	N/A	N/A	N/A	N/A	N/A
42134.5743	N/A	N/A	18.1354889823	59.4620136355	0.0191400000001	0.0	-0.0	N/A	N/A	0.4530228966319691	N/A	N/A	N/A	N/A	N/A	N/A
42134.5793	N/A	N/A	18.135488967	59.4620136365	0.0181400000008	0.0	-0.0	N/A	N/A	0.5002340528640651	N/A	N/A	N/A	N/A	N/A	N/A
42134.5843	N/A	N/A	18.1354889707	59.4620136253	0.0175699999997	0.0	0.0	N/A	N/A	0.47419723109960804	N/A	N/A	N/A	N/A	N/A	N/A
42134.5893	N/A	N/A	18.1354889775	59.462013612	0.0170699999997	0.0	0.0	N/A	N/A	0.43623631986873135	N/A	N/A	N/A	N/A	N/A	N/A
42134.5943	N/A	N/A	18.1354889763	59.4620136058	0.0178599999999	0.0	0.0	N/A	N/A	0.44795795114467535	N/A	N/A	N/A	N/A	N/A	N/A
42134.5993	N/A	N/A	18.1354889737	59.4620136007	0.0188600000007	0.0	0.0	N/A	N/A	0.4677674381692243	N/A	N/A	N/A	N/A	N/A	N/A
42134.6043	N/A	N/A	18.135488962	59.4620135968	0.0181400000001	0.0	-0.0	N/A	N/A	0.5047631823078806	N/A	N/A	N/A	N/A	N/A	N/A
42134.6093	N/A	N/A	18.1354889488	59.4620135932	0.0171400000008	0.0	-0.0	N/A	N/A	0.5445566892243978	N/A	N/A	N/A	N/A	N/A	N/A
42134.6143	N/A	N/A	18.1354889723	59.462013614	0.0161400000001	0.0	0.0	N/A	N/A	0.5113273656308094	N/A	N/A	N/A	N/A	N/A	N/A
42134.6193	N/A	N/A	18.1354890017	59.4620136387	0.0151400000008	0.0	0.0	N/A	N/A	0.46621060449958274	N/A	N/A	N/A	N/A	N/A	N/A
42134.6243	N/A	N/A	18.1354889806	59.4620136439	0.0167200000011	-0.0	0.0	N/A	N/A	0.46724907537313903	N/A	N/A	N/A	N/A	N/A	N/A
42134.6293	N/A	N/A	18.1354889513	59.4620136459	0.0187200000011	-0.0	0.0	N/A	N/A	0.47580118870791116	N/A	N/A	N/A	N/A	N/A	N/A
42134.6343	N/A	N/A	18.1354889168	59.4620136294	0.019	0.0	0.0	N/A	N/A	0.5107706055932832	N/A	N/A	N/A	N/A	N/A	N/A
42134.6393	N/A	N/A	18.1354888814	59.4620136099	0.019	0.0	0.0	N/A	N/A	0.5500405137917282	N/A	N/A	N/A	N/A	N/A	N/A
42134.6443	N/A	N/A	18.1354888731	59.4620136032	0.0181400000001	0.0	0.0	N/A	N/A	0.5246180478840794	N/A	N/A	N/A	N/A	N/A	N/A
42134.6493	N/A	N/A	18.1354888692	59.4620135986	0.0171400000008	0.0	0.0	N/A	N/A	0.4886642653191562	N/A	N/A	N/A	N/A	N/A	N/A
42134.6543	N/A	N/A	18.1354888993	59.4620136064	0.0200099999997	-0.0	0.0	N/A	N/A	0.4766511640494938	N/A	N/A	N/A	N/A	N/A	N/A
42134.6593	N/A	N/A	18.135488935	59.4620136161	0.0235099999972	-0.0	0.0	N/A	N/A	0.4685353830336253	N/A	N/A	N/A	N/A	N/A	N/A
42134.6643	N/A	N/A	18.1354889552	59.4620136189	0.0231400000009	0.00429999999549	-0.00429999999549	N/A	N/A	0.4810581203958596	N/A	N/A	N/A	N/A	N/A	N/A
42134.6693	N/A	N/A	18.1354889729	59.4620136206	0.0221399999994	0.00930000000276	-0.00930000000276	N/A	N/A	0.49694061661212	N/A	N/A	N/A	N/A	N/A	N/A
42134.6743	N/A	N/A	18.135488962	59.4620136163	0.0207100000001	0.00570000000036	-0.00570000000036	N/A	N/A	0.4677936180976862	N/A	N/A	N/A	N/A	N/A	N/A
42134.6793	N/A	N/A	18.1354889465	59.4620136111	0.019209999999	0.000699999996726	-0.000699999996726	N/A	N/A	0.431316236704464	N/A	N/A	N/A	N/A	N/A	N/A
42134.6843	N/A	N/A	18.1354889502	59.4620136154	0.0215799999998	-0.0	0.0	N/A	N/A	0.4383673669053792	N/A	N/A	N/A	N/A	N/A	N/A
42134.6893	N/A	N/A	18.135488957	59.4620136213	0.0245799999976	-0.0	0.0	N/A	N/A	0.45250453383624706	N/A	N/A	N/A	N/A	N/A	N/A
42134.6943	N/A	N/A	18.1354889676	59.462013624	0.0237099999992	0.00430000000276	-0.00430000000276	N/A	N/A	0.46896822469093774	N/A	N/A	N/A	N/A	N/A	N/A
42134.6993	N/A	N/A	18.1354889788	59.4620136262	0.0222099999992	0.00930000000276	-0.00930000000276	N/A	N/A	0.485810651972683	N/A	N/A	N/A	N/A	N/A	N/A
42134.7043	N/A	N/A	18.1354889939	59.4620136198	0.0207100000001	0.00570000000036	-0.00570000000036	N/A	N/A	0.46182633738469225	N/A	N/A	N/A	N/A	N/A	N/A
42134.7093	N/A	N/A	18.1354890096	59.4620136121	0.019209999999	0.000699999996726	-0.000699999996726	N/A	N/A	0.43119580898990517	N/A	N/A	N/A	N/A	N/A	N/A
42134.7143	N/A	N/A	18.1354890128	59.4620136145	0.0211499999998	-0.0	0.0	N/A	N/A	0.43156058282323634	N/A	N/A	N/A	N/A	N/A	N/A
42134.7193	N/A	N/A	18.1354890138	59.4620136186	0.023649999998	-0.0	0.0	N/A	N/A	0.436971103500482	N/A	N/A	N/A	N/A	N/A	N/A
42134.7243	N/A	N/A	18.1354890046	59.4620136297	0.024	0.00429999999964	-0.00429999999964	N/A	N/A	0.43742837976886023	N/A	N/A	N/A	N/A	N/A	N/A
42134.7293	N/A	N/A	18.1354889937	59.462013642	0.024	0.009299999996	-0.009299999996	N/A	N/A	0.4370793139187153	N/A	N/A	N/A	N/A	N/A	N/A
42134.7343	N/A	N/A	18.1354890164	59.4620136435	0.0222800000018	0.00570000000451	-0.00570000000451	N/A	N/A	0.40003120992516783	N/A	N/A	N/A	N/A	N/A	N/A
42134.7393	N/A	N/A	18.1354890446	59.4620136434	0.0202799999989	0.000699999997235	-0.000699999997235	N/A	N/A	0.35700884380090186	N/A	N/A	N/A	N/A	N/A	N/A
42134.7443	N/A	N/A	18.1354890596	59.4620136315	0.0212899999999	0.0	0.0	N/A	N/A	0.37012324782255834	N/A	N/A	N/A	N/A	N/A	N/A
42134.7493	N/A	N/A	18.1354890725	59.4620136178	0.022790000001	0.0	0.0	N/A	N/A	0.3923761958016772	N/A	N/A	N/A	N/A	N/A	N/A
42134.7543	N/A	N/A	18.1354890664	59.4620136194	0.02257	0.0	0.0	N/A	N/A	0.3987187222885796	N/A	N/A	N/A	N/A	N/A	N/A
42134.7593	N/A	N/A	18.1354890571	59.4620136236	0.0220700000004	0.0	0.0	N/A	N/A	0.4024711801776371	N/A	N/A	N/A	N/A	N/A	N/A
42134.7643	N/A	N/A	18.1354890424	59.4620136271	0.0211399999994	0.0	-0.0	N/A	N/A	0.38243305502527136	N/A	N/A	N/A	N/A	N/A	N/A
42134.7693	N/A	N/A	18.1354890268	59.4620136305	0.0201399999994	0.0	-0.0	N/A	N/A	0.358522044272949	N/A	N/A	N/A	N/A	N/A	N/A
42134.7743	N/A	N/A	18.1354890361	59.4620136256	0.0212899999999	0.0	0.0	N/A	N/A	0.3614035828806868	N/A	N/A	N/A	N/A	N/A	N/A
42134.7793	N/A	N/A	18.1354890495	59.4620136194	0.022790000001	0.0	0.0	N/A	N/A	0.3686466992817333	N/A	N/A	N/A	N/A	N/A	N/A
42134.7843	N/A	N/A	18.1354890801	59.4620136199	0.023	0.0	0.0	N/A	N/A	0.37754089714448674	N/A	N/A	N/A	N/A	N/A	N/A
42134.7893	N/A	N/A	18.1354891135	59.4620136216	0.023	0.0	0.0	N/A	N/A	0.38670387571079	N/A	N/A	N/A	N/A	N/A	N/A
42134.7943	N/A	N/A	18.1354891283	59.4620136291	0.0208500000002	0.0	-0.0	N/A	N/A	0.3714008288380406	N/A	N/A	N/A	N/A	N/A	N/A
42134.7993	N/A	N/A	18.13548914	59.4620136376	0.018350000002	0.0	-0.0	N/A	N/A	0.35211494061753557	N/A	N/A	N/A	N/A	N/A	N/A
42134.8043	N/A	N/A	18.1354891289	59.4620136373	0.0192900000008	0.0	0.0	N/A	N/A	0.35571904551152184	N/A	N/A	N/A	N/A	N/A	N/A
42134.8093	N/A	N/A	18.1354891141	59.4620136354	0.0207900000008	0.0	0.0	N/A	N/A	0.363049428369898	N/A	N/A	N/A	N/A	N/A	N/A
42134.8143	N/A	N/A	18.1354891056	59.4620136367	0.0218599999999	0.00429999999964	-0.00429999999964	N/A	N/A	0.3807365950041454	N/A	N/A	N/A	N/A	N/A	N/A
42134.8193	N/A	N/A	18.1354890981	59.4620136384	0.0228600000007	0.00930000000327	-0.00930000000327	N/A	N/A	0.4001097497153783	N/A	N/A	N/A	N/A	N/A	N/A
42134.8243	N/A	N/A	18.135489113	59.4620136301	0.0217100000001	0.00570000000036	-0.00570000000036	N/A	N/A	0.4022966472554854	N/A	N/A	N/A	N/A	N/A	N/A
42134.8293	N/A	N/A	18.1354891316	59.4620136201	0.0202100000012	0.000700000004002	-0.000700000004002	N/A	N/A	0.4016857820177319	N/A	N/A	N/A	N/A	N/A	N/A
42134.8343	N/A	N/A	18.135489136	59.4620136169	0.0208600000006	0.0	0.0	N/A	N/A	0.38178728320251604	N/A	N/A	N/A	N/A	N/A	N/A
42134.8393	N/A	N/A	18.1354891382	59.4620136148	0.0218600000006	0.0	0.0	N/A	N/A	0.3587489370761908	N/A	N/A	N/A	N/A	N/A	N/A
42134.8443	N/A	N/A	18.1354891217	59.4620136288	0.02243	0.00429999999964	-0.00429999999964	N/A	N/A	0.3754115954560377	N/A	N/A	N/A	N/A	N/A	N/A
42134.8493	N/A	N/A	18.1354891022	59.4620136453	0.0229300000003	0.00930000000327	-0.00930000000327	N/A	N/A	0.3985372080617886	N/A	N/A	N/A	N/A	N/A	N/A
42134.8543	N/A	N/A	18.135489088	59.4620136401	0.0212800000001	0.01	-0.01	N/A	N/A	0.403500924439171	N/A	N/A	N/A	N/A	N/A	N/A
42134.8593	N/A	N/A	18.1354890745	59.4620136312	0.0192800000016	0.01	-0.01	N/A	N/A	0.40550805307750415	N/A	N/A	N/A	N/A	N/A	N/A
42134.8643	N/A	N/A	18.1354890864	59.4620136062	0.0198599999999	0.00570000000036	-0.00570000000036	N/A	N/A	0.3786212559544364	N/A	N/A	N/A	N/A	N/A	N/A
42134.8693	N/A	N/A	18.1354891024	59.4620135785	0.0208599999992	0.000700000004002	-0.000700000004002	N/A	N/A	0.347030796516324	N/A	N/A	N/A	N/A	N/A	N/A
42134.8743	N/A	N/A	18.1354891313	59.4620135894	0.0222900000008	0.00430000000276	-0.00430000000276	N/A	N/A	0.34883721227085984	N/A	N/A	N/A	N/A	N/A	N/A
42134.8793	N/A	N/A	18.1354891623	59.4620136066	0.0237900000008	0.00930000000276	-0.00930000000276	N/A	N/A	0.35608032866663636	N/A	N/A	N/A	N/A	N/A	N/A
42134.8843	N/A	N/A	18.1354891731	59.4620136175	0.0231400000001	0.01	-0.01	N/A	N/A	0.3919171741908845	N/A	N/A	N/A	N/A	N/A	N/A
42134.8893	N/A	N/A	18.1354891806	59.4620136274	0.0221399999993	0.01	-0.01	N/A	N/A	0.43240881286661453	N/A	N/A	N/A	N/A	N/A	N/A
42134.8943	N/A	N/A	18.1354891946	59.4620136412	0.02243	0.00570000000036	-0.00570000000036	N/A	N/A	0.40280453807075556	N/A	N/A	N/A	N/A	N/A	N/A
42134.8993	N/A	N/A	18.1354892097	59.4620136556	0.0229299999996	0.000700000004002	-0.000700000004002	N/A	N/A	0.36178930067873133	N/A	N/A	N/A	N/A	N/A	N/A
42134.9043	N/A	N/A	18.135489208	59.462013641	0.0247199999999	0.0	-0.0	N/A	N/A	0.34201297489274424	N/A	N/A	N/A	N/A	N/A	N/A
42134.9093	N/A	N/A	18.1354892035	59.4620136216	0.0267199999984	0.0	-0.0	N/A	N/A	0.3256941463984707	N/A	N/A	N/A	N/A	N/A	N/A
42134.9143	N/A	N/A	18.1354892066	59.4620136044	0.0257100000014	0.00429999999549	-0.00429999999549	N/A	N/A	0.3342916382693176	N/A	N/A	N/A	N/A	N/A	N/A
42134.9193	N/A	N/A	18.1354892109	59.4620135875	0.0242099999992	0.00930000000276	-0.00930000000276	N/A	N/A	0.3469452753646899	N/A	N/A	N/A	N/A	N/A	N/A
42134.9243	N/A	N/A	18.1354892204	59.4620136004	0.02357	0.00570000000036	-0.00570000000036	N/A	N/A	0.3199729570998043	N/A	N/A	N/A	N/A	N/A	N/A
42134.9293	N/A	N/A	18.1354892307	59.4620136182	0.0230699999997	0.000699999996726	-0.000699999996726	N/A	N/A	0.2865499018997944	N/A	N/A	N/A	N/A	N/A	N/A
42134.9343	N/A	N/A	18.1354892196	59.4620136231	0.0260099999997	0.00429999999964	-0.00429999999964	N/A	N/A	0.3070871912277649	N/A	N/A	N/A	N/A	N/A	N/A
42134.9393	N/A	N/A	18.135489205	59.4620136259	0.0295099999972	0.009299999996	-0.009299999996	N/A	N/A	0.33640872263993543	N/A	N/A	N/A	N/A	N/A	N/A
42134.9443	N/A	N/A	18.1354892024	59.4620136165	0.0295699999997	0.01	-0.01	N/A	N/A	0.3553734703251281	N/A	N/A	N/A	N/A	N/A	N/A
42134.9493	N/A	N/A	18.1354892016	59.4620136051	0.0290699999997	0.01	-0.01	N/A	N/A	0.37265222991987196	N/A	N/A	N/A	N/A	N/A	N/A
42134.9543	N/A	N/A	18.1354892067	59.4620136036	0.02857	0.00570000000036	-0.00570000000036	N/A	N/A	0.3213360592477262	N/A	N/A	N/A	N/A	N/A	N/A
42134.9593	N/A	N/A	18.1354892127	59.4620136038	0.0280699999997	0.000699999996726	-0.000699999996726	N/A	N/A	0.258853271980867	N/A	N/A	N/A	N/A	N/A	N/A
42134.9643	N/A	N/A	18.1354892141	59.4620136059	0.0305799999998	0.0	0.0	N/A	N/A	0.2690931187416273	N/A	N/A	N/A	N/A	N/A	N/A
42134.9693	N/A	N/A	18.1354892147	59.4620136083	0.0335799999976	0.0	0.0	N/A	N/A	0.2911715337632914	N/A	N/A	N/A	N/A	N/A	N/A
42134.9743	N/A	N/A	18.1354892003	59.4620136168	0.034	0.00429999999964	-0.00429999999964	N/A	N/A	0.3298358126973827	N/A	N/A	N/A	N/A	N/A	N/A
42134.9793	N/A	N/A	18.1354891834	59.4620136263	0.034	0.009299999996	-0.009299999996	N/A	N/A	0.3712001159395519	N/A	N/A	N/A	N/A	N/A	N/A
42134.9843	N/A	N/A	18.1354892035	59.4620136067	0.0348599999991	0.00570000000451	-0.00570000000451	N/A	N/A	0.3605553528819872	N/A	N/A	N/A	N/A	N/A	N/A
42134.9893	N/A	N/A	18.1354892297	59.4620135823	0.0358600000006	0.000699999997235	-0.000699999997235	N/A	N/A	0.3414439975448386	N/A	N/A	N/A	N/A	N/A	N/A
42134.9943	N/A	N/A	18.1354892387	59.4620135942	0.0390099999997	0.0	-0.0	N/A	N/A	0.33306467181706445	N/A	N/A	N/A	N/A	N/A	N/A
42134.9993	N/A	N/A	18.135489245	59.4620136122	0.0425100000023	0.0	-0.0	N/A	N/A	0.3264324206546604	N/A	N/A	N/A	N/A	N/A	N/A
42135.0043	N/A	N/A	18.1354892289	59.4620136066	0.0460099999997	0.00429999999964	-0.00429999999964	N/A	N/A	0.333909411173836	N/A	N/A	N/A	N/A	N/A	N/A
42135.0093	N/A	N/A	18.1354892093	59.4620135972	0.0495099999972	0.009299999996	-0.009299999996	N/A	N/A	0.34368325497789276	N/A	N/A	N/A	N/A	N/A	N/A
42135.0143	N/A	N/A	18.1354891959	59.4620135929	0.0512900000008	0.00569999999724	-0.00569999999724	N/A	N/A	0.33266848206841687	N/A	N/A	N/A	N/A	N/A	N/A
42135.0193	N/A	N/A	18.1354891836	59.4620135895	0.0527900000008	0.000699999997235	-0.000699999997235	N/A	N/A	0.3182695157394637	N/A	N/A	N/A	N/A	N/A	N/A
42135.0243	N/A	N/A	18.1354891764	59.4620135877	0.0585899999995	0.00429999999964	-0.00429999999964	N/A	N/A	0.313026546674708	N/A	N/A	N/A	N/A	N/A	N/A
42135.0293	N/A	N/A	18.1354891701	59.4620135862	0.0650900000043	0.00930000000327	-0.00930000000327	N/A	N/A	0.3092740887801899	N/A	N/A	N/A	N/A	N/A	N/A
42135.0343	N/A	N/A	18.1354891588	59.4620135823	0.0690099999997	0.01	-0.01	N/A	N/A	0.31460257898849064	N/A	N/A	N/A	N/A	N/A	N/A
42135.0393	N/A	N/A	18.1354891467	59.4620135779	0.0725099999972	0.01	-0.01	N/A	N/A	0.32140936306631585	N/A	N/A	N/A	N/A	N/A	N/A
42135.0443	N/A	N/A	18.1354891479	59.4620135932	0.0751499999998	0.01	-0.01	N/A	N/A	0.326114770734823	N/A	N/A	N/A	N/A	N/A	N/A
42135.0493	N/A	N/A	18.1354891514	59.4620136116	0.077649999998	0.01	-0.01	N/A	N/A	0.330478093861634	N/A	N/A	N/A	N/A	N/A	N/A
42135.0543	N/A	N/A	18.1354891646	59.4620135984	0.0853100000047	0.01	-0.01	N/A	N/A	0.3307137133139042	N/A	N/A	N/A	N/A	N/A	N/A
42135.0593	N/A	N/A	18.1354891794	59.4620135801	0.0938100000047	0.01	-0.01	N/A	N/A	0.3302773810009057	N/A	N/A	N/A	N/A	N/A	N/A
42135.0643	N/A	N/A	18.1354891733	59.4620135769	0.0992999999996	0.01	-0.01	N/A	N/A	0.3317172776339153	N/A	N/A	N/A	N/A	N/A	N/A
42135.0693	N/A	N/A	18.1354891638	59.4620135761	0.104300000003	0.01	-0.01	N/A	N/A	0.3334626068871795	N/A	N/A	N/A	N/A	N/A	N/A
42135.0743	N/A	N/A	18.1354891757	59.4620135779	0.11016	0.01	-0.01	N/A	N/A	0.32455095572612813	N/A	N/A	N/A	N/A	N/A	N/A
42135.0793	N/A	N/A	18.135489191	59.46201358	0.116159999995	0.01	-0.01	N/A	N/A	0.3139044472967091	N/A	N/A	N/A	N/A	N/A	N/A
42135.0843	N/A	N/A	18.1354891725	59.4620135826	0.125170000005	0.01	-0.01	N/A	N/A	0.3137648209488972	N/A	N/A	N/A	N/A	N/A	N/A
42135.0893	N/A	N/A	18.1354891485	59.4620135853	0.134670000005	0.01	-0.01	N/A	N/A	0.31533561727569204	N/A	N/A	N/A	N/A	N/A	N/A
42135.0943	N/A	N/A	18.1354891525	59.4620135818	0.14159	0.0142999999996	-0.0142999999996	N/A	N/A	0.3101519893968575	N/A	N/A	N/A	N/A	N/A	N/A
42135.0993	N/A	N/A	18.1354891611	59.4620135773	0.148090000004	0.0193000000033	-0.0193000000033	N/A	N/A	0.30386880408510625	N/A	N/A	N/A	N/A	N/A	N/A
42135.1043	N/A	N/A	18.1354891547	59.462013547	0.156309999999	0.0157000000004	-0.0157000000004	N/A	N/A	0.2973604713090101	N/A	N/A	N/A	N/A	N/A	N/A
42135.1093	N/A	N/A	18.1354891459	59.4620135125	0.164809999993	0.010700000004	-0.010700000004	N/A	N/A	0.2908154866187934	N/A	N/A	N/A	N/A	N/A	N/A
42135.1143	N/A	N/A	18.1354891481	59.4620135037	0.175889999999	0.01	-0.01	N/A	N/A	0.28937384465145227	N/A	N/A	N/A	N/A	N/A	N/A
42135.1193	N/A	N/A	18.1354891521	59.462013499	0.187389999991	0.01	-0.01	N/A	N/A	0.28876297941369866	N/A	N/A	N/A	N/A	N/A	N/A
42135.1243	N/A	N/A	18.1354891513	59.4620135171	0.197600000006	0.01	-0.01	N/A	N/A	0.2863509343854577	N/A	N/A	N/A	N/A	N/A	N/A
42135.1293	N/A	N/A	18.1354891497	59.4620135389	0.207600000006	0.01	-0.01	N/A	N/A	0.2836456740448665	N/A	N/A	N/A	N/A	N/A	N/A
42135.1343	N/A	N/A	18.1354891561	59.4620135471	0.217599999999	0.01	-0.01	N/A	N/A	0.27808854570845065	N/A	N/A	N/A	N/A	N/A	N/A
42135.1393	N/A	N/A	18.1354891638	59.462013553	0.227600000007	0.01	-0.01	N/A	N/A	0.27206715978468904	N/A	N/A	N/A	N/A	N/A	N/A
42135.1443	N/A	N/A	18.1354891547	59.4620135231	0.235879999999	0.01	-0.01	N/A	N/A	0.2694229859720131	N/A	N/A	N/A	N/A	N/A	N/A
42135.1493	N/A	N/A	18.1354891428	59.4620134873	0.243879999994	0.01	-0.01	N/A	N/A	0.26732859087114375	N/A	N/A	N/A	N/A	N/A	N/A
42135.1543	N/A	N/A	18.1354891501	59.4620134793	0.255319999999	0.01	-0.01	N/A	N/A	0.2661347856611796	N/A	N/A	N/A	N/A	N/A	N/A
42135.1593	N/A	N/A	18.1354891605	59.4620134758	0.26731999999	0.01	-0.01	N/A	N/A	0.2650875881107449	N/A	N/A	N/A	N/A	N/A	N/A
42135.1643	N/A	N/A	18.1354891606	59.4620134713	0.27888999999	0.01	-0.01	N/A	N/A	0.26404039055965495	N/A	N/A	N/A	N/A	N/A	N/A
42135.1693	N/A	N/A	18.1354891589	59.4620134667	0.290390000006	0.01	-0.01	N/A	N/A	0.2629931930069345	N/A	N/A	N/A	N/A	N/A	N/A
42135.1743	N/A	N/A	18.1354891754	59.4620134865	0.304039999999	0.01	-0.01	N/A	N/A	0.2619459954563932	N/A	N/A	N/A	N/A	N/A	N/A
42135.1793	N/A	N/A	18.1354891949	59.4620135103	0.318040000009	0.01	-0.01	N/A	N/A	0.26089879790443465	N/A	N/A	N/A	N/A	N/A	N/A
42135.1843	N/A	N/A	18.1354891381	59.462013478	0.331179999999	0.01	-0.01	N/A	N/A	0.26187792761539397	N/A	N/A	N/A	N/A	N/A	N/A
42135.1893	N/A	N/A	18.1354890689	59.4620134365	0.34417999999	0.01	-0.01	N/A	N/A	0.2631869245534373	N/A	N/A	N/A	N/A	N/A	N/A
42135.1943	N/A	N/A	18.1354890476	59.4620133978	0.350730000003	0.01	-0.01	N/A	N/A	0.2569159565479193	N/A	N/A	N/A	N/A	N/A	N/A
42135.1993	N/A	N/A	18.1354890341	59.4620133595	0.356230000003	0.01	-0.01	N/A	N/A	0.24941104076434364	N/A	N/A	N/A	N/A	N/A	N/A
42135.2043	N/A	N/A	18.1354890329	59.4620133512	0.369469999999	0.01	-0.01	N/A	N/A	0.24760986098049903	N/A	N/A	N/A	N/A	N/A	N/A
42135.2093	N/A	N/A	18.1354890337	59.4620133477	0.383970000009	0.01	-0.01	N/A	N/A	0.2467371963538669	N/A	N/A	N/A	N/A	N/A	N/A
42135.2143	N/A	N/A	18.135489042	59.4620133485	0.397609999999	0.01	-0.01	N/A	N/A	0.24789085898989868	N/A	N/A	N/A	N/A	N/A	N/A
42135.2193	N/A	N/A	18.1354890515	59.4620133501	0.411109999989	0.01	-0.01	N/A	N/A	0.24937438885301444	N/A	N/A	N/A	N/A	N/A	N/A
42135.2243	N/A	N/A	18.1354890504	59.4620133426	0.423749999999	0.01	-0.01	N/A	N/A	0.24875654229906563	N/A	N/A	N/A	N/A	N/A	N/A
42135.2293	N/A	N/A	18.1354890476	59.4620133336	0.43624999999	0.01	-0.01	N/A	N/A	0.2477966112111672	N/A	N/A	N/A	N/A	N/A	N/A
42135.2343	N/A	N/A	18.1354890587	59.4620133282	0.450469999987	0.01	-0.01	N/A	N/A	0.24661153264939703	N/A	N/A	N/A	N/A	N/A	N/A
42135.2393	N/A	N/A	18.1354890721	59.4620133233	0.464970000008	0.01	-0.01	N/A	N/A	0.24538980217122316	N/A	N/A	N/A	N/A	N/A	N/A
42135.2443	N/A	N/A	18.1354890586	59.4620132987	0.475169999999	0.01	-0.01	N/A	N/A	0.24296728517032112	N/A	N/A	N/A	N/A	N/A	N/A
42135.2493	N/A	N/A	18.1354890407	59.4620132709	0.484670000006	0.01	-0.01	N/A	N/A	0.24034929129042482	N/A	N/A	N/A	N/A	N/A	N/A
42135.2543	N/A	N/A	18.1354890311	59.4620132616	0.497179999999	0.01	-0.01	N/A	N/A	0.24005782130704972	N/A	N/A	N/A	N/A	N/A	N/A
42135.2593	N/A	N/A	18.1354890228	59.4620132554	0.51017999999	0.01	-0.01	N/A	N/A	0.24014508776958596	N/A	N/A	N/A	N/A	N/A	N/A
42135.2643	N/A	N/A	18.1354890134	59.4620132494	0.525330000009	0.01	-0.01	N/A	N/A	0.23978205928499968	N/A	N/A	N/A	N/A	N/A	N/A
42135.2693	N/A	N/A	18.1354890037	59.4620132435	0.540830000009	0.01	-0.01	N/A	N/A	0.23934572697200113	N/A	N/A	N/A	N/A	N/A	N/A
42135.2743	N/A	N/A	18.1354889934	59.4620132389	0.555899999999	0.01	-0.01	N/A	N/A	0.2394347387640814	N/A	N/A	N/A	N/A	N/A	N/A
42135.2793	N/A	N/A	18.1354889831	59.4620132346	0.57090000001	0.01	-0.01	N/A	N/A	0.23960927168940785	N/A	N/A	N/A	N/A	N/A	N/A
42135.2843	N/A	N/A	18.1354889544	59.4620132237	0.584609999999	0.01	-0.01	N/A	N/A	0.2397838046144803	N/A	N/A	N/A	N/A	N/A	N/A
42135.2893	N/A	N/A	18.1354889226	59.4620132117	0.598109999989	0.01	-0.01	N/A	N/A	0.23995833753955273	N/A	N/A	N/A	N/A	N/A	N/A
42135.2943	N/A	N/A	18.1354888934	59.462013161	0.60129	0.01	-0.01	N/A	N/A	0.23382874120720898	N/A	N/A	N/A	N/A	N/A	N/A
42135.2993	N/A	N/A	18.1354888647	59.462013104	0.602789999999	0.01	-0.01	N/A	N/A	0.2266728912792388	N/A	N/A	N/A	N/A	N/A	N/A
42135.3043	N/A	N/A	18.1354888632	59.4620130834	0.616760000009	0.01	-0.01	N/A	N/A	0.22582117059863482	N/A	N/A	N/A	N/A	N/A	N/A
42135.3093	N/A	N/A	18.1354888662	59.4620130687	0.632760000009	0.01	-0.01	N/A	N/A	0.22599570352383425	N/A	N/A	N/A	N/A	N/A	N/A
42135.3143	N/A	N/A	18.1354888464	59.4620130722	0.647039999999	0.01	-0.01	N/A	N/A	0.22587003981760684	N/A	N/A	N/A	N/A	N/A	N/A
42135.3193	N/A	N/A	18.1354888228	59.4620130786	0.661040000009	0.01	-0.01	N/A	N/A	0.22569550689228043	N/A	N/A	N/A	N/A	N/A	N/A
42135.3243	N/A	N/A	18.1354888311	59.4620130723	0.676759999999	0.01	-0.01	N/A	N/A	0.2245453349154257	N/A	N/A	N/A	N/A	N/A	N/A
42135.3293	N/A	N/A	18.1354888446	59.462013064	0.692759999987	0.01	-0.01	N/A	N/A	0.2232363379773824	N/A	N/A	N/A	N/A	N/A	N/A
42135.3343	N/A	N/A	18.1354888499	59.4620130704	0.709190000009	0.01	-0.01	N/A	N/A	0.22350337335217937	N/A	N/A	N/A	N/A	N/A	N/A
42135.3393	N/A	N/A	18.1354888538	59.4620130793	0.725690000009	0.01	-0.01	N/A	N/A	0.22402697212777767	N/A	N/A	N/A	N/A	N/A	N/A
42135.3443	N/A	N/A	18.1354886418	59.4620126109	0.721550000001	0.0142999999996	-0.0142999999996	N/A	N/A	0.1654868836913053	N/A	N/A	N/A	N/A	N/A	N/A
42135.3493	N/A	N/A	18.1354883948	59.4620120649	0.714049999995	0.0193000000033	-0.0193000000033	N/A	N/A	0.09733177635133736	N/A	N/A	N/A	N/A	N/A	N/A
42135.3543	N/A	N/A	18.1354883615	59.4620119965	0.726759999999	0.0157000000004	-0.0157000000004	N/A	N/A	0.08711461895485012	N/A	N/A	N/A	N/A	N/A	N/A
42135.3593	N/A	N/A	18.1354883631	59.4620120057	0.742759999987	0.010700000004	-0.010700000004	N/A	N/A	0.08632922079202413	N/A	N/A	N/A	N/A	N/A	N/A
42135.3643	N/A	N/A	18.1354883648	59.4620120153	0.760479999999	0.01	-0.01	N/A	N/A	0.08689470746898455	N/A	N/A	N/A	N/A	N/A	N/A
42135.3693	N/A	N/A	18.1354883664	59.462012025	0.778479999986	0.01	-0.01	N/A	N/A	0.08768010563181054	N/A	N/A	N/A	N/A	N/A	N/A
42135.3743	N/A	N/A	18.1354883682	59.462012035	0.793900000008	0.0143000000028	-0.0143000000028	N/A	N/A	0.08824035632261887	N/A	N/A	N/A	N/A	N/A	N/A
42135.3793	N/A	N/A	18.1354883699	59.4620120451	0.808900000008	0.0193000000028	-0.0193000000028	N/A	N/A	0.08876395509821713	N/A	N/A	N/A	N/A	N/A	N/A
42135.3843	N/A	N/A	18.1354883717	59.4620120555	0.824759999999	0.02	-0.02	N/A	N/A	0.08861211145302315	N/A	N/A	N/A	N/A	N/A	N/A
42135.3893	N/A	N/A	18.1354883736	59.4620120659	0.84076000001	0.02	-0.02	N/A	N/A	0.0883503120650335	N/A	N/A	N/A	N/A	N/A	N/A
42135.3943	N/A	N/A	18.1354882103	59.4620116565	0.84214	0.02	-0.02	N/A	N/A	2.7407009961578046	N/A	N/A	N/A	N/A	N/A	N/A
42135.3993	N/A	N/A	18.1354880201	59.4620111789	0.841140000001	0.02	-0.02	N/A	N/A	5.8248723151129544	N/A	N/A	N/A	N/A	N/A	N/A
42135.4043	N/A	N/A	18.1354879931	59.4620111213	0.853899999999	0.0242999999996	-0.0242999999996	N/A	N/A	6.257181646654078	N/A	N/A	N/A	N/A	N/A	N/A
42135.4093	N/A	N/A	18.1354879926	59.4620111321	0.868899999988	0.029299999996	-0.029299999996	N/A	N/A	6.257792511891831	N/A	N/A	N/A	N/A	N/A	N/A
42135.4143	N/A	N/A	18.135487992	59.4620111433	0.884329999986	0.0257000000045	-0.0257000000045	N/A	N/A	6.257727934710155	N/A	N/A	N/A	N/A	N/A	N/A
42135.4193	N/A	N/A	18.1354879914	59.4620111546	0.899830000009	0.0206999999972	-0.0206999999972	N/A	N/A	6.257553401784701	N/A	N/A	N/A	N/A	N/A	N/A
42135.4243	N/A	N/A	18.1354879909	59.4620111662	0.917049999999	0.02	-0.02	N/A	N/A	6.258729753700541	N/A	N/A	N/A	N/A	N/A	N/A
42135.4293	N/A	N/A	18.1354879904	59.4620111779	0.934550000011	0.02	-0.02	N/A	N/A	6.260126017103152	N/A	N/A	N/A	N/A	N/A	N/A
42135.4343	N/A	N/A	18.1354879898	59.4620111898	0.949469999999	0.0242999999996	-0.0242999999996	N/A	N/A	6.260621690609779	N/A	N/A	N/A	N/A	N/A	N/A
42135.4393	N/A	N/A	18.1354879892	59.4620112018	0.963969999988	0.029299999996	-0.029299999996	N/A	N/A	6.2609707564599235	N/A	N/A	N/A	N/A	N/A	N/A
42135.4443	N/A	N/A	18.1354879217	59.4620109807	0.952669999991	0.03	-0.03	N/A	N/A	6.2355779611565785	N/A	N/A	N/A	N/A	N/A	N/A
42135.4493	N/A	N/A	18.1354878432	59.4620107216	0.937169999991	0.03	-0.03	N/A	N/A	6.205994630335273	N/A	N/A	N/A	N/A	N/A	N/A
42135.4543	N/A	N/A	18.1354878305	59.4620106957	0.949189999999	0.0257000000004	-0.0257000000004	N/A	N/A	6.20312879971975	N/A	N/A	N/A	N/A	N/A	N/A
42135.4593	N/A	N/A	18.1354878286	59.4620107077	0.965690000011	0.0206999999967	-0.0206999999967	N/A	N/A	6.204612329585025	N/A	N/A	N/A	N/A	N/A	N/A
42135.4643	N/A	N/A	18.1354878268	59.46201072	0.980039999999	0.0242999999996	-0.0242999999996	N/A	N/A	6.205495466185505	N/A	N/A	N/A	N/A	N/A	N/A
42135.4693	N/A	N/A	18.1354878249	59.4620107324	0.994039999989	0.029299999996	-0.029299999996	N/A	N/A	6.206280864348332	N/A	N/A	N/A	N/A	N/A	N/A
42135.4743	N/A	N/A	18.135487823	59.4620107451	1.00847	0.03	-0.03	N/A	N/A	6.206240721776177	N/A	N/A	N/A	N/A	N/A	N/A
42135.4793	N/A	N/A	18.1354878211	59.4620107579	1.02296999999	0.03	-0.03	N/A	N/A	6.2060661888511035	N/A	N/A	N/A	N/A	N/A	N/A
42135.4843	N/A	N/A	18.1354878192	59.4620107709	1.03918999999	0.0257000000045	-0.0257000000045	N/A	N/A	6.207167491607792	N/A	N/A	N/A	N/A	N/A	N/A
42135.4893	N/A	N/A	18.1354878173	59.462010784	1.05569000001	0.0206999999972	-0.0206999999972	N/A	N/A	6.208476488548693	N/A	N/A	N/A	N/A	N/A	N/A
42135.4943	N/A	N/A	18.1354876434	59.4620102641	1.03736	0.0242999999996	-0.0242999999996	N/A	N/A	6.141265604388622	N/A	N/A	N/A	N/A	N/A	N/A
42135.4993	N/A	N/A	18.1354874416	59.4620096574	1.01335999998	0.0293000000033	-0.0293000000033	N/A	N/A	6.062900320917057	N/A	N/A	N/A	N/A	N/A	N/A
42135.5043	N/A	N/A	18.1354874083	59.4620095833	1.02161	0.0257000000004	-0.0257000000004	N/A	N/A	6.052304427079485	N/A	N/A	N/A	N/A	N/A	N/A
42135.5093	N/A	N/A	18.1354874025	59.4620095959	1.03510999999	0.020700000004	-0.020700000004	N/A	N/A	6.052740759392166	N/A	N/A	N/A	N/A	N/A	N/A
42135.5143	N/A	N/A	18.1354873966	59.4620096088	1.05076000001	0.02	-0.02	N/A	N/A	6.054152730758247	N/A	N/A	N/A	N/A	N/A	N/A
42135.5193	N/A	N/A	18.1354873907	59.4620096217	1.06676000001	0.02	-0.02	N/A	N/A	6.055723527085043	N/A	N/A	N/A	N/A	N/A	N/A
42135.5243	N/A	N/A	18.1354873847	59.462009635	1.08018	0.0242999999996	-0.0242999999996	N/A	N/A	6.05654383183256	N/A	N/A	N/A	N/A	N/A	N/A
42135.5293	N/A	N/A	18.1354873787	59.4620096483	1.09318000001	0.0293000000033	-0.0293000000033	N/A	N/A	6.0572419635338655	N/A	N/A	N/A	N/A	N/A	N/A
42135.5343	N/A	N/A	18.1354873726	59.4620096619	1.10618	0.03	-0.03	N/A	N/A	6.057489800287178	N/A	N/A	N/A	N/A	N/A	N/A
42135.5393	N/A	N/A	18.1354873665	59.4620096756	1.11917999999	0.03	-0.03	N/A	N/A	6.0576643332122515	N/A	N/A	N/A	N/A	N/A	N/A
42135.5443	N/A	N/A	18.1354872231	59.4620091475	1.10767	0.0257000000004	-0.0257000000004	N/A	N/A	5.987818001882741	N/A	N/A	N/A	N/A	N/A	N/A
42135.5493	N/A	N/A	18.1354870574	59.4620085313	1.09217000001	0.020700000004	-0.020700000004	N/A	N/A	5.906572925261518	N/A	N/A	N/A	N/A	N/A	N/A
42135.5543	N/A	N/A	18.1354870253	59.4620084561	1.10118000001	0.0243000000028	-0.0243000000028	N/A	N/A	5.896399400987391	N/A	N/A	N/A	N/A	N/A	N/A
42135.5593	N/A	N/A	18.1354870149	59.462008469	1.11418000001	0.0293000000028	-0.0293000000028	N/A	N/A	5.897795664388986	N/A	N/A	N/A	N/A	N/A	N/A
42135.5643	N/A	N/A	18.1354870045	59.4620084822	1.12675	0.03	-0.03	N/A	N/A	5.898591534527073	N/A	N/A	N/A	N/A	N/A	N/A
42135.5693	N/A	N/A	18.1354869941	59.4620084953	1.13925000001	0.03	-0.03	N/A	N/A	5.899289666228379	N/A	N/A	N/A	N/A	N/A	N/A
42135.5743	N/A	N/A	18.1354869835	59.4620085088	1.15347	0.0257000000004	-0.0257000000004	N/A	N/A	5.900287994559986	N/A	N/A	N/A	N/A	N/A	N/A
42135.5793	N/A	N/A	18.1354869728	59.4620085224	1.16796999999	0.020700000004	-0.020700000004	N/A	N/A	5.9013351921104205	N/A	N/A	N/A	N/A	N/A	N/A
42135.5843	N/A	N/A	18.1354869619	59.4620085362	1.18161000001	0.0243000000028	-0.0243000000028	N/A	N/A	5.902457438820918	N/A	N/A	N/A	N/A	N/A	N/A
42135.5893	N/A	N/A	18.135486951	59.4620085501	1.19511000001	0.0293000000028	-0.0293000000028	N/A	N/A	5.903591902834714	N/A	N/A	N/A	N/A	N/A	N/A
42135.5943	N/A	N/A	18.1354869174	59.4620082798	1.18496	0.0257000000004	-0.0257000000004	N/A	N/A	5.8660010014078265	N/A	N/A	N/A	N/A	N/A	N/A
42135.5993	N/A	N/A	18.1354868801	59.4620079633	1.17095999999	0.0206999999967	-0.0206999999967	N/A	N/A	5.822105970688232	N/A	N/A	N/A	N/A	N/A	N/A
42135.6043	N/A	N/A	18.1354868635	59.4620079305	1.18104	0.02	-0.02	N/A	N/A	5.817086403788145	N/A	N/A	N/A	N/A	N/A	N/A
42135.6093	N/A	N/A	18.1354868503	59.462007944	1.19503999999	0.02	-0.02	N/A	N/A	5.818395400726188	N/A	N/A	N/A	N/A	N/A	N/A
42135.6143	N/A	N/A	18.135486837	59.4620079576	1.20947	0.02	-0.02	N/A	N/A	5.819779446823966	N/A	N/A	N/A	N/A	N/A	N/A
42135.6193	N/A	N/A	18.1354868237	59.4620079713	1.22396999999	0.02	-0.02	N/A	N/A	5.821175710224546	N/A	N/A	N/A	N/A	N/A	N/A
42135.6243	N/A	N/A	18.1354868102	59.4620079852	1.23675000001	0.0243000000028	-0.0243000000028	N/A	N/A	5.822647022785915	N/A	N/A	N/A	N/A	N/A	N/A
42135.6293	N/A	N/A	18.1354867966	59.4620079992	1.24925000001	0.0293000000028	-0.0293000000028	N/A	N/A	5.82413055265011	N/A	N/A	N/A	N/A	N/A	N/A
42135.6343	N/A	N/A	18.1354867828	59.4620080135	1.26347	0.0257000000004	-0.0257000000004	N/A	N/A	5.825313885882058	N/A	N/A	N/A	N/A	N/A	N/A
42135.6393	N/A	N/A	18.1354867689	59.4620080278	1.27797000001	0.0206999999967	-0.0206999999967	N/A	N/A	5.82644834989668	N/A	N/A	N/A	N/A	N/A	N/A
42135.6443	N/A	N/A	18.1354867856	59.4620079676	1.28688	0.02	-0.02	N/A	N/A	5.817976521707487	N/A	N/A	N/A	N/A	N/A	N/A
42135.6493	N/A	N/A	18.1354868073	59.4620078953	1.29487999999	0.02	-0.02	N/A	N/A	5.807940878515821	N/A	N/A	N/A	N/A	N/A	N/A
42135.6543	N/A	N/A	18.1354867976	59.4620078978	1.30675	0.0242999999996	-0.0242999999996	N/A	N/A	5.807661625827375	N/A	N/A	N/A	N/A	N/A	N/A
42135.6593	N/A	N/A	18.1354867827	59.4620079124	1.31924999999	0.029299999996	-0.029299999996	N/A	N/A	5.808970622765418	N/A	N/A	N/A	N/A	N/A	N/A
42135.6643	N/A	N/A	18.1354867678	59.4620079274	1.33260999999	0.03	-0.03	N/A	N/A	5.809904373915496	N/A	N/A	N/A	N/A	N/A	N/A
42135.6693	N/A	N/A	18.1354867528	59.4620079424	1.34611000001	0.03	-0.03	N/A	N/A	5.8107770385427635	N/A	N/A	N/A	N/A	N/A	N/A
42135.6743	N/A	N/A	18.1354867376	59.4620079577	1.36133	0.03	-0.03	N/A	N/A	5.812400194746509	N/A	N/A	N/A	N/A	N/A	N/A
42135.6793	N/A	N/A	18.1354867223	59.462007973	1.37683000001	0.03	-0.03	N/A	N/A	5.814145523999772	N/A	N/A	N/A	N/A	N/A	N/A
42135.6843	N/A	N/A	18.1354867068	59.4620079886	1.39018	0.03	-0.03	N/A	N/A	5.8156657057770085	N/A	N/A	N/A	N/A	N/A	N/A
42135.6893	N/A	N/A	18.1354866913	59.4620080043	1.40317999999	0.03	-0.03	N/A	N/A	5.817149235640126	N/A	N/A	N/A	N/A	N/A	N/A
42135.6943	N/A	N/A	18.135486692	59.4620076498	1.37446999998	0.0256999999972	-0.0256999999972	N/A	N/A	5.767674387303083	N/A	N/A	N/A	N/A	N/A	N/A
42135.6993	N/A	N/A	18.1354866954	59.4620072351	1.33896999998	0.0206999999972	-0.0206999999972	N/A	N/A	5.709903989062071	N/A	N/A	N/A	N/A	N/A	N/A
42135.7043	N/A	N/A	18.1354866801	59.4620071893	1.3469	0.02	-0.02	N/A	N/A	5.703842460601669	N/A	N/A	N/A	N/A	N/A	N/A
42135.7093	N/A	N/A	18.1354866619	59.4620072035	1.36190000001	0.02	-0.02	N/A	N/A	5.7061986550935755	N/A	N/A	N/A	N/A	N/A	N/A
42135.7143	N/A	N/A	18.1354866435	59.462007218	1.37475	0.0242999999996	-0.0242999999996	N/A	N/A	5.707954456319418	N/A	N/A	N/A	N/A	N/A	N/A
42135.7193	N/A	N/A	18.1354866251	59.4620072326	1.38724999999	0.029299999996	-0.029299999996	N/A	N/A	5.709612519107606	N/A	N/A	N/A	N/A	N/A	N/A
42135.7243	N/A	N/A	18.1354866064	59.4620072474	1.39975	0.0257000000004	-0.0257000000004	N/A	N/A	5.710595139477742	N/A	N/A	N/A	N/A	N/A	N/A
42135.7293	N/A	N/A	18.1354865876	59.4620072623	1.41224999999	0.020700000004	-0.020700000004	N/A	N/A	5.711467804103106	N/A	N/A	N/A	N/A	N/A	N/A
42135.7343	N/A	N/A	18.1354865687	59.4620072774	1.42775999999	0.02	-0.02	N/A	N/A	5.713541255253126	N/A	N/A	N/A	N/A	N/A	N/A
42135.7393	N/A	N/A	18.1354865497	59.4620072925	1.44376000001	0.02	-0.02	N/A	N/A	5.715810183284019	N/A	N/A	N/A	N/A	N/A	N/A
