time	gps_long	gps_lat	long	lat	vel_x	vel_y	vel_z	roll	pitch	yaw	acc_x	acc_y	acc_z	gyr_x	gyr_y	gyr_z
42133.4293	N/A	N/A	18.1354816	59.46200083	N/A	N/A	N/A	N/A	N/A	1.48459121637	N/A	N/A	N/A	N/A	N/A	N/A
42133.4343	N/A	N/A	18.135481597	59.462000829	N/A	N/A	N/A	N/A	N/A	1.48460915835	N/A	N/A	N/A	N/A	N/A	N/A
42133.4393	N/A	N/A	18.135481593	59.462000828	N/A	N/A	N/A	N/A	N/A	1.48462032846	N/A	N/A	N/A	N/A	N/A	N/A
42133.4443	N/A	N/A	18.13548159	59.462000828	N/A	N/A	N/A	N/A	N/A	1.48462153274	N/A	N/A	N/A	N/A	N/A	N/A
42133.4493	N/A	N/A	18.135481586	59.462000827	N/A	N/A	N/A	N/A	N/A	1.48462231813	N/A	N/A	N/A	N/A	N/A	N/A
42133.4543	N/A	N/A	18.135481583	59.462000826	N/A	N/A	N/A	N/A	N/A	1.48462751922	N/A	N/A	N/A	N/A	N/A	N/A
42133.4593	N/A	N/A	18.135481579	59.462000826	N/A	N/A	N/A	N/A	N/A	1.48463404675	N/A	N/A	N/A	N/A	N/A	N/A
42133.4643	N/A	N/A	18.135481576	59.462000825	N/A	N/A	N/A	N/A	N/A	1.48462252757	N/A	N/A	N/A	N/A	N/A	N/A
42133.4693	N/A	N/A	18.135481572	59.462000824	N/A	N/A	N/A	N/A	N/A	1.48462104404	N/A	N/A	N/A	N/A	N/A	N/A
42133.4743	N/A	N/A	18.135481569	59.462000824	N/A	N/A	N/A	N/A	N/A	1.48463889876	N/A	N/A	N/A	N/A	N/A	N/A
42133.4793	N/A	N/A	18.135481565	59.462000823	N/A	N/A	N/A	N/A	N/A	1.48464533903	N/A	N/A	N/A	N/A	N/A	N/A
42133.4843	N/A	N/A	18.135481562	59.462000822	N/A	N/A	N/A	N/A	N/A	1.48465225053	N/A	N/A	N/A	N/A	N/A	N/A
42133.4893	N/A	N/A	18.135481558	59.462000821	N/A	N/A	N/A	N/A	N/A	1.4846412375	N/A	N/A	N/A	N/A	N/A	N/A
42133.4943	N/A	N/A	18.135481555	59.462000821	N/A	N/A	N/A	N/A	N/A	1.48464528667	N/A	N/A	N/A	N/A	N/A	N/A
42133.4993	N/A	N/A	18.135481551	59.46200082	N/A	N/A	N/A	N/A	N/A	1.48464643858	N/A	N/A	N/A	N/A	N/A	N/A
42133.5043	N/A	N/A	18.135481548	59.462000819	N/A	N/A	N/A	N/A	N/A	1.48464317482	N/A	N/A	N/A	N/A	N/A	N/A
42133.5093	N/A	N/A	18.135481544	59.462000818	N/A	N/A	N/A	N/A	N/A	1.48465902241	N/A	N/A	N/A	N/A	N/A	N/A
42133.5143	N/A	N/A	18.135481541	59.462000818	N/A	N/A	N/A	N/A	N/A	1.48467202511	N/A	N/A	N/A	N/A	N/A	N/A
42133.5193	N/A	N/A	18.135481537	59.462000817	N/A	N/A	N/A	N/A	N/A	1.48467047177	N/A	N/A	N/A	N/A	N/A	N/A
42133.5243	N/A	N/A	18.135481533	59.462000816	N/A	N/A	N/A	N/A	N/A	1.48467689458	N/A	N/A	N/A	N/A	N/A	N/A
42133.5293	N/A	N/A	18.13548153	59.462000815	N/A	N/A	N/A	N/A	N/A	1.48469565687	N/A	N/A	N/A	N/A	N/A	N/A
42133.5343	N/A	N/A	18.135481526	59.462000815	N/A	N/A	N/A	N/A	N/A	1.48470174807	N/A	N/A	N/A	N/A	N/A	N/A
42133.5393	N/A	N/A	18.135481522	59.462000814	N/A	N/A	N/A	N/A	N/A	1.48468556887	N/A	N/A	N/A	N/A	N/A	N/A
42133.5443	N/A	N/A	18.135481519	59.462000813	N/A	N/A	N/A	N/A	N/A	1.48469591867	N/A	N/A	N/A	N/A	N/A	N/A
42133.5493	N/A	N/A	18.135481515	59.462000812	N/A	N/A	N/A	N/A	N/A	1.48469651208	N/A	N/A	N/A	N/A	N/A	N/A
42133.5543	N/A	N/A	18.135481511	59.462000812	N/A	N/A	N/A	N/A	N/A	1.4846899671	N/A	N/A	N/A	N/A	N/A	N/A
42133.5593	N/A	N/A	18.135481508	59.462000811	N/A	N/A	N/A	N/A	N/A	1.48469036852	N/A	N/A	N/A	N/A	N/A	N/A
42133.5643	N/A	N/A	18.135481504	59.46200081	N/A	N/A	N/A	N/A	N/A	1.48467574266	N/A	N/A	N/A	N/A	N/A	N/A
42133.5693	N/A	N/A	18.135481501	59.462000809	N/A	N/A	N/A	N/A	N/A	1.48466307157	N/A	N/A	N/A	N/A	N/A	N/A
42133.5743	N/A	N/A	18.135481497	59.462000808	N/A	N/A	N/A	N/A	N/A	1.48466635279	N/A	N/A	N/A	N/A	N/A	N/A
42133.5793	N/A	N/A	18.135481493	59.462000808	N/A	N/A	N/A	N/A	N/A	1.48467129207	N/A	N/A	N/A	N/A	N/A	N/A
42133.5843	N/A	N/A	18.135481489	59.462000807	N/A	N/A	N/A	N/A	N/A	1.48467843047	N/A	N/A	N/A	N/A	N/A	N/A
42133.5893	N/A	N/A	18.135481485	59.462000806	N/A	N/A	N/A	N/A	N/A	1.4846671731	N/A	N/A	N/A	N/A	N/A	N/A
42133.5943	N/A	N/A	18.135481482	59.462000805	N/A	N/A	N/A	N/A	N/A	1.48466631788	N/A	N/A	N/A	N/A	N/A	N/A
42133.5993	N/A	N/A	18.135481478	59.462000804	N/A	N/A	N/A	N/A	N/A	1.48466017433	N/A	N/A	N/A	N/A	N/A	N/A
42133.6043	N/A	N/A	18.135481474	59.462000803	N/A	N/A	N/A	N/A	N/A	1.4846579054	N/A	N/A	N/A	N/A	N/A	N/A
42133.6093	N/A	N/A	18.13548147	59.462000803	N/A	N/A	N/A	N/A	N/A	1.48466677167	N/A	N/A	N/A	N/A	N/A	N/A
42133.6143	N/A	N/A	18.135481467	59.462000802	N/A	N/A	N/A	N/A	N/A	1.48464558337	N/A	N/A	N/A	N/A	N/A	N/A
42133.6193	N/A	N/A	18.135481463	59.462000801	N/A	N/A	N/A	N/A	N/A	1.48465453691	N/A	N/A	N/A	N/A	N/A	N/A
42133.6243	N/A	N/A	18.135481459	59.4620008	N/A	N/A	N/A	N/A	N/A	1.48465469399	N/A	N/A	N/A	N/A	N/A	N/A
42133.6293	N/A	N/A	18.135481455	59.462000799	N/A	N/A	N/A	N/A	N/A	1.48467298504	N/A	N/A	N/A	N/A	N/A	N/A
42133.6343	N/A	N/A	18.135481451	59.462000798	N/A	N/A	N/A	N/A	N/A	1.48467403224	N/A	N/A	N/A	N/A	N/A	N/A
42133.6393	N/A	N/A	18.135481534	59.462000858	N/A	N/A	N/A	N/A	N/A	1.48478473847	N/A	N/A	N/A	N/A	N/A	N/A
42133.6443	N/A	N/A	18.135481617	59.462000917	N/A	N/A	N/A	N/A	N/A	1.48478554133	N/A	N/A	N/A	N/A	N/A	N/A
42133.6493	N/A	N/A	18.135481614	59.462000917	N/A	N/A	N/A	N/A	N/A	1.48480892874	N/A	N/A	N/A	N/A	N/A	N/A
42133.6543	N/A	N/A	18.13548161	59.462000916	N/A	N/A	N/A	N/A	N/A	1.48480748011	N/A	N/A	N/A	N/A	N/A	N/A
42133.6593	N/A	N/A	18.135481607	59.462000915	N/A	N/A	N/A	N/A	N/A	1.48481102313	N/A	N/A	N/A	N/A	N/A	N/A
42133.6643	N/A	N/A	18.135481604	59.462000915	N/A	N/A	N/A	N/A	N/A	1.48481320479	N/A	N/A	N/A	N/A	N/A	N/A
42133.6693	N/A	N/A	18.135481601	59.462000914	N/A	N/A	N/A	N/A	N/A	1.48481571807	N/A	N/A	N/A	N/A	N/A	N/A
42133.6743	N/A	N/A	18.135481598	59.462000913	N/A	N/A	N/A	N/A	N/A	1.48482074462	N/A	N/A	N/A	N/A	N/A	N/A
42133.6793	N/A	N/A	18.135481594	59.462000913	N/A	N/A	N/A	N/A	N/A	1.48481613695	N/A	N/A	N/A	N/A	N/A	N/A
42133.6843	N/A	N/A	18.135481591	59.462000912	N/A	N/A	N/A	N/A	N/A	1.48481079624	N/A	N/A	N/A	N/A	N/A	N/A
42133.6893	N/A	N/A	18.135481588	59.462000911	N/A	N/A	N/A	N/A	N/A	1.48482468906	N/A	N/A	N/A	N/A	N/A	N/A
42133.6943	N/A	N/A	18.135481585	59.462000911	N/A	N/A	N/A	N/A	N/A	1.48484971708	N/A	N/A	N/A	N/A	N/A	N/A
42133.6993	N/A	N/A	18.135481581	59.46200091	N/A	N/A	N/A	N/A	N/A	1.48484962982	N/A	N/A	N/A	N/A	N/A	N/A
42133.7043	N/A	N/A	18.135481578	59.462000909	N/A	N/A	N/A	N/A	N/A	1.48485502288	N/A	N/A	N/A	N/A	N/A	N/A
42133.7093	N/A	N/A	18.135481575	59.462000909	N/A	N/A	N/A	N/A	N/A	1.4848497869	N/A	N/A	N/A	N/A	N/A	N/A
42133.7143	N/A	N/A	18.135481572	59.462000908	N/A	N/A	N/A	N/A	N/A	1.48484950764	N/A	N/A	N/A	N/A	N/A	N/A
42133.7193	N/A	N/A	18.135481568	59.462000907	N/A	N/A	N/A	N/A	N/A	1.48484409712	N/A	N/A	N/A	N/A	N/A	N/A
42133.7243	N/A	N/A	18.135481565	59.462000906	N/A	N/A	N/A	N/A	N/A	1.48484428911	N/A	N/A	N/A	N/A	N/A	N/A
42133.7293	N/A	N/A	18.135481562	59.462000906	N/A	N/A	N/A	N/A	N/A	1.48484418439	N/A	N/A	N/A	N/A	N/A	N/A
42133.7343	N/A	N/A	18.135481558	59.462000905	N/A	N/A	N/A	N/A	N/A	1.48484736089	N/A	N/A	N/A	N/A	N/A	N/A
42133.7393	N/A	N/A	18.135481555	59.462000904	N/A	N/A	N/A	N/A	N/A	1.48484050174	N/A	N/A	N/A	N/A	N/A	N/A
42133.7443	N/A	N/A	18.135481552	59.462000904	N/A	N/A	N/A	N/A	N/A	1.48483355533	N/A	N/A	N/A	N/A	N/A	N/A
42133.7493	N/A	N/A	18.135481548	59.462000903	N/A	N/A	N/A	N/A	N/A	1.48483575445	N/A	N/A	N/A	N/A	N/A	N/A
42133.7543	N/A	N/A	18.135481545	59.462000902	N/A	N/A	N/A	N/A	N/A	1.48483634786	N/A	N/A	N/A	N/A	N/A	N/A
42133.7593	N/A	N/A	18.135481542	59.462000902	N/A	N/A	N/A	N/A	N/A	1.48484413203	N/A	N/A	N/A	N/A	N/A	N/A
42133.7643	N/A	N/A	18.135481538	59.462000901	N/A	N/A	N/A	N/A	N/A	1.48485385351	N/A	N/A	N/A	N/A	N/A	N/A
42133.7693	N/A	N/A	18.135481535	59.4620009	N/A	N/A	N/A	N/A	N/A	1.48486467455	N/A	N/A	N/A	N/A	N/A	N/A
42133.7743	N/A	N/A	18.135481531	59.462000899	N/A	N/A	N/A	N/A	N/A	1.48486336556	N/A	N/A	N/A	N/A	N/A	N/A
42133.7793	N/A	N/A	18.135481528	59.462000899	N/A	N/A	N/A	N/A	N/A	1.48485983999	N/A	N/A	N/A	N/A	N/A	N/A
42133.7843	N/A	N/A	18.135481525	59.462000898	N/A	N/A	N/A	N/A	N/A	1.4848665246	N/A	N/A	N/A	N/A	N/A	N/A
42133.7893	N/A	N/A	18.135481521	59.462000897	N/A	N/A	N/A	N/A	N/A	1.48485572101	N/A	N/A	N/A	N/A	N/A	N/A
42133.7943	N/A	N/A	18.135481518	59.462000896	N/A	N/A	N/A	N/A	N/A	1.48486631516	N/A	N/A	N/A	N/A	N/A	N/A
42133.7993	N/A	N/A	18.135481514	59.462000896	N/A	N/A	N/A	N/A	N/A	1.48485983999	N/A	N/A	N/A	N/A	N/A	N/A
42133.8043	N/A	N/A	18.135481511	59.462000895	N/A	N/A	N/A	N/A	N/A	1.48487886408	N/A	N/A	N/A	N/A	N/A	N/A
42133.8093	N/A	N/A	18.135481507	59.462000894	N/A	N/A	N/A	N/A	N/A	1.48487650789	N/A	N/A	N/A	N/A	N/A	N/A
42133.8143	N/A	N/A	18.135481504	59.462000893	N/A	N/A	N/A	N/A	N/A	1.48490022691	N/A	N/A	N/A	N/A	N/A	N/A
42133.8193	N/A	N/A	18.1354815	59.462000892	N/A	N/A	N/A	N/A	N/A	1.48491778492	N/A	N/A	N/A	N/A	N/A	N/A
42133.8243	N/A	N/A	18.135481497	59.462000892	N/A	N/A	N/A	N/A	N/A	1.48491286309	N/A	N/A	N/A	N/A	N/A	N/A
42133.8293	N/A	N/A	18.135481493	59.462000891	N/A	N/A	N/A	N/A	N/A	1.48491410228	N/A	N/A	N/A	N/A	N/A	N/A
42133.8343	N/A	N/A	18.13548149	59.46200089	N/A	N/A	N/A	N/A	N/A	1.4849224275	N/A	N/A	N/A	N/A	N/A	N/A
42133.8393	N/A	N/A	18.135481486	59.462000889	N/A	N/A	N/A	N/A	N/A	1.48491837833	N/A	N/A	N/A	N/A	N/A	N/A
42133.8443	N/A	N/A	18.135481483	59.462000888	N/A	N/A	N/A	N/A	N/A	1.48493312637	N/A	N/A	N/A	N/A	N/A	N/A
42133.8493	N/A	N/A	18.135481479	59.462000887	N/A	N/A	N/A	N/A	N/A	1.4849264243	N/A	N/A	N/A	N/A	N/A	N/A
42133.8543	N/A	N/A	18.135481475	59.462000887	N/A	N/A	N/A	N/A	N/A	1.4849248186	N/A	N/A	N/A	N/A	N/A	N/A
42133.8593	N/A	N/A	18.135481472	59.462000886	N/A	N/A	N/A	N/A	N/A	1.48493314382	N/A	N/A	N/A	N/A	N/A	N/A
42133.8643	N/A	N/A	18.135481468	59.462000885	N/A	N/A	N/A	N/A	N/A	1.48494523895	N/A	N/A	N/A	N/A	N/A	N/A
42133.8693	N/A	N/A	18.135481464	59.462000884	N/A	N/A	N/A	N/A	N/A	1.48494262096	N/A	N/A	N/A	N/A	N/A	N/A
42133.8743	N/A	N/A	18.135481461	59.462000883	N/A	N/A	N/A	N/A	N/A	1.48495592037	N/A	N/A	N/A	N/A	N/A	N/A
42133.8793	N/A	N/A	18.135481457	59.462000882	N/A	N/A	N/A	N/A	N/A	1.48497049387	N/A	N/A	N/A	N/A	N/A	N/A
42133.8843	N/A	N/A	18.135481454	59.462000881	N/A	N/A	N/A	N/A	N/A	1.48498487538	N/A	N/A	N/A	N/A	N/A	N/A
42133.8893	N/A	N/A	18.135481514	59.462000942	N/A	N/A	N/A	N/A	N/A	1.48444507995	N/A	N/A	N/A	N/A	N/A	N/A
42133.8943	N/A	N/A	18.135481575	59.462001004	N/A	N/A	N/A	N/A	N/A	1.48443115222	N/A	N/A	N/A	N/A	N/A	N/A
42133.8993	N/A	N/A	18.135481572	59.462001003	N/A	N/A	N/A	N/A	N/A	1.48444612715	N/A	N/A	N/A	N/A	N/A	N/A
42133.9043	N/A	N/A	18.135481569	59.462001002	N/A	N/A	N/A	N/A	N/A	1.48444923383	N/A	N/A	N/A	N/A	N/A	N/A
42133.9093	N/A	N/A	18.135481565	59.462001002	N/A	N/A	N/A	N/A	N/A	1.48445248014	N/A	N/A	N/A	N/A	N/A	N/A
42133.9143	N/A	N/A	18.135481562	59.462001001	N/A	N/A	N/A	N/A	N/A	1.48448038796	N/A	N/A	N/A	N/A	N/A	N/A
42133.9193	N/A	N/A	18.135481559	59.462001001	N/A	N/A	N/A	N/A	N/A	1.48446431348	N/A	N/A	N/A	N/A	N/A	N/A
42133.9243	N/A	N/A	18.135481556	59.462001	N/A	N/A	N/A	N/A	N/A	1.48448096392	N/A	N/A	N/A	N/A	N/A	N/A
42133.9293	N/A	N/A	18.135481553	59.462000999	N/A	N/A	N/A	N/A	N/A	1.48450147154	N/A	N/A	N/A	N/A	N/A	N/A
42133.9343	N/A	N/A	18.135481549	59.462000998	N/A	N/A	N/A	N/A	N/A	1.48452208387	N/A	N/A	N/A	N/A	N/A	N/A
42133.9393	N/A	N/A	18.135481546	59.462000998	N/A	N/A	N/A	N/A	N/A	1.48452053053	N/A	N/A	N/A	N/A	N/A	N/A
42133.9443	N/A	N/A	18.135481543	59.462000997	N/A	N/A	N/A	N/A	N/A	1.4845179649	N/A	N/A	N/A	N/A	N/A	N/A
42133.9493	N/A	N/A	18.13548154	59.462000997	N/A	N/A	N/A	N/A	N/A	1.48452307871	N/A	N/A	N/A	N/A	N/A	N/A
42133.9543	N/A	N/A	18.135481536	59.462000996	N/A	N/A	N/A	N/A	N/A	1.48452812271	N/A	N/A	N/A	N/A	N/A	N/A
42133.9593	N/A	N/A	18.135481533	59.462000995	N/A	N/A	N/A	N/A	N/A	1.4845137412	N/A	N/A	N/A	N/A	N/A	N/A
42133.9643	N/A	N/A	18.13548153	59.462000994	N/A	N/A	N/A	N/A	N/A	1.48453110723	N/A	N/A	N/A	N/A	N/A	N/A
42133.9693	N/A	N/A	18.135481527	59.462000994	N/A	N/A	N/A	N/A	N/A	1.48453693663	N/A	N/A	N/A	N/A	N/A	N/A
42133.9743	N/A	N/A	18.135481523	59.462000993	N/A	N/A	N/A	N/A	N/A	1.48454915393	N/A	N/A	N/A	N/A	N/A	N/A
42133.9793	N/A	N/A	18.13548152	59.462000992	N/A	N/A	N/A	N/A	N/A	1.48456271514	N/A	N/A	N/A	N/A	N/A	N/A
42133.9843	N/A	N/A	18.135481517	59.462000992	N/A	N/A	N/A	N/A	N/A	1.48457296022	N/A	N/A	N/A	N/A	N/A	N/A
42133.9893	N/A	N/A	18.135481514	59.462000991	N/A	N/A	N/A	N/A	N/A	1.4845866087	N/A	N/A	N/A	N/A	N/A	N/A
42133.9943	N/A	N/A	18.13548151	59.46200099	N/A	N/A	N/A	N/A	N/A	1.48458470629	N/A	N/A	N/A	N/A	N/A	N/A
42133.9993	N/A	N/A	18.135481507	59.46200099	N/A	N/A	N/A	N/A	N/A	1.48460716868	N/A	N/A	N/A	N/A	N/A	N/A
42134.0043	N/A	N/A	18.135481504	59.462000989	N/A	N/A	N/A	N/A	N/A	1.48462310353	N/A	N/A	N/A	N/A	N/A	N/A
42134.0093	N/A	N/A	18.1354815	59.462000988	N/A	N/A	N/A	N/A	N/A	1.48463156838	N/A	N/A	N/A	N/A	N/A	N/A
42134.0143	N/A	N/A	18.135481497	59.462000987	N/A	N/A	N/A	N/A	N/A	1.48463966671	N/A	N/A	N/A	N/A	N/A	N/A
42134.0193	N/A	N/A	18.135481494	59.462000987	N/A	N/A	N/A	N/A	N/A	1.48463018957	N/A	N/A	N/A	N/A	N/A	N/A
42134.0243	N/A	N/A	18.13548149	59.462000986	N/A	N/A	N/A	N/A	N/A	1.48463381985	N/A	N/A	N/A	N/A	N/A	N/A
42134.0293	N/A	N/A	18.135481487	59.462000985	N/A	N/A	N/A	N/A	N/A	1.48463879404	N/A	N/A	N/A	N/A	N/A	N/A
42134.0343	N/A	N/A	18.135481483	59.462000984	N/A	N/A	N/A	N/A	N/A	1.48462757157	N/A	N/A	N/A	N/A	N/A	N/A
42134.0393	N/A	N/A	18.13548148	59.462000984	N/A	N/A	N/A	N/A	N/A	1.4846065229	N/A	N/A	N/A	N/A	N/A	N/A
42134.0443	N/A	N/A	18.135481477	59.462000983	N/A	N/A	N/A	N/A	N/A	1.484611532	N/A	N/A	N/A	N/A	N/A	N/A
42134.0493	N/A	N/A	18.135481473	59.462000982	N/A	N/A	N/A	N/A	N/A	1.48460825078	N/A	N/A	N/A	N/A	N/A	N/A
42134.0543	N/A	N/A	18.13548147	59.462000981	N/A	N/A	N/A	N/A	N/A	1.48460947251	N/A	N/A	N/A	N/A	N/A	N/A
42134.0593	N/A	N/A	18.135481467	59.46200098	N/A	N/A	N/A	N/A	N/A	1.48461378347	N/A	N/A	N/A	N/A	N/A	N/A
42134.0643	N/A	N/A	18.135481463	59.46200098	N/A	N/A	N/A	N/A	N/A	1.48462004921	N/A	N/A	N/A	N/A	N/A	N/A
42134.0693	N/A	N/A	18.13548146	59.462000979	N/A	N/A	N/A	N/A	N/A	1.48461278864	N/A	N/A	N/A	N/A	N/A	N/A
42134.0743	N/A	N/A	18.135481456	59.462000978	N/A	N/A	N/A	N/A	N/A	1.48459957649	N/A	N/A	N/A	N/A	N/A	N/A
42134.0793	N/A	N/A	18.135481453	59.462000977	N/A	N/A	N/A	N/A	N/A	1.48461353913	N/A	N/A	N/A	N/A	N/A	N/A
42134.0843	N/A	N/A	18.135481449	59.462000976	N/A	N/A	N/A	N/A	N/A	1.48461802462	N/A	N/A	N/A	N/A	N/A	N/A
42134.0893	N/A	N/A	18.135481446	59.462000975	N/A	N/A	N/A	N/A	N/A	1.48461842605	N/A	N/A	N/A	N/A	N/A	N/A
42134.0943	N/A	N/A	18.135481442	59.462000974	N/A	N/A	N/A	N/A	N/A	1.48462088696	N/A	N/A	N/A	N/A	N/A	N/A
42134.0993	N/A	N/A	18.135481439	59.462000974	N/A	N/A	N/A	N/A	N/A	1.48463486705	N/A	N/A	N/A	N/A	N/A	N/A
42134.1043	N/A	N/A	18.135481435	59.462000973	N/A	N/A	N/A	N/A	N/A	1.48463916056	N/A	N/A	N/A	N/A	N/A	N/A
42134.1093	N/A	N/A	18.135481432	59.462000972	N/A	N/A	N/A	N/A	N/A	1.48463895112	N/A	N/A	N/A	N/A	N/A	N/A
42134.1143	N/A	N/A	18.135481428	59.462000971	N/A	N/A	N/A	N/A	N/A	1.48464828863	N/A	N/A	N/A	N/A	N/A	N/A
42134.1193	N/A	N/A	18.135481425	59.46200097	N/A	N/A	N/A	N/A	N/A	1.48464132477	N/A	N/A	N/A	N/A	N/A	N/A
42134.1243	N/A	N/A	18.135481421	59.462000969	N/A	N/A	N/A	N/A	N/A	1.4846671731	N/A	N/A	N/A	N/A	N/A	N/A
42134.1293	N/A	N/A	18.135481418	59.462000968	N/A	N/A	N/A	N/A	N/A	1.48466178003	N/A	N/A	N/A	N/A	N/A	N/A
42134.1343	N/A	N/A	18.135481414	59.462000967	N/A	N/A	N/A	N/A	N/A	1.48466626552	N/A	N/A	N/A	N/A	N/A	N/A
42134.1393	N/A	N/A	18.135481473	59.462001021	N/A	N/A	N/A	N/A	N/A	1.48443008757	N/A	N/A	N/A	N/A	N/A	N/A
42134.1443	N/A	N/A	18.135481533	59.462001076	N/A	N/A	N/A	N/A	N/A	1.48443350842	N/A	N/A	N/A	N/A	N/A	N/A
42134.1493	N/A	N/A	18.13548153	59.462001075	N/A	N/A	N/A	N/A	N/A	1.48443850006	N/A	N/A	N/A	N/A	N/A	N/A
42134.1543	N/A	N/A	18.135481526	59.462001074	N/A	N/A	N/A	N/A	N/A	1.48445295138	N/A	N/A	N/A	N/A	N/A	N/A
42134.1593	N/A	N/A	18.135481523	59.462001073	N/A	N/A	N/A	N/A	N/A	1.48446118934	N/A	N/A	N/A	N/A	N/A	N/A
42134.1643	N/A	N/A	18.13548152	59.462001073	N/A	N/A	N/A	N/A	N/A	1.48446464509	N/A	N/A	N/A	N/A	N/A	N/A
42134.1693	N/A	N/A	18.135481517	59.462001072	N/A	N/A	N/A	N/A	N/A	1.4844572798	N/A	N/A	N/A	N/A	N/A	N/A
42134.1743	N/A	N/A	18.135481514	59.462001071	N/A	N/A	N/A	N/A	N/A	1.48447684494	N/A	N/A	N/A	N/A	N/A	N/A
42134.1793	N/A	N/A	18.13548151	59.46200107	N/A	N/A	N/A	N/A	N/A	1.48447951529	N/A	N/A	N/A	N/A	N/A	N/A
42134.1843	N/A	N/A	18.135481507	59.46200107	N/A	N/A	N/A	N/A	N/A	1.48449627046	N/A	N/A	N/A	N/A	N/A	N/A
42134.1893	N/A	N/A	18.135481504	59.462001069	N/A	N/A	N/A	N/A	N/A	1.48449366991	N/A	N/A	N/A	N/A	N/A	N/A
42134.1943	N/A	N/A	18.135481501	59.462001068	N/A	N/A	N/A	N/A	N/A	1.48447483781	N/A	N/A	N/A	N/A	N/A	N/A
42134.1993	N/A	N/A	18.135481497	59.462001067	N/A	N/A	N/A	N/A	N/A	1.48446113698	N/A	N/A	N/A	N/A	N/A	N/A
42134.2043	N/A	N/A	18.135481494	59.462001067	N/A	N/A	N/A	N/A	N/A	1.48446094499	N/A	N/A	N/A	N/A	N/A	N/A
42134.2093	N/A	N/A	18.135481491	59.462001066	N/A	N/A	N/A	N/A	N/A	1.48446584937	N/A	N/A	N/A	N/A	N/A	N/A
42134.2143	N/A	N/A	18.135481488	59.462001065	N/A	N/A	N/A	N/A	N/A	1.48447565812	N/A	N/A	N/A	N/A	N/A	N/A
42134.2193	N/A	N/A	18.135481484	59.462001064	N/A	N/A	N/A	N/A	N/A	1.48447248162	N/A	N/A	N/A	N/A	N/A	N/A
42134.2243	N/A	N/A	18.135481481	59.462001063	N/A	N/A	N/A	N/A	N/A	1.48449555487	N/A	N/A	N/A	N/A	N/A	N/A
42134.2293	N/A	N/A	18.135481478	59.462001063	N/A	N/A	N/A	N/A	N/A	1.48448548432	N/A	N/A	N/A	N/A	N/A	N/A
42134.2343	N/A	N/A	18.135481474	59.462001062	N/A	N/A	N/A	N/A	N/A	1.4844980856	N/A	N/A	N/A	N/A	N/A	N/A
42134.2393	N/A	N/A	18.135481471	59.462001061	N/A	N/A	N/A	N/A	N/A	1.4845068646	N/A	N/A	N/A	N/A	N/A	N/A
42134.2443	N/A	N/A	18.135481468	59.46200106	N/A	N/A	N/A	N/A	N/A	1.48450754528	N/A	N/A	N/A	N/A	N/A	N/A
42134.2493	N/A	N/A	18.135481465	59.462001059	N/A	N/A	N/A	N/A	N/A	1.48449562468	N/A	N/A	N/A	N/A	N/A	N/A
42134.2543	N/A	N/A	18.135481461	59.462001059	N/A	N/A	N/A	N/A	N/A	1.48448094646	N/A	N/A	N/A	N/A	N/A	N/A
42134.2593	N/A	N/A	18.135481458	59.462001058	N/A	N/A	N/A	N/A	N/A	1.48448209838	N/A	N/A	N/A	N/A	N/A	N/A
42134.2643	N/A	N/A	18.135481454	59.462001057	N/A	N/A	N/A	N/A	N/A	1.48446865935	N/A	N/A	N/A	N/A	N/A	N/A
42134.2693	N/A	N/A	18.135481451	59.462001056	N/A	N/A	N/A	N/A	N/A	1.48446769942	N/A	N/A	N/A	N/A	N/A	N/A
42134.2743	N/A	N/A	18.135481448	59.462001055	N/A	N/A	N/A	N/A	N/A	1.48447598973	N/A	N/A	N/A	N/A	N/A	N/A
42134.2793	N/A	N/A	18.135481444	59.462001054	N/A	N/A	N/A	N/A	N/A	1.48447866008	N/A	N/A	N/A	N/A	N/A	N/A
42134.2843	N/A	N/A	18.135481441	59.462001054	N/A	N/A	N/A	N/A	N/A	1.48446368516	N/A	N/A	N/A	N/A	N/A	N/A
42134.2893	N/A	N/A	18.135481437	59.462001053	N/A	N/A	N/A	N/A	N/A	1.48445481889	N/A	N/A	N/A	N/A	N/A	N/A
42134.2943	N/A	N/A	18.135481434	59.462001052	N/A	N/A	N/A	N/A	N/A	1.48445326554	N/A	N/A	N/A	N/A	N/A	N/A
42134.2993	N/A	N/A	18.135481431	59.462001051	N/A	N/A	N/A	N/A	N/A	1.48445982798	N/A	N/A	N/A	N/A	N/A	N/A
42134.3043	N/A	N/A	18.135481427	59.46200105	N/A	N/A	N/A	N/A	N/A	1.48446790885	N/A	N/A	N/A	N/A	N/A	N/A
42134.3093	N/A	N/A	18.135481424	59.462001049	N/A	N/A	N/A	N/A	N/A	1.48447649587	N/A	N/A	N/A	N/A	N/A	N/A
42134.3143	N/A	N/A	18.13548142	59.462001048	N/A	N/A	N/A	N/A	N/A	1.48448056249	N/A	N/A	N/A	N/A	N/A	N/A
42134.3193	N/A	N/A	18.135481417	59.462001048	N/A	N/A	N/A	N/A	N/A	1.48448468147	N/A	N/A	N/A	N/A	N/A	N/A
42134.3243	N/A	N/A	18.135481413	59.462001047	N/A	N/A	N/A	N/A	N/A	1.48448860846	N/A	N/A	N/A	N/A	N/A	N/A
42134.3293	N/A	N/A	18.13548141	59.462001046	N/A	N/A	N/A	N/A	N/A	1.4844840357	N/A	N/A	N/A	N/A	N/A	N/A
42134.3343	N/A	N/A	18.135481406	59.462001045	N/A	N/A	N/A	N/A	N/A	1.48450255364	N/A	N/A	N/A	N/A	N/A	N/A
42134.3393	N/A	N/A	18.135481403	59.462001044	N/A	N/A	N/A	N/A	N/A	1.48449136608	N/A	N/A	N/A	N/A	N/A	N/A
42134.3443	N/A	N/A	18.135481399	59.462001043	N/A	N/A	N/A	N/A	N/A	1.48449792852	N/A	N/A	N/A	N/A	N/A	N/A
42134.3493	N/A	N/A	18.135481396	59.462001042	N/A	N/A	N/A	N/A	N/A	1.48449079012	N/A	N/A	N/A	N/A	N/A	N/A
42134.3543	N/A	N/A	18.135481392	59.462001041	N/A	N/A	N/A	N/A	N/A	1.48449686387	N/A	N/A	N/A	N/A	N/A	N/A
42134.3593	N/A	N/A	18.135481389	59.46200104	N/A	N/A	N/A	N/A	N/A	1.48450340885	N/A	N/A	N/A	N/A	N/A	N/A
42134.3643	N/A	N/A	18.135481385	59.462001039	N/A	N/A	N/A	N/A	N/A	1.48449639263	N/A	N/A	N/A	N/A	N/A	N/A
42134.3693	N/A	N/A	18.135481382	59.462001039	N/A	N/A	N/A	N/A	N/A	1.48448873063	N/A	N/A	N/A	N/A	N/A	N/A
42134.3743	N/A	N/A	18.135481378	59.462001038	N/A	N/A	N/A	N/A	N/A	1.48448206348	N/A	N/A	N/A	N/A	N/A	N/A
42134.3793	N/A	N/A	18.135481374	59.462001037	N/A	N/A	N/A	N/A	N/A	1.48446485453	N/A	N/A	N/A	N/A	N/A	N/A
42134.3843	N/A	N/A	18.135481371	59.462001036	N/A	N/A	N/A	N/A	N/A	1.48444462616	N/A	N/A	N/A	N/A	N/A	N/A
42134.3893	N/A	N/A	18.135481461	59.462001088	N/A	N/A	N/A	N/A	N/A	1.48498742356	N/A	N/A	N/A	N/A	N/A	N/A
42134.3943	N/A	N/A	18.135481552	59.462001141	N/A	N/A	N/A	N/A	N/A	1.48499018118	N/A	N/A	N/A	N/A	N/A	N/A
42134.3993	N/A	N/A	18.135481548	59.46200114	N/A	N/A	N/A	N/A	N/A	1.48499763374	N/A	N/A	N/A	N/A	N/A	N/A
42134.4043	N/A	N/A	18.135481545	59.462001139	N/A	N/A	N/A	N/A	N/A	1.48499295625	N/A	N/A	N/A	N/A	N/A	N/A
42134.4093	N/A	N/A	18.135481543	59.462001138	N/A	N/A	N/A	N/A	N/A	1.48500285227	N/A	N/A	N/A	N/A	N/A	N/A
42134.4143	N/A	N/A	18.13548154	59.462001138	N/A	N/A	N/A	N/A	N/A	1.48501107277	N/A	N/A	N/A	N/A	N/A	N/A
42134.4193	N/A	N/A	18.135481537	59.462001137	N/A	N/A	N/A	N/A	N/A	1.48501424927	N/A	N/A	N/A	N/A	N/A	N/A
42134.4243	N/A	N/A	18.135481534	59.462001136	N/A	N/A	N/A	N/A	N/A	1.48501903147	N/A	N/A	N/A	N/A	N/A	N/A
42134.4293	N/A	N/A	18.135481531	59.462001135	N/A	N/A	N/A	N/A	N/A	1.48502418019	N/A	N/A	N/A	N/A	N/A	N/A
42134.4343	N/A	N/A	18.135481528	59.462001134	N/A	N/A	N/A	N/A	N/A	1.48501348133	N/A	N/A	N/A	N/A	N/A	N/A
42134.4393	N/A	N/A	18.135481525	59.462001134	N/A	N/A	N/A	N/A	N/A	1.48501632621	N/A	N/A	N/A	N/A	N/A	N/A
42134.4443	N/A	N/A	18.135481521	59.462001133	N/A	N/A	N/A	N/A	N/A	1.48501306245	N/A	N/A	N/A	N/A	N/A	N/A
42134.4493	N/A	N/A	18.135481518	59.462001132	N/A	N/A	N/A	N/A	N/A	1.48500508629	N/A	N/A	N/A	N/A	N/A	N/A
42134.4543	N/A	N/A	18.135481515	59.462001131	N/A	N/A	N/A	N/A	N/A	1.48500988595	N/A	N/A	N/A	N/A	N/A	N/A
42134.4593	N/A	N/A	18.135481512	59.46200113	N/A	N/A	N/A	N/A	N/A	1.48502561136	N/A	N/A	N/A	N/A	N/A	N/A
42134.4643	N/A	N/A	18.135481509	59.46200113	N/A	N/A	N/A	N/A	N/A	1.48504908604	N/A	N/A	N/A	N/A	N/A	N/A
42134.4693	N/A	N/A	18.135481506	59.462001129	N/A	N/A	N/A	N/A	N/A	1.48505744617	N/A	N/A	N/A	N/A	N/A	N/A
42134.4743	N/A	N/A	18.135481503	59.462001128	N/A	N/A	N/A	N/A	N/A	1.48506571903	N/A	N/A	N/A	N/A	N/A	N/A
42134.4793	N/A	N/A	18.1354815	59.462001127	N/A	N/A	N/A	N/A	N/A	1.48508423697	N/A	N/A	N/A	N/A	N/A	N/A
42134.4843	N/A	N/A	18.135481497	59.462001126	N/A	N/A	N/A	N/A	N/A	1.48509933407	N/A	N/A	N/A	N/A	N/A	N/A
42134.4893	N/A	N/A	18.135481494	59.462001126	N/A	N/A	N/A	N/A	N/A	1.48509519764	N/A	N/A	N/A	N/A	N/A	N/A
42134.4943	N/A	N/A	18.135481491	59.462001125	N/A	N/A	N/A	N/A	N/A	1.4850955118	N/A	N/A	N/A	N/A	N/A	N/A
42134.4993	N/A	N/A	18.135481487	59.462001124	N/A	N/A	N/A	N/A	N/A	1.4851119179	N/A	N/A	N/A	N/A	N/A	N/A
42134.5043	N/A	N/A	18.135481484	59.462001123	N/A	N/A	N/A	N/A	N/A	1.48512710226	N/A	N/A	N/A	N/A	N/A	N/A
42134.5093	N/A	N/A	18.135481481	59.462001122	N/A	N/A	N/A	N/A	N/A	1.48512945845	N/A	N/A	N/A	N/A	N/A	N/A
42134.5143	N/A	N/A	18.135481478	59.462001121	N/A	N/A	N/A	N/A	N/A	1.48513464208	N/A	N/A	N/A	N/A	N/A	N/A
42134.5193	N/A	N/A	18.135481475	59.46200112	N/A	N/A	N/A	N/A	N/A	1.48514232153	N/A	N/A	N/A	N/A	N/A	N/A
42134.5243	N/A	N/A	18.135481471	59.46200112	N/A	N/A	N/A	N/A	N/A	1.48515494026	N/A	N/A	N/A	N/A	N/A	N/A
42134.5293	N/A	N/A	18.135481468	59.462001119	N/A	N/A	N/A	N/A	N/A	1.48514888397	N/A	N/A	N/A	N/A	N/A	N/A
42134.5343	N/A	N/A	18.135481465	59.462001118	N/A	N/A	N/A	N/A	N/A	1.48514598672	N/A	N/A	N/A	N/A	N/A	N/A
42134.5393	N/A	N/A	18.135481462	59.462001117	N/A	N/A	N/A	N/A	N/A	1.48515607473	N/A	N/A	N/A	N/A	N/A	N/A
42134.5443	N/A	N/A	18.135481459	59.462001116	N/A	N/A	N/A	N/A	N/A	1.48515569075	N/A	N/A	N/A	N/A	N/A	N/A
42134.5493	N/A	N/A	18.135481455	59.462001115	N/A	N/A	N/A	N/A	N/A	1.48516438249	N/A	N/A	N/A	N/A	N/A	N/A
42134.5543	N/A	N/A	18.135481452	59.462001114	N/A	N/A	N/A	N/A	N/A	1.48515759316	N/A	N/A	N/A	N/A	N/A	N/A
42134.5593	N/A	N/A	18.135481449	59.462001113	N/A	N/A	N/A	N/A	N/A	1.48515837856	N/A	N/A	N/A	N/A	N/A	N/A
42134.5643	N/A	N/A	18.135481446	59.462001112	N/A	N/A	N/A	N/A	N/A	1.48516401597	N/A	N/A	N/A	N/A	N/A	N/A
42134.5693	N/A	N/A	18.135481442	59.462001111	N/A	N/A	N/A	N/A	N/A	1.48516647689	N/A	N/A	N/A	N/A	N/A	N/A
42134.5743	N/A	N/A	18.135481439	59.46200111	N/A	N/A	N/A	N/A	N/A	1.48517021189	N/A	N/A	N/A	N/A	N/A	N/A
42134.5793	N/A	N/A	18.135481436	59.462001109	N/A	N/A	N/A	N/A	N/A	1.48516970575	N/A	N/A	N/A	N/A	N/A	N/A
42134.5843	N/A	N/A	18.135481433	59.462001109	N/A	N/A	N/A	N/A	N/A	1.48517337094	N/A	N/A	N/A	N/A	N/A	N/A
42134.5893	N/A	N/A	18.135481429	59.462001108	N/A	N/A	N/A	N/A	N/A	1.4851681175	N/A	N/A	N/A	N/A	N/A	N/A
42134.5943	N/A	N/A	18.135481426	59.462001107	N/A	N/A	N/A	N/A	N/A	1.48518363347	N/A	N/A	N/A	N/A	N/A	N/A
42134.5993	N/A	N/A	18.135481423	59.462001106	N/A	N/A	N/A	N/A	N/A	1.48518365093	N/A	N/A	N/A	N/A	N/A	N/A
42134.6043	N/A	N/A	18.135481419	59.462001105	N/A	N/A	N/A	N/A	N/A	1.48518375565	N/A	N/A	N/A	N/A	N/A	N/A
42134.6093	N/A	N/A	18.135481416	59.462001104	N/A	N/A	N/A	N/A	N/A	1.48518167871	N/A	N/A	N/A	N/A	N/A	N/A
42134.6143	N/A	N/A	18.135481413	59.462001103	N/A	N/A	N/A	N/A	N/A	1.48518448869	N/A	N/A	N/A	N/A	N/A	N/A
42134.6193	N/A	N/A	18.135481409	59.462001102	N/A	N/A	N/A	N/A	N/A	1.48519644419	N/A	N/A	N/A	N/A	N/A	N/A
42134.6243	N/A	N/A	18.135481406	59.462001101	N/A	N/A	N/A	N/A	N/A	1.48519417526	N/A	N/A	N/A	N/A	N/A	N/A
42134.6293	N/A	N/A	18.13548148	59.462001161	N/A	N/A	N/A	N/A	N/A	1.48483224634	N/A	N/A	N/A	N/A	N/A	N/A
42134.6343	N/A	N/A	18.135481555	59.462001222	N/A	N/A	N/A	N/A	N/A	1.48484428911	N/A	N/A	N/A	N/A	N/A	N/A
42134.6393	N/A	N/A	18.135481552	59.462001221	N/A	N/A	N/A	N/A	N/A	1.48485589555	N/A	N/A	N/A	N/A	N/A	N/A
42134.6443	N/A	N/A	18.135481549	59.46200122	N/A	N/A	N/A	N/A	N/A	1.48484626133	N/A	N/A	N/A	N/A	N/A	N/A
42134.6493	N/A	N/A	18.135481546	59.462001219	N/A	N/A	N/A	N/A	N/A	1.48483116423	N/A	N/A	N/A	N/A	N/A	N/A
42134.6543	N/A	N/A	18.135481544	59.462001219	N/A	N/A	N/A	N/A	N/A	1.4848323336	N/A	N/A	N/A	N/A	N/A	N/A
42134.6593	N/A	N/A	18.135481541	59.462001218	N/A	N/A	N/A	N/A	N/A	1.48483928001	N/A	N/A	N/A	N/A	N/A	N/A
42134.6643	N/A	N/A	18.135481538	59.462001217	N/A	N/A	N/A	N/A	N/A	1.48483770922	N/A	N/A	N/A	N/A	N/A	N/A
42134.6693	N/A	N/A	18.135481535	59.462001216	N/A	N/A	N/A	N/A	N/A	1.48484507451	N/A	N/A	N/A	N/A	N/A	N/A
42134.6743	N/A	N/A	18.135481532	59.462001216	N/A	N/A	N/A	N/A	N/A	1.48483933237	N/A	N/A	N/A	N/A	N/A	N/A
42134.6793	N/A	N/A	18.135481529	59.462001215	N/A	N/A	N/A	N/A	N/A	1.48482488105	N/A	N/A	N/A	N/A	N/A	N/A
42134.6843	N/A	N/A	18.135481527	59.462001214	N/A	N/A	N/A	N/A	N/A	1.48481737613	N/A	N/A	N/A	N/A	N/A	N/A
42134.6893	N/A	N/A	18.135481524	59.462001213	N/A	N/A	N/A	N/A	N/A	1.48482798773	N/A	N/A	N/A	N/A	N/A	N/A
42134.6943	N/A	N/A	18.135481521	59.462001212	N/A	N/A	N/A	N/A	N/A	1.48482235032	N/A	N/A	N/A	N/A	N/A	N/A
42134.6993	N/A	N/A	18.135481518	59.462001212	N/A	N/A	N/A	N/A	N/A	1.48482639948	N/A	N/A	N/A	N/A	N/A	N/A
42134.7043	N/A	N/A	18.135481515	59.462001211	N/A	N/A	N/A	N/A	N/A	1.48484622642	N/A	N/A	N/A	N/A	N/A	N/A
42134.7093	N/A	N/A	18.135481512	59.46200121	N/A	N/A	N/A	N/A	N/A	1.48486169004	N/A	N/A	N/A	N/A	N/A	N/A
42134.7143	N/A	N/A	18.135481509	59.462001209	N/A	N/A	N/A	N/A	N/A	1.48486935204	N/A	N/A	N/A	N/A	N/A	N/A
42134.7193	N/A	N/A	18.135481507	59.462001208	N/A	N/A	N/A	N/A	N/A	1.48487144643	N/A	N/A	N/A	N/A	N/A	N/A
42134.7243	N/A	N/A	18.135481504	59.462001208	N/A	N/A	N/A	N/A	N/A	1.48488022544	N/A	N/A	N/A	N/A	N/A	N/A
42134.7293	N/A	N/A	18.135481501	59.462001207	N/A	N/A	N/A	N/A	N/A	1.48489043561	N/A	N/A	N/A	N/A	N/A	N/A
42134.7343	N/A	N/A	18.135481498	59.462001206	N/A	N/A	N/A	N/A	N/A	1.48490668463	N/A	N/A	N/A	N/A	N/A	N/A
42134.7393	N/A	N/A	18.135481495	59.462001205	N/A	N/A	N/A	N/A	N/A	1.48490977386	N/A	N/A	N/A	N/A	N/A	N/A
42134.7443	N/A	N/A	18.135481492	59.462001204	N/A	N/A	N/A	N/A	N/A	1.48492991496	N/A	N/A	N/A	N/A	N/A	N/A
42134.7493	N/A	N/A	18.135481489	59.462001203	N/A	N/A	N/A	N/A	N/A	1.4849417832	N/A	N/A	N/A	N/A	N/A	N/A
42134.7543	N/A	N/A	18.135481486	59.462001202	N/A	N/A	N/A	N/A	N/A	1.48494785695	N/A	N/A	N/A	N/A	N/A	N/A
42134.7593	N/A	N/A	18.135481484	59.462001201	N/A	N/A	N/A	N/A	N/A	1.48495869544	N/A	N/A	N/A	N/A	N/A	N/A
42134.7643	N/A	N/A	18.135481481	59.462001201	N/A	N/A	N/A	N/A	N/A	1.48494689701	N/A	N/A	N/A	N/A	N/A	N/A
42134.7693	N/A	N/A	18.135481478	59.4620012	N/A	N/A	N/A	N/A	N/A	1.48494173084	N/A	N/A	N/A	N/A	N/A	N/A
42134.7743	N/A	N/A	18.135481475	59.462001199	N/A	N/A	N/A	N/A	N/A	1.48494834564	N/A	N/A	N/A	N/A	N/A	N/A
42134.7793	N/A	N/A	18.135481472	59.462001198	N/A	N/A	N/A	N/A	N/A	1.48494284785	N/A	N/A	N/A	N/A	N/A	N/A
42134.7843	N/A	N/A	18.135481469	59.462001197	N/A	N/A	N/A	N/A	N/A	1.48494459318	N/A	N/A	N/A	N/A	N/A	N/A
42134.7893	N/A	N/A	18.135481466	59.462001196	N/A	N/A	N/A	N/A	N/A	1.48495791004	N/A	N/A	N/A	N/A	N/A	N/A
42134.7943	N/A	N/A	18.135481463	59.462001195	N/A	N/A	N/A	N/A	N/A	1.48496766643	N/A	N/A	N/A	N/A	N/A	N/A
42134.7993	N/A	N/A	18.13548146	59.462001194	N/A	N/A	N/A	N/A	N/A	1.48499384637	N/A	N/A	N/A	N/A	N/A	N/A
42134.8043	N/A	N/A	18.135481457	59.462001193	N/A	N/A	N/A	N/A	N/A	1.48499707523	N/A	N/A	N/A	N/A	N/A	N/A
42134.8093	N/A	N/A	18.135481454	59.462001192	N/A	N/A	N/A	N/A	N/A	1.48500211923	N/A	N/A	N/A	N/A	N/A	N/A
42134.8143	N/A	N/A	18.135481451	59.462001191	N/A	N/A	N/A	N/A	N/A	1.48500388201	N/A	N/A	N/A	N/A	N/A	N/A
42134.8193	N/A	N/A	18.135481448	59.462001191	N/A	N/A	N/A	N/A	N/A	1.48501723378	N/A	N/A	N/A	N/A	N/A	N/A
42134.8243	N/A	N/A	18.135481445	59.46200119	N/A	N/A	N/A	N/A	N/A	1.48503388422	N/A	N/A	N/A	N/A	N/A	N/A
42134.8293	N/A	N/A	18.135481442	59.462001189	N/A	N/A	N/A	N/A	N/A	1.48503885841	N/A	N/A	N/A	N/A	N/A	N/A
42134.8343	N/A	N/A	18.135481439	59.462001187	N/A	N/A	N/A	N/A	N/A	1.48503336063	N/A	N/A	N/A	N/A	N/A	N/A
42134.8393	N/A	N/A	18.135481436	59.462001187	N/A	N/A	N/A	N/A	N/A	1.48504083064	N/A	N/A	N/A	N/A	N/A	N/A
42134.8443	N/A	N/A	18.135481433	59.462001186	N/A	N/A	N/A	N/A	N/A	1.48505079647	N/A	N/A	N/A	N/A	N/A	N/A
42134.8493	N/A	N/A	18.13548143	59.462001185	N/A	N/A	N/A	N/A	N/A	1.48505161677	N/A	N/A	N/A	N/A	N/A	N/A
42134.8543	N/A	N/A	18.135481427	59.462001184	N/A	N/A	N/A	N/A	N/A	1.48505966274	N/A	N/A	N/A	N/A	N/A	N/A
42134.8593	N/A	N/A	18.135481424	59.462001183	N/A	N/A	N/A	N/A	N/A	1.48505559612	N/A	N/A	N/A	N/A	N/A	N/A
42134.8643	N/A	N/A	18.135481421	59.462001182	N/A	N/A	N/A	N/A	N/A	1.48507151352	N/A	N/A	N/A	N/A	N/A	N/A
42134.8693	N/A	N/A	18.135481418	59.462001181	N/A	N/A	N/A	N/A	N/A	1.48506388643	N/A	N/A	N/A	N/A	N/A	N/A
42134.8743	N/A	N/A	18.135481414	59.46200118	N/A	N/A	N/A	N/A	N/A	1.48505803958	N/A	N/A	N/A	N/A	N/A	N/A
42134.8793	N/A	N/A	18.135481484	59.462001237	N/A	N/A	N/A	N/A	N/A	1.48454428446	N/A	N/A	N/A	N/A	N/A	N/A
42134.8843	N/A	N/A	18.135481555	59.462001294	N/A	N/A	N/A	N/A	N/A	1.48453725079	N/A	N/A	N/A	N/A	N/A	N/A
42134.8893	N/A	N/A	18.135481552	59.462001293	N/A	N/A	N/A	N/A	N/A	1.48454609961	N/A	N/A	N/A	N/A	N/A	N/A
42134.8943	N/A	N/A	18.135481549	59.462001292	N/A	N/A	N/A	N/A	N/A	1.48455313328	N/A	N/A	N/A	N/A	N/A	N/A
42134.8993	N/A	N/A	18.135481547	59.462001291	N/A	N/A	N/A	N/A	N/A	1.4845617203	N/A	N/A	N/A	N/A	N/A	N/A
42134.9043	N/A	N/A	18.135481544	59.46200129	N/A	N/A	N/A	N/A	N/A	1.48456159813	N/A	N/A	N/A	N/A	N/A	N/A
42134.9093	N/A	N/A	18.135481541	59.46200129	N/A	N/A	N/A	N/A	N/A	1.48457360599	N/A	N/A	N/A	N/A	N/A	N/A
42134.9143	N/A	N/A	18.135481539	59.462001289	N/A	N/A	N/A	N/A	N/A	1.48459144326	N/A	N/A	N/A	N/A	N/A	N/A
42134.9193	N/A	N/A	18.135481536	59.462001288	N/A	N/A	N/A	N/A	N/A	1.4845829086	N/A	N/A	N/A	N/A	N/A	N/A
42134.9243	N/A	N/A	18.135481534	59.462001287	N/A	N/A	N/A	N/A	N/A	1.48459805806	N/A	N/A	N/A	N/A	N/A	N/A
42134.9293	N/A	N/A	18.135481531	59.462001286	N/A	N/A	N/A	N/A	N/A	1.48460149636	N/A	N/A	N/A	N/A	N/A	N/A
42134.9343	N/A	N/A	18.135481528	59.462001286	N/A	N/A	N/A	N/A	N/A	1.48461102585	N/A	N/A	N/A	N/A	N/A	N/A
42134.9393	N/A	N/A	18.135481526	59.462001285	N/A	N/A	N/A	N/A	N/A	1.48462554699	N/A	N/A	N/A	N/A	N/A	N/A
42134.9443	N/A	N/A	18.135481523	59.462001284	N/A	N/A	N/A	N/A	N/A	1.48464190073	N/A	N/A	N/A	N/A	N/A	N/A
42134.9493	N/A	N/A	18.135481521	59.462001283	N/A	N/A	N/A	N/A	N/A	1.48465034812	N/A	N/A	N/A	N/A	N/A	N/A
42134.9543	N/A	N/A	18.135481518	59.462001282	N/A	N/A	N/A	N/A	N/A	1.48466401405	N/A	N/A	N/A	N/A	N/A	N/A
42134.9593	N/A	N/A	18.135481515	59.462001281	N/A	N/A	N/A	N/A	N/A	1.48466371734	N/A	N/A	N/A	N/A	N/A	N/A
42134.9643	N/A	N/A	18.135481513	59.46200128	N/A	N/A	N/A	N/A	N/A	1.48468864065	N/A	N/A	N/A	N/A	N/A	N/A
42134.9693	N/A	N/A	18.13548151	59.462001279	N/A	N/A	N/A	N/A	N/A	1.48468115318	N/A	N/A	N/A	N/A	N/A	N/A
42134.9743	N/A	N/A	18.135481508	59.462001279	N/A	N/A	N/A	N/A	N/A	1.48469270726	N/A	N/A	N/A	N/A	N/A	N/A
42134.9793	N/A	N/A	18.135481505	59.462001278	N/A	N/A	N/A	N/A	N/A	1.48470321414	N/A	N/A	N/A	N/A	N/A	N/A
42134.9843	N/A	N/A	18.135481503	59.462001277	N/A	N/A	N/A	N/A	N/A	1.48471523946	N/A	N/A	N/A	N/A	N/A	N/A
42134.9893	N/A	N/A	18.135481501	59.462001276	N/A	N/A	N/A	N/A	N/A	1.48471752584	N/A	N/A	N/A	N/A	N/A	N/A
42134.9943	N/A	N/A	18.135481498	59.462001275	N/A	N/A	N/A	N/A	N/A	1.48473269276	N/A	N/A	N/A	N/A	N/A	N/A
42134.9993	N/A	N/A	18.135481496	59.462001274	N/A	N/A	N/A	N/A	N/A	1.48472417555	N/A	N/A	N/A	N/A	N/A	N/A
42135.0043	N/A	N/A	18.135481493	59.462001273	N/A	N/A	N/A	N/A	N/A	1.48473445554	N/A	N/A	N/A	N/A	N/A	N/A
42135.0093	N/A	N/A	18.135481491	59.462001272	N/A	N/A	N/A	N/A	N/A	1.48474049438	N/A	N/A	N/A	N/A	N/A	N/A
42135.0143	N/A	N/A	18.135481489	59.462001271	N/A	N/A	N/A	N/A	N/A	1.48474169865	N/A	N/A	N/A	N/A	N/A	N/A
42135.0193	N/A	N/A	18.135481487	59.46200127	N/A	N/A	N/A	N/A	N/A	1.48475944865	N/A	N/A	N/A	N/A	N/A	N/A
42135.0243	N/A	N/A	18.135481485	59.462001269	N/A	N/A	N/A	N/A	N/A	1.484769781	N/A	N/A	N/A	N/A	N/A	N/A
42135.0293	N/A	N/A	18.135481483	59.462001268	N/A	N/A	N/A	N/A	N/A	1.48477189285	N/A	N/A	N/A	N/A	N/A	N/A
42135.0343	N/A	N/A	18.135481481	59.462001267	N/A	N/A	N/A	N/A	N/A	1.48477337638	N/A	N/A	N/A	N/A	N/A	N/A
42135.0393	N/A	N/A	18.135481479	59.462001266	N/A	N/A	N/A	N/A	N/A	1.48479643218	N/A	N/A	N/A	N/A	N/A	N/A
42135.0443	N/A	N/A	18.135481477	59.462001265	N/A	N/A	N/A	N/A	N/A	1.48479416325	N/A	N/A	N/A	N/A	N/A	N/A
42135.0493	N/A	N/A	18.135481476	59.462001264	N/A	N/A	N/A	N/A	N/A	1.48480308188	N/A	N/A	N/A	N/A	N/A	N/A
42135.0543	N/A	N/A	18.135481474	59.462001263	N/A	N/A	N/A	N/A	N/A	1.48480493193	N/A	N/A	N/A	N/A	N/A	N/A
42135.0593	N/A	N/A	18.135481473	59.462001262	N/A	N/A	N/A	N/A	N/A	1.48481611949	N/A	N/A	N/A	N/A	N/A	N/A
42135.0643	N/A	N/A	18.135481471	59.462001261	N/A	N/A	N/A	N/A	N/A	1.48481372839	N/A	N/A	N/A	N/A	N/A	N/A
42135.0693	N/A	N/A	18.13548147	59.46200126	N/A	N/A	N/A	N/A	N/A	1.48481437416	N/A	N/A	N/A	N/A	N/A	N/A
42135.0743	N/A	N/A	18.135481469	59.462001259	N/A	N/A	N/A	N/A	N/A	1.4848156308	N/A	N/A	N/A	N/A	N/A	N/A
42135.0793	N/A	N/A	18.135481469	59.462001257	N/A	N/A	N/A	N/A	N/A	1.48483308409	N/A	N/A	N/A	N/A	N/A	N/A
42135.0843	N/A	N/A	18.135481468	59.462001256	N/A	N/A	N/A	N/A	N/A	1.48481816153	N/A	N/A	N/A	N/A	N/A	N/A
42135.0893	N/A	N/A	18.135481467	59.462001255	N/A	N/A	N/A	N/A	N/A	1.4848135015	N/A	N/A	N/A	N/A	N/A	N/A
42135.0943	N/A	N/A	18.135481467	59.462001254	N/A	N/A	N/A	N/A	N/A	1.48481522938	N/A	N/A	N/A	N/A	N/A	N/A
42135.0993	N/A	N/A	18.135481467	59.462001253	N/A	N/A	N/A	N/A	N/A	1.48482913965	N/A	N/A	N/A	N/A	N/A	N/A
42135.1043	N/A	N/A	18.135481467	59.462001252	N/A	N/A	N/A	N/A	N/A	1.48483441054	N/A	N/A	N/A	N/A	N/A	N/A
42135.1093	N/A	N/A	18.135481468	59.46200125	N/A	N/A	N/A	N/A	N/A	1.4848190691	N/A	N/A	N/A	N/A	N/A	N/A
42135.1143	N/A	N/A	18.135481468	59.462001249	N/A	N/A	N/A	N/A	N/A	1.48481161654	N/A	N/A	N/A	N/A	N/A	N/A
42135.1193	N/A	N/A	18.135481469	59.462001248	N/A	N/A	N/A	N/A	N/A	1.48481060425	N/A	N/A	N/A	N/A	N/A	N/A
42135.1243	N/A	N/A	18.13548147	59.462001246	N/A	N/A	N/A	N/A	N/A	1.48481561335	N/A	N/A	N/A	N/A	N/A	N/A
42135.1293	N/A	N/A	18.135481481	59.46200131	N/A	N/A	N/A	N/A	N/A	1.48144110651	N/A	N/A	N/A	N/A	N/A	N/A
42135.1343	N/A	N/A	18.135481493	59.462001373	N/A	N/A	N/A	N/A	N/A	1.48144695336	N/A	N/A	N/A	N/A	N/A	N/A
42135.1393	N/A	N/A	18.135481494	59.462001372	N/A	N/A	N/A	N/A	N/A	1.48143422991	N/A	N/A	N/A	N/A	N/A	N/A
42135.1443	N/A	N/A	18.135481496	59.462001371	N/A	N/A	N/A	N/A	N/A	1.48143723188	N/A	N/A	N/A	N/A	N/A	N/A
42135.1493	N/A	N/A	18.135481498	59.46200137	N/A	N/A	N/A	N/A	N/A	1.48144623777	N/A	N/A	N/A	N/A	N/A	N/A
42135.1543	N/A	N/A	18.135481501	59.462001369	N/A	N/A	N/A	N/A	N/A	1.48144156029	N/A	N/A	N/A	N/A	N/A	N/A
42135.1593	N/A	N/A	18.135481504	59.462001368	N/A	N/A	N/A	N/A	N/A	1.48141627047	N/A	N/A	N/A	N/A	N/A	N/A
42135.1643	N/A	N/A	18.135481507	59.462001367	N/A	N/A	N/A	N/A	N/A	1.48142045926	N/A	N/A	N/A	N/A	N/A	N/A
42135.1693	N/A	N/A	18.13548151	59.462001365	N/A	N/A	N/A	N/A	N/A	1.48141738748	N/A	N/A	N/A	N/A	N/A	N/A
42135.1743	N/A	N/A	18.135481514	59.462001364	N/A	N/A	N/A	N/A	N/A	1.48142127957	N/A	N/A	N/A	N/A	N/A	N/A
42135.1793	N/A	N/A	18.135481518	59.462001363	N/A	N/A	N/A	N/A	N/A	1.48142372303	N/A	N/A	N/A	N/A	N/A	N/A
42135.1843	N/A	N/A	18.135481522	59.462001362	N/A	N/A	N/A	N/A	N/A	1.48141750965	N/A	N/A	N/A	N/A	N/A	N/A
42135.1893	N/A	N/A	18.135481526	59.462001361	N/A	N/A	N/A	N/A	N/A	1.48141637519	N/A	N/A	N/A	N/A	N/A	N/A
42135.1943	N/A	N/A	18.135481531	59.46200136	N/A	N/A	N/A	N/A	N/A	1.48139581521	N/A	N/A	N/A	N/A	N/A	N/A
42135.1993	N/A	N/A	18.135481536	59.462001358	N/A	N/A	N/A	N/A	N/A	1.48138867682	N/A	N/A	N/A	N/A	N/A	N/A
42135.2043	N/A	N/A	18.135481542	59.462001357	N/A	N/A	N/A	N/A	N/A	1.48140497819	N/A	N/A	N/A	N/A	N/A	N/A
42135.2093	N/A	N/A	18.135481547	59.462001356	N/A	N/A	N/A	N/A	N/A	1.48141628792	N/A	N/A	N/A	N/A	N/A	N/A
42135.2143	N/A	N/A	18.135481553	59.462001354	N/A	N/A	N/A	N/A	N/A	1.48141862667	N/A	N/A	N/A	N/A	N/A	N/A
42135.2193	N/A	N/A	18.13548156	59.462001353	N/A	N/A	N/A	N/A	N/A	1.48141197696	N/A	N/A	N/A	N/A	N/A	N/A
42135.2243	N/A	N/A	18.135481566	59.462001352	N/A	N/A	N/A	N/A	N/A	1.48142440371	N/A	N/A	N/A	N/A	N/A	N/A
42135.2293	N/A	N/A	18.135481573	59.46200135	N/A	N/A	N/A	N/A	N/A	1.48142154137	N/A	N/A	N/A	N/A	N/A	N/A
42135.2343	N/A	N/A	18.135481581	59.462001349	N/A	N/A	N/A	N/A	N/A	1.48142110503	N/A	N/A	N/A	N/A	N/A	N/A
42135.2393	N/A	N/A	18.135481588	59.462001347	N/A	N/A	N/A	N/A	N/A	1.48143805218	N/A	N/A	N/A	N/A	N/A	N/A
42135.2443	N/A	N/A	18.135481596	59.462001346	N/A	N/A	N/A	N/A	N/A	1.48144021639	N/A	N/A	N/A	N/A	N/A	N/A
42135.2493	N/A	N/A	18.135481605	59.462001344	N/A	N/A	N/A	N/A	N/A	1.48147514043	N/A	N/A	N/A	N/A	N/A	N/A
42135.2543	N/A	N/A	18.135481613	59.462001343	N/A	N/A	N/A	N/A	N/A	1.48148576948	N/A	N/A	N/A	N/A	N/A	N/A
42135.2593	N/A	N/A	18.135481622	59.462001341	N/A	N/A	N/A	N/A	N/A	1.4815062771	N/A	N/A	N/A	N/A	N/A	N/A
42135.2643	N/A	N/A	18.135481631	59.46200134	N/A	N/A	N/A	N/A	N/A	1.48151086732	N/A	N/A	N/A	N/A	N/A	N/A
42135.2693	N/A	N/A	18.135481641	59.462001338	N/A	N/A	N/A	N/A	N/A	1.48151088477	N/A	N/A	N/A	N/A	N/A	N/A
42135.2743	N/A	N/A	18.135481651	59.462001337	N/A	N/A	N/A	N/A	N/A	1.48151465468	N/A	N/A	N/A	N/A	N/A	N/A
42135.2793	N/A	N/A	18.135481661	59.462001335	N/A	N/A	N/A	N/A	N/A	1.48153671564	N/A	N/A	N/A	N/A	N/A	N/A
42135.2843	N/A	N/A	18.135481672	59.462001333	N/A	N/A	N/A	N/A	N/A	1.48154043319	N/A	N/A	N/A	N/A	N/A	N/A
42135.2893	N/A	N/A	18.135481683	59.462001332	N/A	N/A	N/A	N/A	N/A	1.48155172547	N/A	N/A	N/A	N/A	N/A	N/A
42135.2943	N/A	N/A	18.135481694	59.46200133	N/A	N/A	N/A	N/A	N/A	1.48154401112	N/A	N/A	N/A	N/A	N/A	N/A
42135.2993	N/A	N/A	18.135481706	59.462001328	N/A	N/A	N/A	N/A	N/A	1.48154638477	N/A	N/A	N/A	N/A	N/A	N/A
42135.3043	N/A	N/A	18.135481718	59.462001327	N/A	N/A	N/A	N/A	N/A	1.48155450055	N/A	N/A	N/A	N/A	N/A	N/A
42135.3093	N/A	N/A	18.13548173	59.462001325	N/A	N/A	N/A	N/A	N/A	1.48155100989	N/A	N/A	N/A	N/A	N/A	N/A
42135.3143	N/A	N/A	18.135481743	59.462001323	N/A	N/A	N/A	N/A	N/A	1.48155977144	N/A	N/A	N/A	N/A	N/A	N/A
42135.3193	N/A	N/A	18.135481756	59.462001321	N/A	N/A	N/A	N/A	N/A	1.48156951038	N/A	N/A	N/A	N/A	N/A	N/A
42135.3243	N/A	N/A	18.13548177	59.46200132	N/A	N/A	N/A	N/A	N/A	1.48156781741	N/A	N/A	N/A	N/A	N/A	N/A
42135.3293	N/A	N/A	18.135481784	59.462001318	N/A	N/A	N/A	N/A	N/A	1.48155881151	N/A	N/A	N/A	N/A	N/A	N/A
42135.3343	N/A	N/A	18.135481798	59.462001316	N/A	N/A	N/A	N/A	N/A	1.48156249416	N/A	N/A	N/A	N/A	N/A	N/A
42135.3393	N/A	N/A	18.135481813	59.462001314	N/A	N/A	N/A	N/A	N/A	1.48156715418	N/A	N/A	N/A	N/A	N/A	N/A
42135.3443	N/A	N/A	18.135481828	59.462001312	N/A	N/A	N/A	N/A	N/A	1.48157839411	N/A	N/A	N/A	N/A	N/A	N/A
42135.3493	N/A	N/A	18.135481843	59.46200131	N/A	N/A	N/A	N/A	N/A	1.48158410133	N/A	N/A	N/A	N/A	N/A	N/A
42135.3543	N/A	N/A	18.135481859	59.462001308	N/A	N/A	N/A	N/A	N/A	1.48160947842	N/A	N/A	N/A	N/A	N/A	N/A
42135.3593	N/A	N/A	18.135481875	59.462001306	N/A	N/A	N/A	N/A	N/A	1.48161193933	N/A	N/A	N/A	N/A	N/A	N/A
42135.3643	N/A	N/A	18.135481892	59.462001304	N/A	N/A	N/A	N/A	N/A	1.48160673825	N/A	N/A	N/A	N/A	N/A	N/A
42135.3693	N/A	N/A	18.135481908	59.462001302	N/A	N/A	N/A	N/A	N/A	1.48159865738	N/A	N/A	N/A	N/A	N/A	N/A
42135.3743	N/A	N/A	18.135481926	59.4620013	N/A	N/A	N/A	N/A	N/A	1.4815955856	N/A	N/A	N/A	N/A	N/A	N/A
42135.3793	N/A	N/A	18.135481944	59.462001298	N/A	N/A	N/A	N/A	N/A	1.48160691279	N/A	N/A	N/A	N/A	N/A	N/A
42135.3843	N/A	N/A	18.135481962	59.462001296	N/A	N/A	N/A	N/A	N/A	1.48160466131	N/A	N/A	N/A	N/A	N/A	N/A
42135.3893	N/A	N/A	18.135481556	59.462001341	N/A	N/A	N/A	N/A	N/A	1.47842374639	N/A	N/A	N/A	N/A	N/A	N/A
42135.3943	N/A	N/A	18.135481149	59.462001387	N/A	N/A	N/A	N/A	N/A	1.47843250794	N/A	N/A	N/A	N/A	N/A	N/A
42135.3993	N/A	N/A	18.135481165	59.462001385	N/A	N/A	N/A	N/A	N/A	1.47843414855	N/A	N/A	N/A	N/A	N/A	N/A
42135.4043	N/A	N/A	18.135481181	59.462001383	N/A	N/A	N/A	N/A	N/A	1.47842926163	N/A	N/A	N/A	N/A	N/A	N/A
42135.4093	N/A	N/A	18.135481197	59.462001381	N/A	N/A	N/A	N/A	N/A	1.47842692289	N/A	N/A	N/A	N/A	N/A	N/A
42135.4143	N/A	N/A	18.135481214	59.462001378	N/A	N/A	N/A	N/A	N/A	1.47843231596	N/A	N/A	N/A	N/A	N/A	N/A
42135.4193	N/A	N/A	18.135481231	59.462001376	N/A	N/A	N/A	N/A	N/A	1.47842179162	N/A	N/A	N/A	N/A	N/A	N/A
42135.4243	N/A	N/A	18.135481249	59.462001374	N/A	N/A	N/A	N/A	N/A	1.47840896345	N/A	N/A	N/A	N/A	N/A	N/A
42135.4293	N/A	N/A	18.135481267	59.462001372	N/A	N/A	N/A	N/A	N/A	1.47839946886	N/A	N/A	N/A	N/A	N/A	N/A
42135.4343	N/A	N/A	18.135481285	59.46200137	N/A	N/A	N/A	N/A	N/A	1.47839526262	N/A	N/A	N/A	N/A	N/A	N/A
42135.4393	N/A	N/A	18.135481304	59.462001367	N/A	N/A	N/A	N/A	N/A	1.47840489683	N/A	N/A	N/A	N/A	N/A	N/A
42135.4443	N/A	N/A	18.135481323	59.462001365	N/A	N/A	N/A	N/A	N/A	1.47840798607	N/A	N/A	N/A	N/A	N/A	N/A
42135.4493	N/A	N/A	18.135481343	59.462001363	N/A	N/A	N/A	N/A	N/A	1.47841547353	N/A	N/A	N/A	N/A	N/A	N/A
42135.4543	N/A	N/A	18.135481363	59.46200136	N/A	N/A	N/A	N/A	N/A	1.47840817805	N/A	N/A	N/A	N/A	N/A	N/A
42135.4593	N/A	N/A	18.135481383	59.462001358	N/A	N/A	N/A	N/A	N/A	1.47840482702	N/A	N/A	N/A	N/A	N/A	N/A
42135.4643	N/A	N/A	18.135481404	59.462001356	N/A	N/A	N/A	N/A	N/A	1.47839390126	N/A	N/A	N/A	N/A	N/A	N/A
42135.4693	N/A	N/A	18.135481425	59.462001353	N/A	N/A	N/A	N/A	N/A	1.47839746173	N/A	N/A	N/A	N/A	N/A	N/A
42135.4743	N/A	N/A	18.135481446	59.462001351	N/A	N/A	N/A	N/A	N/A	1.47840357038	N/A	N/A	N/A	N/A	N/A	N/A
42135.4793	N/A	N/A	18.135481468	59.462001348	N/A	N/A	N/A	N/A	N/A	1.47839273189	N/A	N/A	N/A	N/A	N/A	N/A
42135.4843	N/A	N/A	18.13548149	59.462001346	N/A	N/A	N/A	N/A	N/A	1.47839540224	N/A	N/A	N/A	N/A	N/A	N/A
42135.4893	N/A	N/A	18.135481513	59.462001343	N/A	N/A	N/A	N/A	N/A	1.47838971247	N/A	N/A	N/A	N/A	N/A	N/A
42135.4943	N/A	N/A	18.135481535	59.462001341	N/A	N/A	N/A	N/A	N/A	1.4783906724	N/A	N/A	N/A	N/A	N/A	N/A
42135.4993	N/A	N/A	18.135481559	59.462001338	N/A	N/A	N/A	N/A	N/A	1.4784039369	N/A	N/A	N/A	N/A	N/A	N/A
42135.5043	N/A	N/A	18.135481582	59.462001336	N/A	N/A	N/A	N/A	N/A	1.478402593	N/A	N/A	N/A	N/A	N/A	N/A
42135.5093	N/A	N/A	18.135481606	59.462001333	N/A	N/A	N/A	N/A	N/A	1.47840671198	N/A	N/A	N/A	N/A	N/A	N/A
42135.5143	N/A	N/A	18.13548163	59.46200133	N/A	N/A	N/A	N/A	N/A	1.47841622402	N/A	N/A	N/A	N/A	N/A	N/A
42135.5193	N/A	N/A	18.135481655	59.462001328	N/A	N/A	N/A	N/A	N/A	1.47840777663	N/A	N/A	N/A	N/A	N/A	N/A
42135.5243	N/A	N/A	18.13548168	59.462001325	N/A	N/A	N/A	N/A	N/A	1.47842154727	N/A	N/A	N/A	N/A	N/A	N/A
42135.5293	N/A	N/A	18.135481705	59.462001322	N/A	N/A	N/A	N/A	N/A	1.47841575278	N/A	N/A	N/A	N/A	N/A	N/A
42135.5343	N/A	N/A	18.135481731	59.46200132	N/A	N/A	N/A	N/A	N/A	1.4784009873	N/A	N/A	N/A	N/A	N/A	N/A
42135.5393	N/A	N/A	18.135481757	59.462001317	N/A	N/A	N/A	N/A	N/A	1.47840683415	N/A	N/A	N/A	N/A	N/A	N/A
42135.5443	N/A	N/A	18.135481783	59.462001314	N/A	N/A	N/A	N/A	N/A	1.47840224393	N/A	N/A	N/A	N/A	N/A	N/A
42135.5493	N/A	N/A	18.13548181	59.462001311	N/A	N/A	N/A	N/A	N/A	1.47841170362	N/A	N/A	N/A	N/A	N/A	N/A
42135.5543	N/A	N/A	18.135481837	59.462001309	N/A	N/A	N/A	N/A	N/A	1.47840439069	N/A	N/A	N/A	N/A	N/A	N/A
42135.5593	N/A	N/A	18.135481864	59.462001306	N/A	N/A	N/A	N/A	N/A	1.47839103892	N/A	N/A	N/A	N/A	N/A	N/A
42135.5643	N/A	N/A	18.135481892	59.462001303	N/A	N/A	N/A	N/A	N/A	1.47839028843	N/A	N/A	N/A	N/A	N/A	N/A
42135.5693	N/A	N/A	18.13548192	59.4620013	N/A	N/A	N/A	N/A	N/A	1.47840210431	N/A	N/A	N/A	N/A	N/A	N/A
42135.5743	N/A	N/A	18.135481948	59.462001297	N/A	N/A	N/A	N/A	N/A	1.47840835258	N/A	N/A	N/A	N/A	N/A	N/A
42135.5793	N/A	N/A	18.135481977	59.462001294	N/A	N/A	N/A	N/A	N/A	1.4784124192	N/A	N/A	N/A	N/A	N/A	N/A
42135.5843	N/A	N/A	18.135482006	59.462001291	N/A	N/A	N/A	N/A	N/A	1.47841721886	N/A	N/A	N/A	N/A	N/A	N/A
42135.5893	N/A	N/A	18.135482036	59.462001288	N/A	N/A	N/A	N/A	N/A	1.47843058808	N/A	N/A	N/A	N/A	N/A	N/A
42135.5943	N/A	N/A	18.135482065	59.462001285	N/A	N/A	N/A	N/A	N/A	1.47842805735	N/A	N/A	N/A	N/A	N/A	N/A
42135.5993	N/A	N/A	18.135482095	59.462001282	N/A	N/A	N/A	N/A	N/A	1.47842519501	N/A	N/A	N/A	N/A	N/A	N/A
42135.6043	N/A	N/A	18.135482126	59.462001279	N/A	N/A	N/A	N/A	N/A	1.4784423516	N/A	N/A	N/A	N/A	N/A	N/A
42135.6093	N/A	N/A	18.135482157	59.462001276	N/A	N/A	N/A	N/A	N/A	1.47843149565	N/A	N/A	N/A	N/A	N/A	N/A
42135.6143	N/A	N/A	18.135482188	59.462001273	N/A	N/A	N/A	N/A	N/A	1.4784272545	N/A	N/A	N/A	N/A	N/A	N/A
42135.6193	N/A	N/A	18.135482219	59.46200127	N/A	N/A	N/A	N/A	N/A	1.47842563134	N/A	N/A	N/A	N/A	N/A	N/A
42135.6243	N/A	N/A	18.135482251	59.462001267	N/A	N/A	N/A	N/A	N/A	1.47843537028	N/A	N/A	N/A	N/A	N/A	N/A
42135.6293	N/A	N/A	18.135482283	59.462001264	N/A	N/A	N/A	N/A	N/A	1.47844039683	N/A	N/A	N/A	N/A	N/A	N/A
42135.6343	N/A	N/A	18.135482316	59.462001261	N/A	N/A	N/A	N/A	N/A	1.47844812864	N/A	N/A	N/A	N/A	N/A	N/A
42135.6393	N/A	N/A	18.135481295	59.462001139	N/A	N/A	N/A	N/A	N/A	1.55166952532	N/A	N/A	N/A	N/A	N/A	N/A
42135.6443	N/A	N/A	18.135480268	59.462001016	N/A	N/A	N/A	N/A	N/A	1.55168610595	N/A	N/A	N/A	N/A	N/A	N/A
42135.6493	N/A	N/A	18.135480292	59.46200101	N/A	N/A	N/A	N/A	N/A	1.5516829469	N/A	N/A	N/A	N/A	N/A	N/A
42135.6543	N/A	N/A	18.135480317	59.462001004	N/A	N/A	N/A	N/A	N/A	1.55169868977	N/A	N/A	N/A	N/A	N/A	N/A
42135.6593	N/A	N/A	18.135480342	59.462000999	N/A	N/A	N/A	N/A	N/A	1.55170621214	N/A	N/A	N/A	N/A	N/A	N/A
42135.6643	N/A	N/A	18.135480368	59.462000993	N/A	N/A	N/A	N/A	N/A	1.55171783604	N/A	N/A	N/A	N/A	N/A	N/A
42135.6693	N/A	N/A	18.135480394	59.462000987	N/A	N/A	N/A	N/A	N/A	1.55173146706	N/A	N/A	N/A	N/A	N/A	N/A
42135.6743	N/A	N/A	18.13548042	59.462000981	N/A	N/A	N/A	N/A	N/A	1.55174406833	N/A	N/A	N/A	N/A	N/A	N/A
42135.6793	N/A	N/A	18.135480447	59.462000976	N/A	N/A	N/A	N/A	N/A	1.55174881563	N/A	N/A	N/A	N/A	N/A	N/A
42135.6843	N/A	N/A	18.135480474	59.46200097	N/A	N/A	N/A	N/A	N/A	1.55175373746	N/A	N/A	N/A	N/A	N/A	N/A
42135.6893	N/A	N/A	18.135480501	59.462000964	N/A	N/A	N/A	N/A	N/A	1.55175276007	N/A	N/A	N/A	N/A	N/A	N/A
42135.6943	N/A	N/A	18.135480529	59.462000958	N/A	N/A	N/A	N/A	N/A	1.55175567477	N/A	N/A	N/A	N/A	N/A	N/A
42135.6993	N/A	N/A	18.135480557	59.462000952	N/A	N/A	N/A	N/A	N/A	1.55175111946	N/A	N/A	N/A	N/A	N/A	N/A
42135.7043	N/A	N/A	18.135480585	59.462000946	N/A	N/A	N/A	N/A	N/A	1.55174563913	N/A	N/A	N/A	N/A	N/A	N/A
42135.7093	N/A	N/A	18.135480613	59.46200094	N/A	N/A	N/A	N/A	N/A	1.55175213176	N/A	N/A	N/A	N/A	N/A	N/A
42135.7143	N/A	N/A	18.135480643	59.462000933	N/A	N/A	N/A	N/A	N/A	1.55175099729	N/A	N/A	N/A	N/A	N/A	N/A
42135.7193	N/A	N/A	18.135480672	59.462000927	N/A	N/A	N/A	N/A	N/A	1.55175893854	N/A	N/A	N/A	N/A	N/A	N/A
42135.7243	N/A	N/A	18.135480701	59.462000921	N/A	N/A	N/A	N/A	N/A	1.55177899237	N/A	N/A	N/A	N/A	N/A	N/A
42135.7293	N/A	N/A	18.135480731	59.462000915	N/A	N/A	N/A	N/A	N/A	1.55178023156	N/A	N/A	N/A	N/A	N/A	N/A
42135.7343	N/A	N/A	18.135480762	59.462000909	N/A	N/A	N/A	N/A	N/A	1.55178431563	N/A	N/A	N/A	N/A	N/A	N/A
42135.7393	N/A	N/A	18.135480792	59.462000902	N/A	N/A	N/A	N/A	N/A	1.55177663618	N/A	N/A	N/A	N/A	N/A	N/A
42135.7443	N/A	N/A	18.135480823	59.462000896	N/A	N/A	N/A	N/A	N/A	1.55178557226	N/A	N/A	N/A	N/A	N/A	N/A
42135.7493	N/A	N/A	18.135480855	59.462000889	N/A	N/A	N/A	N/A	N/A	1.5517852581	N/A	N/A	N/A	N/A	N/A	N/A
42135.7543	N/A	N/A	18.135480887	59.462000883	N/A	N/A	N/A	N/A	N/A	1.55181304375	N/A	N/A	N/A	N/A	N/A	N/A
42135.7593	N/A	N/A	18.135480919	59.462000876	N/A	N/A	N/A	N/A	N/A	1.55181110643	N/A	N/A	N/A	N/A	N/A	N/A
42135.7643	N/A	N/A	18.135480951	59.46200087	N/A	N/A	N/A	N/A	N/A	1.55180822664	N/A	N/A	N/A	N/A	N/A	N/A
42135.7693	N/A	N/A	18.135480984	59.462000863	N/A	N/A	N/A	N/A	N/A	1.55179906366	N/A	N/A	N/A	N/A	N/A	N/A
42135.7743	N/A	N/A	18.135481017	59.462000857	N/A	N/A	N/A	N/A	N/A	1.55179761504	N/A	N/A	N/A	N/A	N/A	N/A
42135.7793	N/A	N/A	18.13548105	59.46200085	N/A	N/A	N/A	N/A	N/A	1.5517944909	N/A	N/A	N/A	N/A	N/A	N/A
42135.7843	N/A	N/A	18.135481084	59.462000843	N/A	N/A	N/A	N/A	N/A	1.55178902802	N/A	N/A	N/A	N/A	N/A	N/A
42135.7893	N/A	N/A	18.135481118	59.462000836	N/A	N/A	N/A	N/A	N/A	1.55178321607	N/A	N/A	N/A	N/A	N/A	N/A
42135.7943	N/A	N/A	18.135481153	59.46200083	N/A	N/A	N/A	N/A	N/A	1.55175766445	N/A	N/A	N/A	N/A	N/A	N/A
42135.7993	N/A	N/A	18.135481188	59.462000823	N/A	N/A	N/A	N/A	N/A	1.55176028244	N/A	N/A	N/A	N/A	N/A	N/A
42135.8043	N/A	N/A	18.135481223	59.462000816	N/A	N/A	N/A	N/A	N/A	1.55175661725	N/A	N/A	N/A	N/A	N/A	N/A
42135.8093	N/A	N/A	18.135481258	59.462000809	N/A	N/A	N/A	N/A	N/A	1.55175995083	N/A	N/A	N/A	N/A	N/A	N/A
42135.8143	N/A	N/A	18.135481294	59.462000802	N/A	N/A	N/A	N/A	N/A	1.55175356293	N/A	N/A	N/A	N/A	N/A	N/A
42135.8193	N/A	N/A	18.135481331	59.462000795	N/A	N/A	N/A	N/A	N/A	1.55174986283	N/A	N/A	N/A	N/A	N/A	N/A
42135.8243	N/A	N/A	18.135481367	59.462000788	N/A	N/A	N/A	N/A	N/A	1.55175927015	N/A	N/A	N/A	N/A	N/A	N/A
42135.8293	N/A	N/A	18.135481404	59.462000781	N/A	N/A	N/A	N/A	N/A	1.55175762954	N/A	N/A	N/A	N/A	N/A	N/A
42135.8343	N/A	N/A	18.135481441	59.462000774	N/A	N/A	N/A	N/A	N/A	1.55176028244	N/A	N/A	N/A	N/A	N/A	N/A
42135.8393	N/A	N/A	18.135481478	59.462000766	N/A	N/A	N/A	N/A	N/A	1.55177078932	N/A	N/A	N/A	N/A	N/A	N/A
42135.8443	N/A	N/A	18.135481516	59.462000759	N/A	N/A	N/A	N/A	N/A	1.55178169763	N/A	N/A	N/A	N/A	N/A	N/A
42135.8493	N/A	N/A	18.135481555	59.462000752	N/A	N/A	N/A	N/A	N/A	1.55178937708	N/A	N/A	N/A	N/A	N/A	N/A
42135.8543	N/A	N/A	18.135481593	59.462000745	N/A	N/A	N/A	N/A	N/A	1.55180063446	N/A	N/A	N/A	N/A	N/A	N/A
42135.8593	N/A	N/A	18.135481632	59.462000737	N/A	N/A	N/A	N/A	N/A	1.55180559119	N/A	N/A	N/A	N/A	N/A	N/A
42135.8643	N/A	N/A	18.135481671	59.46200073	N/A	N/A	N/A	N/A	N/A	1.55179176818	N/A	N/A	N/A	N/A	N/A	N/A
42135.8693	N/A	N/A	18.135481711	59.462000722	N/A	N/A	N/A	N/A	N/A	1.55180307792	N/A	N/A	N/A	N/A	N/A	N/A
42135.8743	N/A	N/A	18.135481751	59.462000715	N/A	N/A	N/A	N/A	N/A	1.55181464945	N/A	N/A	N/A	N/A	N/A	N/A
42135.8793	N/A	N/A	18.135481791	59.462000707	N/A	N/A	N/A	N/A	N/A	1.55180662093	N/A	N/A	N/A	N/A	N/A	N/A
42135.8843	N/A	N/A	18.135481832	59.4620007	N/A	N/A	N/A	N/A	N/A	1.55180496287	N/A	N/A	N/A	N/A	N/A	N/A
42135.8893	N/A	N/A	18.13548045	59.462000529	N/A	N/A	N/A	N/A	N/A	1.66190609167	N/A	N/A	N/A	N/A	N/A	N/A
42135.8943	N/A	N/A	18.135479059	59.462000355	N/A	N/A	N/A	N/A	N/A	1.66190715632	N/A	N/A	N/A	N/A	N/A	N/A
42135.8993	N/A	N/A	18.135479088	59.462000343	N/A	N/A	N/A	N/A	N/A	1.66190129202	N/A	N/A	N/A	N/A	N/A	N/A
42135.9043	N/A	N/A	18.135479118	59.462000332	N/A	N/A	N/A	N/A	N/A	1.66190096041	N/A	N/A	N/A	N/A	N/A	N/A
42135.9093	N/A	N/A	18.135479148	59.46200032	N/A	N/A	N/A	N/A	N/A	1.66190879693	N/A	N/A	N/A	N/A	N/A	N/A
42135.9143	N/A	N/A	18.135479178	59.462000308	N/A	N/A	N/A	N/A	N/A	1.66190872712	N/A	N/A	N/A	N/A	N/A	N/A
42135.9193	N/A	N/A	18.135479208	59.462000296	N/A	N/A	N/A	N/A	N/A	1.66191373622	N/A	N/A	N/A	N/A	N/A	N/A
42135.9243	N/A	N/A	18.135479239	59.462000285	N/A	N/A	N/A	N/A	N/A	1.66191033282	N/A	N/A	N/A	N/A	N/A	N/A
42135.9293	N/A	N/A	18.13547927	59.462000273	N/A	N/A	N/A	N/A	N/A	1.6619301074	N/A	N/A	N/A	N/A	N/A	N/A
42135.9343	N/A	N/A	18.135479302	59.462000261	N/A	N/A	N/A	N/A	N/A	1.66192979325	N/A	N/A	N/A	N/A	N/A	N/A
42135.9393	N/A	N/A	18.135479334	59.462000249	N/A	N/A	N/A	N/A	N/A	1.66193241124	N/A	N/A	N/A	N/A	N/A	N/A
42135.9443	N/A	N/A	18.135479366	59.462000237	N/A	N/A	N/A	N/A	N/A	1.66194197564	N/A	N/A	N/A	N/A	N/A	N/A
42135.9493	N/A	N/A	18.135479398	59.462000225	N/A	N/A	N/A	N/A	N/A	1.66195625244	N/A	N/A	N/A	N/A	N/A	N/A
42135.9543	N/A	N/A	18.135479431	59.462000213	N/A	N/A	N/A	N/A	N/A	1.66195743926	N/A	N/A	N/A	N/A	N/A	N/A
42135.9593	N/A	N/A	18.135479464	59.462000201	N/A	N/A	N/A	N/A	N/A	1.66196305922	N/A	N/A	N/A	N/A	N/A	N/A
42135.9643	N/A	N/A	18.135479497	59.462000188	N/A	N/A	N/A	N/A	N/A	1.66196667205	N/A	N/A	N/A	N/A	N/A	N/A
42135.9693	N/A	N/A	18.135479531	59.462000176	N/A	N/A	N/A	N/A	N/A	1.6619793606	N/A	N/A	N/A	N/A	N/A	N/A
42135.9743	N/A	N/A	18.135479565	59.462000164	N/A	N/A	N/A	N/A	N/A	1.66199313124	N/A	N/A	N/A	N/A	N/A	N/A
42135.9793	N/A	N/A	18.135479599	59.462000151	N/A	N/A	N/A	N/A	N/A	1.66198000637	N/A	N/A	N/A	N/A	N/A	N/A
42135.9843	N/A	N/A	18.135479633	59.462000139	N/A	N/A	N/A	N/A	N/A	1.66197456094	N/A	N/A	N/A	N/A	N/A	N/A
42135.9893	N/A	N/A	18.135479668	59.462000126	N/A	N/A	N/A	N/A	N/A	1.66197293778	N/A	N/A	N/A	N/A	N/A	N/A
42135.9943	N/A	N/A	18.135479703	59.462000114	N/A	N/A	N/A	N/A	N/A	1.66198480602	N/A	N/A	N/A	N/A	N/A	N/A
42135.9993	N/A	N/A	18.135479738	59.462000101	N/A	N/A	N/A	N/A	N/A	1.66198648154	N/A	N/A	N/A	N/A	N/A	N/A
42136.0043	N/A	N/A	18.135479774	59.462000089	N/A	N/A	N/A	N/A	N/A	1.6619847013	N/A	N/A	N/A	N/A	N/A	N/A
42136.0093	N/A	N/A	18.13547981	59.462000076	N/A	N/A	N/A	N/A	N/A	1.66198742402	N/A	N/A	N/A	N/A	N/A	N/A
42136.0143	N/A	N/A	18.135479847	59.462000063	N/A	N/A	N/A	N/A	N/A	1.66197977947	N/A	N/A	N/A	N/A	N/A	N/A
42136.0193	N/A	N/A	18.135479883	59.46200005	N/A	N/A	N/A	N/A	N/A	1.66199133355	N/A	N/A	N/A	N/A	N/A	N/A
42136.0243	N/A	N/A	18.13547992	59.462000037	N/A	N/A	N/A	N/A	N/A	1.66196756217	N/A	N/A	N/A	N/A	N/A	N/A
42136.0293	N/A	N/A	18.135479957	59.462000024	N/A	N/A	N/A	N/A	N/A	1.66197072122	N/A	N/A	N/A	N/A	N/A	N/A
42136.0343	N/A	N/A	18.135479995	59.462000011	N/A	N/A	N/A	N/A	N/A	1.66196876645	N/A	N/A	N/A	N/A	N/A	N/A
42136.0393	N/A	N/A	18.135480033	59.461999998	N/A	N/A	N/A	N/A	N/A	1.66197079103	N/A	N/A	N/A	N/A	N/A	N/A
42136.0443	N/A	N/A	18.135480071	59.461999985	N/A	N/A	N/A	N/A	N/A	1.66196674187	N/A	N/A	N/A	N/A	N/A	N/A
42136.0493	N/A	N/A	18.13548011	59.461999971	N/A	N/A	N/A	N/A	N/A	1.66197951768	N/A	N/A	N/A	N/A	N/A	N/A
42136.0543	N/A	N/A	18.135480149	59.461999958	N/A	N/A	N/A	N/A	N/A	1.66197126227	N/A	N/A	N/A	N/A	N/A	N/A
42136.0593	N/A	N/A	18.135480188	59.461999945	N/A	N/A	N/A	N/A	N/A	1.66197388026	N/A	N/A	N/A	N/A	N/A	N/A
42136.0643	N/A	N/A	18.135480227	59.461999931	N/A	N/A	N/A	N/A	N/A	1.66198471876	N/A	N/A	N/A	N/A	N/A	N/A
42136.0693	N/A	N/A	18.135480267	59.461999918	N/A	N/A	N/A	N/A	N/A	1.66197944786	N/A	N/A	N/A	N/A	N/A	N/A
42136.0743	N/A	N/A	18.135480308	59.461999904	N/A	N/A	N/A	N/A	N/A	1.6619947544	N/A	N/A	N/A	N/A	N/A	N/A
42136.0793	N/A	N/A	18.135480348	59.461999891	N/A	N/A	N/A	N/A	N/A	1.66199971114	N/A	N/A	N/A	N/A	N/A	N/A
42136.0843	N/A	N/A	18.135480389	59.461999877	N/A	N/A	N/A	N/A	N/A	1.66201405774	N/A	N/A	N/A	N/A	N/A	N/A
42136.0893	N/A	N/A	18.13548043	59.461999863	N/A	N/A	N/A	N/A	N/A	1.66202805528	N/A	N/A	N/A	N/A	N/A	N/A
42136.0943	N/A	N/A	18.135480471	59.46199985	N/A	N/A	N/A	N/A	N/A	1.66204374579	N/A	N/A	N/A	N/A	N/A	N/A
42136.0993	N/A	N/A	18.135480513	59.461999836	N/A	N/A	N/A	N/A	N/A	1.66203779422	N/A	N/A	N/A	N/A	N/A	N/A
42136.1043	N/A	N/A	18.135480555	59.461999822	N/A	N/A	N/A	N/A	N/A	1.66203770695	N/A	N/A	N/A	N/A	N/A	N/A
42136.1093	N/A	N/A	18.135480598	59.461999808	N/A	N/A	N/A	N/A	N/A	1.6620440425	N/A	N/A	N/A	N/A	N/A	N/A
42136.1143	N/A	N/A	18.135480641	59.461999794	N/A	N/A	N/A	N/A	N/A	1.66204884215	N/A	N/A	N/A	N/A	N/A	N/A
42136.1193	N/A	N/A	18.135480684	59.46199978	N/A	N/A	N/A	N/A	N/A	1.6620639567	N/A	N/A	N/A	N/A	N/A	N/A
42136.1243	N/A	N/A	18.135480727	59.461999766	N/A	N/A	N/A	N/A	N/A	1.66208980503	N/A	N/A	N/A	N/A	N/A	N/A
42136.1293	N/A	N/A	18.135480771	59.461999751	N/A	N/A	N/A	N/A	N/A	1.66209591368	N/A	N/A	N/A	N/A	N/A	N/A
42136.1343	N/A	N/A	18.135480816	59.461999737	N/A	N/A	N/A	N/A	N/A	1.66209244048	N/A	N/A	N/A	N/A	N/A	N/A
42136.1393	N/A	N/A	18.135479171	59.461999525	N/A	N/A	N/A	N/A	N/A	1.7967256729	N/A	N/A	N/A	N/A	N/A	N/A
42136.1443	N/A	N/A	18.135477516	59.461999308	N/A	N/A	N/A	N/A	N/A	1.7967291112	N/A	N/A	N/A	N/A	N/A	N/A
42136.1493	N/A	N/A	18.135477546	59.461999289	N/A	N/A	N/A	N/A	N/A	1.79674457482	N/A	N/A	N/A	N/A	N/A	N/A
42136.1543	N/A	N/A	18.135477577	59.461999269	N/A	N/A	N/A	N/A	N/A	1.79675054384	N/A	N/A	N/A	N/A	N/A	N/A
42136.1593	N/A	N/A	18.135477608	59.461999249	N/A	N/A	N/A	N/A	N/A	1.7967513816	N/A	N/A	N/A	N/A	N/A	N/A
42136.1643	N/A	N/A	18.135477639	59.461999229	N/A	N/A	N/A	N/A	N/A	1.79674635505	N/A	N/A	N/A	N/A	N/A	N/A
42136.1693	N/A	N/A	18.13547767	59.461999209	N/A	N/A	N/A	N/A	N/A	1.79675920068	N/A	N/A	N/A	N/A	N/A	N/A
42136.1743	N/A	N/A	18.135477702	59.461999189	N/A	N/A	N/A	N/A	N/A	1.79677628745	N/A	N/A	N/A	N/A	N/A	N/A
42136.1793	N/A	N/A	18.135477734	59.461999169	N/A	N/A	N/A	N/A	N/A	1.79677026606	N/A	N/A	N/A	N/A	N/A	N/A
42136.1843	N/A	N/A	18.135477767	59.461999148	N/A	N/A	N/A	N/A	N/A	1.79678667216	N/A	N/A	N/A	N/A	N/A	N/A
42136.1893	N/A	N/A	18.1354778	59.461999128	N/A	N/A	N/A	N/A	N/A	1.79679150672	N/A	N/A	N/A	N/A	N/A	N/A
42136.1943	N/A	N/A	18.135477834	59.461999107	N/A	N/A	N/A	N/A	N/A	1.79682088061	N/A	N/A	N/A	N/A	N/A	N/A
42136.1993	N/A	N/A	18.135477867	59.461999087	N/A	N/A	N/A	N/A	N/A	1.79683016576	N/A	N/A	N/A	N/A	N/A	N/A
42136.2043	N/A	N/A	18.135477902	59.461999066	N/A	N/A	N/A	N/A	N/A	1.7968263784	N/A	N/A	N/A	N/A	N/A	N/A
42136.2093	N/A	N/A	18.135477936	59.461999045	N/A	N/A	N/A	N/A	N/A	1.79682950254	N/A	N/A	N/A	N/A	N/A	N/A
42136.2143	N/A	N/A	18.135477972	59.461999024	N/A	N/A	N/A	N/A	N/A	1.79681548754	N/A	N/A	N/A	N/A	N/A	N/A
42136.2193	N/A	N/A	18.135478007	59.461999003	N/A	N/A	N/A	N/A	N/A	1.79681138602	N/A	N/A	N/A	N/A	N/A	N/A
42136.2243	N/A	N/A	18.135478043	59.461998981	N/A	N/A	N/A	N/A	N/A	1.7968126252	N/A	N/A	N/A	N/A	N/A	N/A
42136.2293	N/A	N/A	18.13547808	59.46199896	N/A	N/A	N/A	N/A	N/A	1.79680555662	N/A	N/A	N/A	N/A	N/A	N/A
42136.2343	N/A	N/A	18.135478117	59.461998939	N/A	N/A	N/A	N/A	N/A	1.79681623804	N/A	N/A	N/A	N/A	N/A	N/A
42136.2393	N/A	N/A	18.135478154	59.461998917	N/A	N/A	N/A	N/A	N/A	1.79683107333	N/A	N/A	N/A	N/A	N/A	N/A
42136.2443	N/A	N/A	18.135478192	59.461998895	N/A	N/A	N/A	N/A	N/A	1.79684350008	N/A	N/A	N/A	N/A	N/A	N/A
42136.2493	N/A	N/A	18.13547823	59.461998873	N/A	N/A	N/A	N/A	N/A	1.79684306375	N/A	N/A	N/A	N/A	N/A	N/A
42136.2543	N/A	N/A	18.135478269	59.461998851	N/A	N/A	N/A	N/A	N/A	1.79684807284	N/A	N/A	N/A	N/A	N/A	N/A
42136.2593	N/A	N/A	18.135478308	59.461998829	N/A	N/A	N/A	N/A	N/A	1.79683920657	N/A	N/A	N/A	N/A	N/A	N/A
42136.2643	N/A	N/A	18.135478348	59.461998807	N/A	N/A	N/A	N/A	N/A	1.79683953818	N/A	N/A	N/A	N/A	N/A	N/A
42136.2693	N/A	N/A	18.135478389	59.461998784	N/A	N/A	N/A	N/A	N/A	1.79684206891	N/A	N/A	N/A	N/A	N/A	N/A
42136.2743	N/A	N/A	18.135478429	59.461998762	N/A	N/A	N/A	N/A	N/A	1.79682995632	N/A	N/A	N/A	N/A	N/A	N/A
42136.2793	N/A	N/A	18.135478471	59.461998739	N/A	N/A	N/A	N/A	N/A	1.79682728597	N/A	N/A	N/A	N/A	N/A	N/A
42136.2843	N/A	N/A	18.135478513	59.461998716	N/A	N/A	N/A	N/A	N/A	1.79681386439	N/A	N/A	N/A	N/A	N/A	N/A
42136.2893	N/A	N/A	18.135478555	59.461998693	N/A	N/A	N/A	N/A	N/A	1.79682445854	N/A	N/A	N/A	N/A	N/A	N/A
42136.2943	N/A	N/A	18.135478598	59.46199867	N/A	N/A	N/A	N/A	N/A	1.79681840224	N/A	N/A	N/A	N/A	N/A	N/A
42136.2993	N/A	N/A	18.135478642	59.461998647	N/A	N/A	N/A	N/A	N/A	1.79682770485	N/A	N/A	N/A	N/A	N/A	N/A
42136.3043	N/A	N/A	18.135478686	59.461998624	N/A	N/A	N/A	N/A	N/A	1.79683021812	N/A	N/A	N/A	N/A	N/A	N/A
42136.3093	N/A	N/A	18.135478731	59.4619986	N/A	N/A	N/A	N/A	N/A	1.79682238159	N/A	N/A	N/A	N/A	N/A	N/A
42136.3143	N/A	N/A	18.135478776	59.461998576	N/A	N/A	N/A	N/A	N/A	1.79684302884	N/A	N/A	N/A	N/A	N/A	N/A
42136.3193	N/A	N/A	18.135478822	59.461998552	N/A	N/A	N/A	N/A	N/A	1.79684803793	N/A	N/A	N/A	N/A	N/A	N/A
42136.3243	N/A	N/A	18.135478869	59.461998528	N/A	N/A	N/A	N/A	N/A	1.79685573484	N/A	N/A	N/A	N/A	N/A	N/A
42136.3293	N/A	N/A	18.135478916	59.461998504	N/A	N/A	N/A	N/A	N/A	1.79683918912	N/A	N/A	N/A	N/A	N/A	N/A
42136.3343	N/A	N/A	18.135478964	59.46199848	N/A	N/A	N/A	N/A	N/A	1.79684393641	N/A	N/A	N/A	N/A	N/A	N/A
42136.3393	N/A	N/A	18.135479012	59.461998455	N/A	N/A	N/A	N/A	N/A	1.79684695583	N/A	N/A	N/A	N/A	N/A	N/A
